timestamp,stateEstimate.x,stateEstimate.y,stateEstimate.z,controller.cmd_thrust,controller.cmd_roll,controller.cmd_pitch,controller.cmd_yaw,controller.r_roll,controller.r_pitch,controller.r_yaw,controller.accelz,controller.actuatorThrust,controller.roll,controller.pitch,controller.yaw,controller.rollRate,controller.pitchRate,controller.yawRate,controller.ctr_yaw
0.0,0.03035457246005535,0.01797415502369404,-0.0033008037135004997,0.0,0.0,0.0,0.0,-0.0017599329585209489,-0.0005563954473473132,0.001728185685351491,0.9992952346801758,0.0,0.0,0.0,-18.8062744140625,2.705470085144043,6.133298397064209,3403.97314453125,0
9.906000000000859,0.03023931197822094,0.0180137250572443,-0.0033898400142788887,0.0,0.0,0.0,0.0,0.0018169613322243094,0.001533009926788509,0.001125972019508481,1.0000324249267578,0.0,0.0,0.0,-18.78786277770996,2.7038869857788086,6.123935699462891,3400.640625,0
19.825000000000728,0.030153272673487663,0.018038300797343254,-0.003504881402477622,0.0,0.0,0.0,0.0,0.0036045988090336323,0.007711225189268589,-0.0003689154691528529,1.0002845525741577,0.0,0.0,0.0,-18.802955627441406,2.6951563358306885,6.114682674407959,3403.372314453125,0
29.722999999999956,0.03003508597612381,0.01807847060263157,-0.003596499329432845,0.0,0.0,0.0,0.0,0.0012235224712640047,0.002282388275489211,0.0003013988316524774,0.9987908005714417,0.0,0.0,0.0,-18.783830642700195,2.6884617805480957,6.096981048583984,3399.91064453125,0
39.634000000000015,0.029933864250779152,0.01811334490776062,-0.0037174203898757696,0.0,0.0,0.0,0.0,0.002048474969342351,0.0003924132033716887,0.00023863960814196616,0.9995132684707642,0.0,0.0,0.0,-18.799219131469727,2.6866586208343506,6.0867743492126465,3402.6962890625,0
49.53900000000067,0.02980978600680828,0.018155450001358986,-0.0038126567378640175,0.0,0.0,0.0,0.0,0.004520781803876162,0.006750889588147402,0.001545966835692525,0.9996902346611023,0.0,0.0,0.0,-18.780515670776367,2.6770594120025635,6.071713924407959,3399.310791015625,0
59.46800000000076,0.029650505632162094,0.0181598961353302,-0.00393981859087944,0.0,0.0,0.0,0.0,-0.0012761690886691213,-0.0007140963571146131,-0.003842128673568368,0.999638020992279,0.0,0.0,0.0,-18.8006649017334,2.6536545753479004,6.053648471832275,3402.957763671875,0
69.36299999999937,0.029520615935325623,0.018200388178229332,-0.004036020487546921,0.0,0.0,0.0,0.0,-0.0008050797041505575,0.0018798152450472116,0.0010810976382344961,1.0020073652267456,0.0,0.0,0.0,-18.78370475769043,2.650135040283203,6.049055576324463,3399.8876953125,0
79.28299999999945,0.029385603964328766,0.018206225708127022,-0.004160958807915449,0.0,0.0,0.0,0.0,0.002415121765807271,0.00382691971026361,-0.0023216528352349997,1.0019614696502686,0.0,0.0,0.0,-18.801685333251953,2.6362931728363037,6.0387349128723145,3403.142333984375,0
89.1830000000009,0.0292514581233263,0.01824389211833477,-0.004255717620253563,0.0,0.0,0.0,0.0,-0.0003760168910957873,-0.0006083642365410924,-1.7493141058366746e-05,1.0012158155441284,0.0,0.0,0.0,-18.783634185791016,2.631018877029419,6.021601676940918,3399.875244140625,0
99.10200000000077,0.029027938842773438,0.01827956736087799,-0.004397619515657425,0.0,0.0,0.0,0.0,-0.0003161366330459714,-0.0013866701629012823,-0.0050317514687776566,0.9977700710296631,0.0,0.0,0.0,-18.799240112304688,2.6150918006896973,6.006840705871582,3402.69970703125,0
109.01200000000063,0.028888681903481483,0.01831616833806038,-0.004491101019084454,0.0,0.0,0.0,0.0,-0.0029729027301073074,-0.001346082310192287,0.0005270346300676465,0.9981957077980042,0.0,0.0,0.0,-18.781360626220703,2.6154024600982666,6.0032429695129395,3399.463623046875,0
118.92400000000089,0.028811175376176834,0.018329299986362457,-0.004596163984388113,0.0,0.0,0.0,0.0,0.00022608015569858253,0.0033106729388237,-0.0016013630665838718,1.0004768371582031,0.0,0.0,0.0,-18.80465316772461,2.6217191219329834,6.010235786437988,3403.6796875,0
128.82799999999952,0.028671039268374443,0.01836499199271202,-0.004694076254963875,0.0,0.0,0.0,0.0,-0.0003337013768032193,-0.0038863662630319595,0.002210860373452306,1.0011146068572998,0.0,0.0,0.0,-18.78567123413086,2.619204521179199,6.00184965133667,3400.243896484375,0
138.7420000000002,0.028654159978032112,0.018419841304421425,-0.004792132414877415,0.0,0.0,0.0,0.0,-0.0027600275352597237,-0.0032447383273392916,0.0036855556536465883,0.9997524619102478,0.0,0.0,0.0,-18.804698944091797,2.643414258956909,6.024221420288086,3403.687744140625,0
148.65300000000025,0.028515946120023727,0.018460525199770927,-0.004893123637884855,0.0,0.0,0.0,0.0,0.0016806356143206358,0.0030298419296741486,-0.0013214092468842864,0.9991573691368103,0.0,0.0,0.0,-18.785057067871094,2.6440176963806152,6.030521869659424,3400.1328125,0
158.5689999999995,0.028589386492967606,0.018485091626644135,-0.004966836888343096,0.0,0.0,0.0,0.0,2.6345951482653618e-05,0.005585088394582272,-0.0028608443681150675,1.0000916719436646,0.0,0.0,0.0,-18.809085845947266,2.6647112369537354,6.045238018035889,3404.481689453125,0
168.46999999999935,0.028455115854740143,0.018528800457715988,-0.005073967389762402,0.0,0.0,0.0,0.0,0.0016608121804893017,0.006790027022361755,-0.0027159182354807854,1.001741886138916,0.0,0.0,0.0,-18.7906436920166,2.6590304374694824,6.029651165008545,3401.143798828125,0
178.39400000000023,0.028393760323524475,0.018537843599915504,-0.005183775443583727,0.0,0.0,0.0,0.0,0.0032271987292915583,-0.002901308471336961,0.0018508784705772996,1.0011664628982544,0.0,0.0,0.0,-18.808948516845703,2.6506433486938477,6.0212860107421875,3404.45703125,0
188.30099999999948,0.02825535275042057,0.01857980154454708,-0.005291275214403868,0.0,0.0,0.0,0.0,0.0017841322114691138,-0.003249190514907241,0.0025176377967000008,0.9995625615119934,0.0,0.0,0.0,-18.789735794067383,2.642716646194458,6.0204644203186035,3400.9794921875,0
198.21500000000015,0.028070658445358276,0.018656134605407715,-0.005431677680462599,0.0,0.0,0.0,0.0,-0.002244621282443404,0.003552498295903206,-0.00212780456058681,1.0003585815429688,0.0,0.0,0.0,-18.810792922973633,2.6454014778137207,6.016369342803955,3404.791015625,0
208.1180000000004,0.02792477235198021,0.018699731677770615,-0.0055386098101735115,0.0,0.0,0.0,0.0,0.0016906240489333868,0.0008274944848380983,-0.001418580417521298,1.0005985498428345,0.0,0.0,0.0,-18.79271125793457,2.6448822021484375,5.999706268310547,3401.518310546875,0
218.03600000000006,0.02776516228914261,0.018715137615799904,-0.005675208289176226,0.0,0.0,0.0,0.0,0.0005164981121197343,-0.0009690142469480634,0.001939893700182438,1.0020004510879517,0.0,0.0,0.0,-18.810415267944336,2.6237435340881348,5.99698543548584,3404.72265625,0
227.9400000000005,0.027612503618001938,0.018757570534944534,-0.005781280808150768,0.0,0.0,0.0,0.0,0.00035099289380013943,0.0026798115577548742,3.253946852055378e-05,0.9992976784706116,0.0,0.0,0.0,-18.79060173034668,2.6219425201416016,6.0007147789001465,3401.136474609375,0
237.8610000000008,0.02737686224281788,0.018804043531417847,-0.00594082148745656,0.0,0.0,0.0,0.0,-0.0015392748173326254,0.000577104336116463,-0.0026598884724080563,0.9972862005233765,0.0,0.0,0.0,-18.80866813659668,2.6128032207489014,5.9808349609375,3404.406494140625,0
247.77000000000044,0.0271991528570652,0.018849479034543037,-0.006058755796402693,0.0,0.0,0.0,0.0,-0.003130759345367551,-0.00041678917477838695,0.0020526936277747154,0.9988223910331726,0.0,0.0,0.0,-18.790029525756836,2.611459732055664,5.96978235244751,3401.032958984375,0
257.6790000000001,0.02710532583296299,0.018915561959147453,-0.006174596957862377,0.0,0.0,0.0,0.0,-0.0005702315247617662,0.004907205700874329,0.0025437583681195974,0.9975182414054871,0.0,0.0,0.0,-18.812631607055664,2.6357810497283936,5.968863010406494,3405.123779296875,0
267.59200000000055,0.026943063363432884,0.018959125503897667,-0.006287894677370787,0.0,0.0,0.0,0.0,-0.0006174459122121334,0.005048735532909632,0.0005899444804526865,1.0002490282058716,0.0,0.0,0.0,-18.793420791625977,2.631310224533081,5.948197364807129,3401.646484375,0
277.5030000000006,0.026932667940855026,0.019001634791493416,-0.006377890706062317,0.0,0.0,0.0,0.0,0.00019664103456307203,0.0007290088688023388,0.0022763933520764112,1.000726580619812,0.0,0.0,0.0,-18.808841705322266,2.65586256980896,5.95130729675293,3404.4375,0
287.41899999999987,0.026770073920488358,0.019047455862164497,-0.006495792418718338,0.0,0.0,0.0,0.0,0.0038556421641260386,0.0007039174088276923,-0.0023462343961000443,0.9996963143348694,0.0,0.0,0.0,-18.788402557373047,2.6527020931243896,5.946983337402344,3400.738525390625,0
297.3279999999995,0.02686820924282074,0.01906139962375164,-0.0065523055382072926,0.0,0.0,0.0,0.0,-0.00017854511679615825,0.0004669167392421514,0.001162214670330286,1.0015232563018799,0.0,0.0,0.0,-18.81112289428711,2.6729421615600586,5.969437599182129,3404.850341796875,0
307.241,0.0267100241035223,0.01911090686917305,-0.0066755046136677265,0.0,0.0,0.0,0.0,-0.00011753018043236807,-0.0011625803308561444,0.0004191606130916625,1.0000497102737427,0.0,0.0,0.0,-18.792404174804688,2.6695618629455566,5.958961486816406,3401.46240234375,0
317.14899999999943,0.026626745238900185,0.019162369892001152,-0.006800280883908272,0.0,0.0,0.0,0.0,0.001101341680623591,0.007019053678959608,-0.002673205453902483,1.0017447471618652,0.0,0.0,0.0,-18.80988311767578,2.6776845455169678,5.962493896484375,3404.62646484375,0
327.0529999999999,0.02646520920097828,0.01921479031443596,-0.006924215704202652,0.0,0.0,0.0,0.0,0.0021534019615501165,-0.00017265108181163669,-0.0016151266172528267,1.0012784004211426,0.0,0.0,0.0,-18.79112434387207,2.676035165786743,5.945239543914795,3401.23095703125,0
336.96700000000055,0.026368770748376846,0.019271081313490868,-0.007058023475110531,0.0,0.0,0.0,0.0,0.00020594063971657306,0.0003905884805135429,0.0007573150214739144,0.9993802309036255,0.0,0.0,0.0,-18.811309814453125,2.6862828731536865,5.949588298797607,3404.884521484375,0
346.8760000000002,0.02620331197977066,0.0193258635699749,-0.007183471228927374,0.0,0.0,0.0,0.0,0.0008472013287246227,-0.000596981612034142,0.0008865545969456434,0.998661458492279,0.0,0.0,0.0,-18.791656494140625,2.6846320629119873,5.941096782684326,3401.327392578125,0
356.78700000000026,0.026004580780863762,0.01938818022608757,-0.007342081516981125,0.0,0.0,0.0,0.0,-0.00018968721269629896,-0.0023152355570346117,0.0009033569949679077,0.998434841632843,0.0,0.0,0.0,-18.809274673461914,2.679305076599121,5.9358978271484375,3404.51611328125,0
366.7049999999999,0.02583617903292179,0.019444508478045464,-0.007470102049410343,0.0,0.0,0.0,0.0,-0.0021506513003259897,0.0016203528502956033,0.00015778708620928228,1.0014175176620483,0.0,0.0,0.0,-18.79054069519043,2.6764349937438965,5.932703018188477,3401.125,0
376.6190000000006,0.025761723518371582,0.019479770213365555,-0.007593462243676186,0.0,0.0,0.0,0.0,0.0005338119808584452,0.0010442381026223302,-0.0010191528126597404,1.001765489578247,0.0,0.0,0.0,-18.806306838989258,2.6814680099487305,5.9360456466674805,3403.97900390625,0
386.52100000000064,0.02559385448694229,0.01953653246164322,-0.0077227940782904625,0.0,0.0,0.0,0.0,-0.0016807111678645015,0.005398259032517672,0.0009756072540767491,1.0019493103027344,0.0,0.0,0.0,-18.787696838378906,2.6785295009613037,5.934427738189697,3400.6103515625,0
396.4349999999995,0.02548237517476082,0.019584646448493004,-0.007863150909543037,0.0,0.0,0.0,0.0,-0.000636449723970145,-0.002654097508639097,3.926322824554518e-05,0.9995299577713013,0.0,0.0,0.0,-18.80299186706543,2.685061454772949,5.924569129943848,3403.378662109375,0
406.34100000000035,0.025308411568403244,0.01964316889643669,-0.00799261312931776,0.0,0.0,0.0,0.0,-9.659975330578163e-05,-0.002635433804243803,-0.0015925010666251183,1.0007697343826294,0.0,0.0,0.0,-18.784259796142578,2.6828720569610596,5.9265546798706055,3399.988525390625,0
416.2559999999994,0.025240132585167885,0.01967693120241165,-0.008101112209260464,0.0,0.0,0.0,0.0,0.0008295319275930524,0.0016938647022470832,0.00014006627316121012,1.0001256465911865,0.0,0.0,0.0,-18.806425094604492,2.688910961151123,5.933107376098633,3404.000244140625,0
426.16599999999926,0.025063015520572662,0.019738737493753433,-0.008232484571635723,0.0,0.0,0.0,0.0,-0.0022075690794736147,-1.60034451255342e-05,-0.0003050990344490856,0.9984452724456787,0.0,0.0,0.0,-18.787113189697266,2.6859242916107178,5.925227165222168,3400.504638671875,0
436.0730000000003,0.024930661544203758,0.019793787971138954,-0.008377842605113983,0.0,0.0,0.0,0.0,-1.113251164497342e-05,-0.001759437145665288,-0.004758528433740139,0.9996693730354309,0.0,0.0,0.0,-18.803314208984375,2.695399761199951,5.930970191955566,3403.43701171875,0
445.9879999999994,0.02474895678460598,0.01985635980963707,-0.00851229578256607,0.0,0.0,0.0,0.0,0.0005429670563898981,-0.0016494437586516142,-0.004061501938849688,0.9988014101982117,0.0,0.0,0.0,-18.785507202148438,2.695878505706787,5.926944255828857,3400.214111328125,0
455.90300000000025,0.024560021236538887,0.01992068625986576,-0.008677187375724316,0.0,0.0,0.0,0.0,0.002057277364656329,0.001473498297855258,-0.0013123094104230404,0.9982843399047852,0.0,0.0,0.0,-18.808635711669922,2.6983070373535156,5.917516708374023,3404.400390625,0
465.8150000000005,0.024370817467570305,0.01998329721391201,-0.008814877830445766,0.0,0.0,0.0,0.0,-0.0012420894345268607,-0.004118416458368301,0.00012479504221118987,0.9967697858810425,0.0,0.0,0.0,-18.78952407836914,2.6930882930755615,5.910305023193359,3400.941162109375,0
475.71800000000076,0.024310193955898285,0.0199645534157753,-0.008932827040553093,0.0,0.0,0.0,0.0,-0.0011886653956025839,0.0007948845741339028,0.0018529868684709072,0.9977859258651733,0.0,0.0,0.0,-18.807594299316406,2.6757748126983643,5.928185939788818,3404.2119140625,0
485.6329999999998,0.024118991568684578,0.02002299763262272,-0.00907876156270504,0.0,0.0,0.0,0.0,0.0009313482441939414,2.9115337383700535e-05,-0.002319532446563244,0.9996852874755859,0.0,0.0,0.0,-18.787731170654297,2.670217752456665,5.924531936645508,3400.61669921875,0
495.54199999999946,0.02404065802693367,0.02006981521844864,-0.009208309464156628,0.0,0.0,0.0,0.0,-0.0017945454455912113,0.0029658523853868246,0.002823108108714223,1.000328779220581,0.0,0.0,0.0,-18.810344696044922,2.6779258251190186,5.935344696044922,3404.709716796875,0
505.45100000000093,0.03469200059771538,0.016366928815841675,0.0006973889539949596,0.0,0.0,0.0,0.0,-0.00046305853174999356,-0.001894557848572731,-0.0026932249311357737,1.0013313293457031,0.0,0.0,0.0,-18.832386016845703,2.6543872356414795,6.270265102386475,3408.69921875,0
515.366,0.03464144095778465,0.016375206410884857,0.0006901874439790845,0.0,0.0,0.0,0.0,0.0017221651505678892,0.00160190649330616,0.00012945520575158298,0.9992630481719971,0.0,0.0,0.0,-18.846622467041016,2.6554617881774902,6.264790058135986,3411.276123046875,0
525.2800000000007,0.034593816846609116,0.016383299604058266,0.0006628695991821587,0.0,0.0,0.0,0.0,0.00495726615190506,-0.00026184521266259253,-0.0019953858572989702,1.0013446807861328,0.0,0.0,0.0,-18.828367233276367,2.64622163772583,6.252392768859863,3407.971923828125,0
535.1929999999993,0.03455721214413643,0.016430309042334557,0.0006371383788064122,0.0,0.0,0.0,0.0,0.0011839817743748426,-0.0017798407934606075,-0.0015605171211063862,1.0019092559814453,0.0,0.0,0.0,-18.848716735839844,2.644477367401123,6.237641334533691,3411.6552734375,0
545.0990000000002,0.03450825810432434,0.016439076513051987,0.0006126730586402118,0.0,0.0,0.0,0.0,0.00146376749034971,0.006224993150681257,0.0011470881290733814,1.0000015497207642,0.0,0.0,0.0,-18.83036231994629,2.6365394592285156,6.242834568023682,3408.3330078125,0
555.0059999999994,0.03446250036358833,0.016484852880239487,0.0005949037149548531,0.0,0.0,0.0,0.0,0.00068149424623698,-0.0016459805192425847,-0.0004202671116217971,0.9992902278900146,0.0,0.0,0.0,-18.849496841430664,2.6420695781707764,6.223751544952393,3411.79638671875,0
564.9159999999993,0.034409355372190475,0.016494998708367348,0.0005716109881177545,0.0,0.0,0.0,0.0,0.0017214766703546047,0.005807909648865461,0.0029154489748179913,0.9997192621231079,0.0,0.0,0.0,-18.830774307250977,2.6389522552490234,6.2154645919799805,3408.407470703125,0
574.8330000000005,0.0343775637447834,0.016542643308639526,0.0005006100982427597,0.0,0.0,0.0,0.0,0.0003367821336723864,-0.0033291978761553764,-0.0007281088037416339,1.0015604496002197,0.0,0.0,0.0,-18.844430923461914,2.6491897106170654,6.212791442871094,3410.87939453125,0
584.7420000000002,0.03432323411107063,0.016553612425923347,0.0004745576879940927,0.0,0.0,0.0,0.0,0.0012583123752847314,0.0024126176722347736,-0.0007208406459540129,0.9991376996040344,0.0,0.0,0.0,-18.827157974243164,2.6414499282836914,6.2054619789123535,3407.752685546875,0
594.6569999999992,0.03430509939789772,0.016597872599959373,0.0003648185811471194,0.0,0.0,0.0,0.0,0.0008022598340176046,0.0005391075974330306,0.0027385668363422155,1.003538727760315,0.0,0.0,0.0,-18.842361450195312,2.648681163787842,6.202366828918457,3410.5048828125,0
604.5599999999995,0.03425214812159538,0.016609307378530502,0.00033507042098790407,0.0,0.0,0.0,0.0,0.0007209634059108794,-0.00014524890866596252,0.0008939326507970691,1.0032238960266113,0.0,0.0,0.0,-18.822437286376953,2.6446962356567383,6.192062854766846,3406.8984375,0
614.4760000000006,0.03421353921294212,0.016625309363007545,0.0002687989908736199,0.0,0.0,0.0,0.0,-0.0023802020587027073,-0.001231432775966823,0.002615502802655101,1.0002405643463135,0.0,0.0,0.0,-18.838727951049805,2.6486964225769043,6.187291145324707,3409.84716796875,0
624.3919999999998,0.034158870577812195,0.01663951948285103,0.000241479545366019,0.0,0.0,0.0,0.0,-0.001200397266075015,0.0023229382932186127,-0.001811372465454042,0.9994096159934998,0.0,0.0,0.0,-18.819128036499023,2.649563789367676,6.179638862609863,3406.299560546875,0
634.3029999999999,0.03409038856625557,0.016664689406752586,0.00023803833755664527,0.0,0.0,0.0,0.0,-0.00019898921891581267,0.006667559966444969,-0.0032689913641661406,0.9996479153633118,0.0,0.0,0.0,-18.837814331054688,2.6536481380462646,6.162655353546143,3409.681640625,0
644.1970000000001,0.034029677510261536,0.016680492088198662,0.00021237775217741728,0.0,0.0,0.0,0.0,0.0024872380308806896,0.0021042609587311745,0.0013436190783977509,1.001822590827942,0.0,0.0,0.0,-18.81927490234375,2.6501052379608154,6.1406941413879395,3406.326171875,0
654.107,0.03399026393890381,0.016710154712200165,0.0001443239307263866,0.0,0.0,0.0,0.0,-0.0006008424097672105,0.0026039271615445614,-0.000699252646882087,0.9998509287834167,0.0,0.0,0.0,-18.83382797241211,2.6524782180786133,6.137130260467529,3408.9599609375,0
664.0229999999992,0.033925723284482956,0.016729138791561127,0.000117528295959346,0.0,0.0,0.0,0.0,-0.001841318910010159,0.004977054428309202,0.002357697347179055,1.000178337097168,0.0,0.0,0.0,-18.81598663330078,2.65078067779541,6.12750768661499,3405.731201171875,0
673.9349999999995,0.03388253226876259,0.016757585108280182,5.1118440751452e-05,0.0,0.0,0.0,0.0,0.0027029355987906456,0.000793290906585753,-0.0020107056479901075,1.0005903244018555,0.0,0.0,0.0,-18.82874870300293,2.6553399562835693,6.1167073249816895,3408.040771484375,0
683.8410000000003,0.03381456062197685,0.016778940334916115,2.2384578187484294e-05,0.0,0.0,0.0,0.0,-0.0006086159846745431,0.0038006373215466738,0.000962550810072571,1.0005934238433838,0.0,0.0,0.0,-18.81035804748535,2.6418750286102295,6.10698127746582,3404.712158203125,0
693.759,0.033774469047784805,0.016809439286589622,-5.098657857161015e-05,0.0,0.0,0.0,0.0,0.0009322261321358383,0.0007001003832556307,0.006213347427546978,0.9987537860870361,0.0,0.0,0.0,-18.82861328125,2.6489007472991943,6.098719596862793,3408.0166015625,0
703.6620000000003,0.03370169177651405,0.016830576583743095,-8.265233191195875e-05,0.0,0.0,0.0,0.0,-0.002244675764814019,-0.0006736096693202853,-0.003236442571505904,1.0003927946090698,0.0,0.0,0.0,-18.808128356933594,2.6407225131988525,6.089118480682373,3404.30859375,0
713.5820000000003,0.03362138196825981,0.016804898157715797,-0.00014408274728339165,0.0,0.0,0.0,0.0,-0.0005690903635695577,-0.0030719570349901915,-0.0011384956305846572,1.0009628534317017,0.0,0.0,0.0,-18.82636260986328,2.6249606609344482,6.085041522979736,3407.609130859375,0
723.491,0.033542484045028687,0.016821948811411858,-0.00017633002426009625,0.0,0.0,0.0,0.0,0.0013480958295986056,-0.0016964374808594584,0.0013402047334238887,0.9999260902404785,0.0,0.0,0.0,-18.80821418762207,2.624375343322754,6.086840629577637,3404.32421875,0
733.4030000000002,0.03348208963871002,0.016813794150948524,-0.00025232398184016347,0.0,0.0,0.0,0.0,-0.0011661655735224485,0.003897541668266058,0.002724174177274108,0.999931275844574,0.0,0.0,0.0,-18.828805923461914,2.6187729835510254,6.090239524841309,3408.05126953125,0
743.3050000000003,0.03448569029569626,0.01648370921611786,0.0007319620926864445,0.0,0.0,0.0,0.0,-0.0004104475665371865,-0.000541479152161628,0.0020176274701952934,1.0000460147857666,0.0,0.0,0.0,-18.848125457763672,2.632082223892212,6.279585361480713,3411.54833984375,0
753.2250000000004,0.0344652384519577,0.0165008082985878,0.0007230378105305135,0.0,0.0,0.0,0.0,-0.0007488032570108771,0.0015465026954188943,0.0010206822771579027,1.0002548694610596,0.0,0.0,0.0,-18.863489151000977,2.632847785949707,6.278453826904297,3414.3291015625,0
763.1270000000004,0.03442922234535217,0.016504749655723572,0.000729949853848666,0.0,0.0,0.0,0.0,0.0020110360346734524,0.000344905216479674,0.0003169126866851002,0.9990531206130981,0.0,0.0,0.0,-18.845190048217773,2.6317784786224365,6.27359676361084,3411.016845703125,0
773.0400000000009,0.034402962774038315,0.016471819952130318,0.0006889210199005902,0.0,0.0,0.0,0.0,-0.0008800092036835849,-0.0008088564500212669,-0.003182995365932584,0.9991178512573242,0.0,0.0,0.0,-18.86026382446289,2.6274547576904297,6.2711639404296875,3413.74560546875,0
782.9490000000005,0.03436245396733284,0.01647358573973179,0.0006921268650330603,0.0,0.0,0.0,0.0,0.0019581043161451817,0.0022224397398531437,-0.0012761654797941446,0.9997289776802063,0.0,0.0,0.0,-18.84209632873535,2.629664421081543,6.264183044433594,3410.456787109375,0
792.8600000000006,0.03433763235807419,0.016509057953953743,0.0006589001859538257,0.0,0.0,0.0,0.0,-0.001367120654322207,0.0033106582704931498,0.0009162506903521717,0.9979780316352844,0.0,0.0,0.0,-18.85626220703125,2.6377146244049072,6.254201412200928,3413.02099609375,0
802.7710000000006,0.03429428115487099,0.0165109783411026,0.0006582370842806995,0.0,0.0,0.0,0.0,-0.0008671747636981308,-0.0015331212198361754,-0.0033339611254632473,0.9997493028640747,0.0,0.0,0.0,-18.837621688842773,2.6335902214050293,6.231326103210449,3409.64697265625,0
812.6820000000007,0.03426634147763252,0.01653706096112728,0.0006083399057388306,0.0,0.0,0.0,0.0,0.001716415397822857,0.0045107160694897175,0.0021984705235809088,0.9992039799690247,0.0,0.0,0.0,-18.853221893310547,2.64261794090271,6.231543064117432,3412.470458984375,0
822.5930000000008,0.034219615161418915,0.016539502888917923,0.0006032478995621204,0.0,0.0,0.0,0.0,0.0014391388976946473,0.0024634222500026226,0.002415040507912636,0.9997419714927673,0.0,0.0,0.0,-18.834457397460938,2.6357004642486572,6.216571807861328,3409.074462890625,0
832.5040000000008,0.034203752875328064,0.016603190451860428,0.0005008195294067264,0.0,0.0,0.0,0.0,0.0016225525178015232,0.0015238055493682623,-0.003645508550107479,0.9995896220207214,0.0,0.0,0.0,-18.853267669677734,2.6520042419433594,6.218253135681152,3412.47900390625,0
842.4140000000007,0.03415596857666969,0.016607247292995453,0.0004884959780611098,0.0,0.0,0.0,0.0,0.0005816424963995814,-0.0024236503522843122,-0.0021275749895721674,0.9996180534362793,0.0,0.0,0.0,-18.83578872680664,2.642397880554199,6.2077836990356445,3409.31494140625,0
852.3299999999999,0.03411722555756569,0.01661992445588112,0.00044253410305827856,0.0,0.0,0.0,0.0,0.004371572285890579,-0.0017608521739020944,-0.0019776031840592623,0.9983611702919006,0.0,0.0,0.0,-18.849720001220703,2.645787477493286,6.206786155700684,3411.836669921875,0
862.246000000001,0.034067552536726,0.0166231170296669,0.0004267797339707613,0.0,0.0,0.0,0.0,-0.0026533419732004404,0.002649908885359764,-0.0018010369967669249,1.0007081031799316,0.0,0.0,0.0,-18.830280303955078,2.631678342819214,6.208898544311523,3408.318115234375,0
872.1470000000008,0.0340312235057354,0.016612885519862175,0.0003473480464890599,0.0,0.0,0.0,0.0,0.0015303217805922031,0.0036014735233038664,-1.1023268598364666e-05,1.0004574060440063,0.0,0.0,0.0,-18.85041618347168,2.6379458904266357,6.20320987701416,3411.962890625,0
882.0799999999999,0.03401215746998787,0.01666182465851307,0.00024329160805791616,0.0,0.0,0.0,0.0,0.0002312347205588594,0.006093005649745464,0.0012030513025820255,0.9994633793830872,0.0,0.0,0.0,-18.868898391723633,2.659116506576538,6.197814464569092,3415.308349609375,0
891.969000000001,0.03395960107445717,0.016667164862155914,0.00021714920876547694,0.0,0.0,0.0,0.0,0.003338150680065155,0.0004142529796808958,0.0015625483356416225,1.0012738704681396,0.0,0.0,0.0,-18.849931716918945,2.6556060314178467,6.178643703460693,3411.875244140625,0
901.8860000000004,0.03482367470860481,0.016308441758155823,0.0007576174684800208,0.0,0.0,0.0,0.0,-0.0038379274774342775,-0.006079889368265867,0.0013958121417090297,1.000424861907959,0.0,0.0,0.0,-18.901517868041992,2.6570017337799072,6.370622158050537,3421.212646484375,0
911.7939999999999,0.03481011465191841,0.0162985697388649,0.0007537368219345808,0.0,0.0,0.0,0.0,0.0018867853796109557,0.0006556932348757982,0.004034771583974361,1.000654697418213,0.0,0.0,0.0,-18.882659912109375,2.66180682182312,6.375075817108154,3417.798828125,0
921.7109999999993,0.03480187803506851,0.016338622197508812,0.0007665735902264714,0.0,0.0,0.0,0.0,0.0035297858994454145,-0.0003096497093793005,-0.0009590718545950949,0.999924898147583,0.0,0.0,0.0,-18.89805793762207,2.673630952835083,6.3573713302612305,3420.586181640625,0
931.6139999999996,0.03478370979428291,0.016332898288965225,0.0007651078631170094,0.0,0.0,0.0,0.0,0.0008637887658551335,-0.000698637857567519,-0.0019934535957872868,1.0015816688537598,0.0,0.0,0.0,-18.87844467163086,2.665168523788452,6.3486714363098145,3417.0361328125,0
941.5290000000005,0.034779857844114304,0.016372209414839745,0.0007370023522526026,0.0,0.0,0.0,0.0,0.0009855401003733277,0.0010460286866873503,0.0058268285356462,0.9995816946029663,0.0,0.0,0.0,-18.89302635192871,2.678025007247925,6.344533920288086,3419.67529296875,0
951.4429999999993,0.03475862368941307,0.016370847821235657,0.0007354969275183976,0.0,0.0,0.0,0.0,0.0015427282778546214,-0.0041516851633787155,0.0022588009014725685,1.0007683038711548,0.0,0.0,0.0,-18.871997833251953,2.67223858833313,6.332417964935303,3415.869140625,0
961.3580000000002,0.034764617681503296,0.016425687819719315,0.0006676329066976905,0.0,0.0,0.0,0.0,0.0008866693242453039,-0.002636475022882223,0.0033036661334335804,1.002704381942749,0.0,0.0,0.0,-18.88719367980957,2.6866374015808105,6.339269161224365,3418.619873046875,0
971.259,0.0347447469830513,0.016429435461759567,0.0006638751365244389,0.0,0.0,0.0,0.0,-0.0026617783587425947,-0.0005255911382846534,0.000719349249266088,1.0010864734649658,0.0,0.0,0.0,-18.86748695373535,2.6814732551574707,6.33744478225708,3415.052734375,0
981.1710000000003,0.03472866490483284,0.01645754836499691,0.0006526445504277945,0.0,0.0,0.0,0.0,-0.0005830537411384284,-0.0007425454095937312,0.0012544107157737017,0.9989867806434631,0.0,0.0,0.0,-18.882408142089844,2.6954593658447266,6.332874298095703,3417.753662109375,0
991.0799999999999,0.034705184400081635,0.016464414075016975,0.0006497184513136744,0.0,0.0,0.0,0.0,0.0037966046947985888,-0.0024528519716113806,-0.002210526494309306,0.9998778104782104,0.0,0.0,0.0,-18.863000869750977,2.6930789947509766,6.330795764923096,3414.24072265625,0
1000.9920000000002,0.03467269614338875,0.016482289880514145,0.0006735353381372988,0.0,0.0,0.0,0.0,0.001442273030988872,-0.002508334117010236,-0.003163288114592433,1.001666784286499,0.0,0.0,0.0,-18.88148307800293,2.689117431640625,6.324746131896973,3417.5859375,0
1010.9040000000005,0.034643664956092834,0.016490519046783447,0.0006731635658070445,0.0,0.0,0.0,0.0,0.0039775436744093895,0.0005618224968202412,0.0020279621239751577,1.0004312992095947,0.0,0.0,0.0,-18.86261749267578,2.685361385345459,6.326018810272217,3414.171630859375,0
1020.8150000000005,0.03461148217320442,0.01645492948591709,0.0006487304344773293,0.0,0.0,0.0,0.0,0.003341333009302616,0.0009762233239598572,0.0027094269171357155,1.0002492666244507,0.0,0.0,0.0,-18.879850387573242,2.6649937629699707,6.323577404022217,3417.29052734375,0
1030.7309999999998,0.0345771387219429,0.016460660845041275,0.0006480672745965421,0.0,0.0,0.0,0.0,0.005286074709147215,0.002829027594998479,-0.0012319678207859397,1.0012636184692383,0.0,0.0,0.0,-18.860260009765625,2.659609794616699,6.311717510223389,3413.744873046875,0
1040.6389999999992,0.034547265619039536,0.016495702788233757,0.0006418556440621614,0.0,0.0,0.0,0.0,-0.0019802325405180454,-0.0031192335300147533,0.000300751969916746,1.002142071723938,0.0,0.0,0.0,-18.879281997680664,2.661487579345703,6.302732944488525,3417.187744140625,0
1050.545,0.03451068699359894,0.016504371538758278,0.0006433224771171808,0.0,0.0,0.0,0.0,0.0019413186237215996,0.0025508729740977287,0.000347021414199844,1.002710223197937,0.0,0.0,0.0,-18.86097526550293,2.662277936935425,6.302479267120361,3413.8740234375,0
1060.4580000000005,0.03447183221578598,0.016518130898475647,0.0006452263914979994,0.0,0.0,0.0,0.0,-0.0002120706922141835,-0.0015714038163423538,0.004420650657266378,0.9972953796386719,0.0,0.0,0.0,-18.87241554260254,2.655416488647461,6.290355205535889,3415.944580078125,0
1070.3680000000004,0.034429825842380524,0.016527241095900536,0.0006487859645858407,0.0,0.0,0.0,0.0,-0.0019549978896975517,-0.007467573042958975,0.0001290914078708738,0.9963845610618591,0.0,0.0,0.0,-18.852651596069336,2.652830123901367,6.2883148193359375,3412.367431640625,0
1080.2819999999992,0.03440020605921745,0.016554389148950577,0.0006214904715307057,0.0,0.0,0.0,0.0,-0.00352089898660779,-0.0017935149371623993,-0.0006719024968333542,1.0000046491622925,0.0,0.0,0.0,-18.871349334716797,2.664940357208252,6.294030666351318,3415.751708984375,0
1090.192000000001,0.03435444086790085,0.016564682126045227,0.0006190583808347583,0.0,0.0,0.0,0.0,-0.001488382345996797,-0.004072110168635845,0.003080887021496892,1.0014517307281494,0.0,0.0,0.0,-18.85301399230957,2.6648073196411133,6.287219047546387,3412.43310546875,0
1100.1020000000008,0.034309327602386475,0.01658511720597744,0.0005903151468373835,0.0,0.0,0.0,0.0,0.004622097592800856,0.002151665510609746,0.0004149553715251386,1.0019899606704712,0.0,0.0,0.0,-18.866044998168945,2.6728830337524414,6.295506000518799,3414.7919921875,0
1110.0120000000006,0.034260645508766174,0.016597988083958626,0.0005888704326935112,0.0,0.0,0.0,0.0,0.0013556680642068386,0.0041521769016981125,0.0012590266996994615,1.0010089874267578,0.0,0.0,0.0,-18.847196578979492,2.663269281387329,6.274200916290283,3411.3798828125,0
1119.9259999999995,0.034252092242240906,0.01661928929388523,0.0005106098251417279,0.0,0.0,0.0,0.0,-0.0026501757092773914,0.0017670240486040711,0.00026509820600040257,1.003005027770996,0.0,0.0,0.0,-18.8598690032959,2.6681478023529053,6.268661975860596,3413.673828125,0
1129.8359999999993,0.034204114228487015,0.016636386513710022,0.0005076092202216387,0.0,0.0,0.0,0.0,-0.0006073908298276365,-0.0036217528395354748,0.0004484824021346867,0.9997146129608154,0.0,0.0,0.0,-18.840402603149414,2.669290781021118,6.264049530029297,3410.150390625,0
1139.7489999999998,0.03418479859828949,0.016629641875624657,0.00043134993757121265,0.0,0.0,0.0,0.0,0.0020230086520314217,-0.00036124681355431676,0.0012060567969456315,0.9993805885314941,0.0,0.0,0.0,-18.855365753173828,2.6691832542419434,6.278581619262695,3412.858642578125,0
1149.6589999999997,0.034134216606616974,0.016645479947328568,0.0004236036620568484,0.0,0.0,0.0,0.0,0.0003360342816449702,0.0027588489465415478,-0.001863087178207934,0.9998234510421753,0.0,0.0,0.0,-18.836772918701172,2.664252996444702,6.26593542098999,3409.493408203125,0
1159.567000000001,0.03412353992462158,0.016675716266036034,0.0003564430808182806,0.0,0.0,0.0,0.0,-0.0008007744909264147,0.002541785826906562,0.004185592755675316,1.0005018711090088,0.0,0.0,0.0,-18.857322692871094,2.671814203262329,6.259034633636475,3413.212890625,0
1169.4770000000008,0.03407331183552742,0.016693223267793655,0.0003446580667514354,0.0,0.0,0.0,0.0,-4.32174692832632e-06,-0.004944755230098963,0.0019942992366850376,0.9996172785758972,0.0,0.0,0.0,-18.83807373046875,2.666627883911133,6.242953300476074,3409.728515625,0
1179.3880000000008,0.03405523672699928,0.01671459898352623,0.0002829538134392351,0.0,0.0,0.0,0.0,-0.0003242650127504021,-0.0012466834159567952,-0.0004352774121798575,1.0012798309326172,0.0,0.0,0.0,-18.849376678466797,2.670114755630493,6.251267433166504,3411.7744140625,0
1189.2999999999993,0.03400576114654541,0.01673412322998047,0.0002682069316506386,0.0,0.0,0.0,0.0,-0.0026983872521668673,0.003856397932395339,-0.0036379515659064054,0.999286949634552,0.0,0.0,0.0,-18.830093383789062,2.665205955505371,6.26005220413208,3408.2841796875,0
1199.2090000000007,0.033986713737249374,0.01674704998731613,0.00020244246115908027,0.0,0.0,0.0,0.0,0.0015296048950403929,0.0003797482349909842,0.0013919129269197583,1.000765085220337,0.0,0.0,0.0,-18.84384536743164,2.676597833633423,6.245980739593506,3410.773193359375,0
1209.1200000000008,0.03393668308854103,0.016769662499427795,0.00018448656192049384,0.0,0.0,0.0,0.0,0.0032333170529454947,-0.0044879429042339325,-0.0007769646472297609,1.0012778043746948,0.0,0.0,0.0,-18.824478149414062,2.67246150970459,6.234676837921143,3407.267822265625,0
1219.0329999999994,0.03391333296895027,0.016793999820947647,0.00012600183254107833,0.0,0.0,0.0,0.0,0.003185987239703536,0.005295983050018549,0.0008633784600533545,0.9993352890014648,0.0,0.0,0.0,-18.8389949798584,2.6749489307403564,6.2329607009887695,3409.8955078125,0
1228.9439999999995,0.03459936007857323,0.016483424231410027,0.0007198070525191724,0.0,0.0,0.0,0.0,0.0005866920691914856,-0.0003293367917649448,0.0035779604222625494,1.00088369846344,0.0,0.0,0.0,-18.86225128173828,2.652531385421753,6.335205554962158,3414.105224609375,0
1238.853000000001,0.03462553024291992,0.016506966203451157,0.000680768396705389,0.0,0.0,0.0,0.0,0.0015949213411659002,0.0016969125717878342,-0.0023122276179492474,1.0002161264419556,0.0,0.0,0.0,-18.89460563659668,2.663306713104248,6.337652206420898,3419.96142578125,0
1248.7639999999992,0.03457191586494446,0.0165416169911623,0.0006718065706081688,0.0,0.0,0.0,0.0,0.0009642298682592809,0.0014692279510200024,-0.004252762999385595,1.0005674362182617,0.0,0.0,0.0,-18.857498168945312,2.6617934703826904,6.314879894256592,3413.24462890625,0
1258.6890000000003,0.034568674862384796,0.016525298357009888,0.0006805870798416436,0.0,0.0,0.0,0.0,-0.000698954681865871,0.0017000014195218682,0.0006070585804991424,1.0020840167999268,0.0,0.0,0.0,-18.89287567138672,2.6644866466522217,6.312617301940918,3419.648193359375,0
1268.5859999999993,0.034506481140851974,0.016559140756726265,0.0006776313530281186,0.0,0.0,0.0,0.0,-0.00042003070120699704,0.007906317710876465,-0.004931468982249498,1.0001040697097778,0.0,0.0,0.0,-18.855226516723633,2.650641679763794,6.29179573059082,3412.83349609375,0
1278.5059999999994,0.034489311277866364,0.016474759206175804,0.0006975000142119825,0.0,0.0,0.0,0.0,-0.00296012032777071,-0.003490658476948738,-0.0013710098573938012,0.9999297857284546,0.0,0.0,0.0,-18.88926887512207,2.6404192447662354,6.288299560546875,3418.995361328125,0
1288.4120000000003,0.03445042297244072,0.016489684581756592,0.000699832511600107,0.0,0.0,0.0,0.0,-0.003354813903570175,0.00013220573600847274,0.0004140350210946053,0.9997238516807556,0.0,0.0,0.0,-18.87175750732422,2.6375010013580322,6.271556377410889,3415.825439453125,0
1298.326000000001,0.034405406564474106,0.0164607185870409,0.0007147726719267666,0.0,0.0,0.0,0.0,0.003390043741092086,-0.002969487803056836,0.0011659663869068027,0.9987608790397644,0.0,0.0,0.0,-18.886592864990234,2.636908769607544,6.255852222442627,3418.510986328125,0
1308.2350000000006,0.03436563163995743,0.016472958028316498,0.0007178011001087725,0.0,0.0,0.0,0.0,0.0019424132769927382,0.008041136898100376,-0.0013994734035804868,1.0017991065979004,0.0,0.0,0.0,-18.867753982543945,2.6348986625671387,6.2532639503479,3415.101318359375,0
1318.1589999999997,0.03432527557015419,0.016460053622722626,0.0007001268677413464,0.0,0.0,0.0,0.0,-0.00045601182500831783,-0.0015204311348497868,0.001031752908602357,0.9989332556724548,0.0,0.0,0.0,-18.881990432739258,2.6216158866882324,6.249688625335693,3417.677978515625,0
1328.058000000001,0.03427968919277191,0.016472069546580315,0.000702179444488138,0.0,0.0,0.0,0.0,-0.001152096432633698,-0.002006269060075283,0.002180765150114894,1.0013319253921509,0.0,0.0,0.0,-18.86412239074707,2.617845296859741,6.232632637023926,3414.44384765625,0
1337.969000000001,0.034255996346473694,0.016533872112631798,0.0006404339801520109,0.0,0.0,0.0,0.0,0.0006292950129136443,0.00020938515081070364,-0.004050090909004211,0.9999043941497803,0.0,0.0,0.0,-18.88222885131836,2.6359808444976807,6.23371696472168,3417.72119140625,0
1347.8739999999998,0.03420866280794144,0.016546981409192085,0.0006383009604178369,0.0,0.0,0.0,0.0,-0.001090704812668264,0.004984945058822632,-0.0018446731846779585,0.9982404708862305,0.0,0.0,0.0,-18.86317253112793,2.623800277709961,6.2244415283203125,3414.271728515625,0
1357.7939999999999,0.0341956689953804,0.016596203669905663,0.0005266750231385231,0.0,0.0,0.0,0.0,-0.0011361894430592656,-0.002717173658311367,-0.0025280574336647987,1.0005465745925903,0.0,0.0,0.0,-18.8764705657959,2.644641399383545,6.242874622344971,3416.6787109375,0
1367.696,0.034148696810007095,0.016609806567430496,0.0005157191772013903,0.0,0.0,0.0,0.0,-0.004779626615345478,0.005174315068870783,0.0016341154696419835,0.9993278384208679,0.0,0.0,0.0,-18.856945037841797,2.641747236251831,6.235408782958984,3413.144287109375,0
1377.625,0.03414742648601532,0.01665686070919037,0.000371539150364697,0.0,0.0,0.0,0.0,-0.00044675436220131814,-0.0023077609948813915,-0.002117212861776352,1.0001378059387207,0.0,0.0,0.0,-18.86988639831543,2.6612632274627686,6.244113445281982,3415.48681640625,0
1387.518,0.03410251438617706,0.016672443598508835,0.00035051716258749366,0.0,0.0,0.0,0.0,0.001713133999146521,-0.0009836513781920075,0.000714458292350173,1.0004655122756958,0.0,0.0,0.0,-18.850141525268555,2.6630752086639404,6.227008819580078,3411.9130859375,0
1397.4400000000005,0.03409387916326523,0.016711674630641937,0.0002326089597772807,0.0,0.0,0.0,0.0,0.0031375426333397627,0.0030199000611901283,0.0020810409914702177,1.0010567903518677,0.0,0.0,0.0,-18.867536544799805,2.6813433170318604,6.239319324493408,3415.061767578125,0
1407.3430000000008,0.03404964879155159,0.016730215400457382,0.00020496573415584862,0.0,0.0,0.0,0.0,0.00038397396565414965,-0.0071184984408319,-0.0016299911076202989,1.0006229877471924,0.0,0.0,0.0,-18.849699020385742,2.674651622772217,6.238489151000977,3411.832763671875,0
1417.268,0.034035611897706985,0.016747206449508667,9.099050657823682e-05,0.0,0.0,0.0,0.0,-0.0017229184741154313,-0.0011055688373744488,0.0013021616032347083,1.0009269714355469,0.0,0.0,0.0,-18.8646240234375,2.674466133117676,6.24318265914917,3414.53466796875,0
1427.161,0.033989500254392624,0.016765255481004715,5.921412957832217e-05,0.0,0.0,0.0,0.0,0.002479091752320528,0.0003991136036347598,-0.0030685511883348227,1.0001492500305176,0.0,0.0,0.0,-18.845108032226562,2.6735386848449707,6.240087985992432,3411.001953125,0
1437.0859999999993,0.03394588455557823,0.016782555729150772,8.578670531278476e-06,0.0,0.0,0.0,0.0,-0.0042795948684215546,0.001232515787705779,0.0009609126136638224,0.9983462691307068,0.0,0.0,0.0,-18.859811782836914,2.6711511611938477,6.233864784240723,3413.663330078125,0
1446.9830000000002,0.03389585763216019,0.01680157519876957,-2.3567470634588972e-05,0.0,0.0,0.0,0.0,0.0022725011222064495,0.0011460179230198264,0.00010026108793681487,0.9980258345603943,0.0,0.0,0.0,-18.84145736694336,2.6716880798339844,6.23063325881958,3410.34130859375,0
1456.9069999999992,0.033850546926259995,0.016796505078673363,-9.701149974716827e-05,0.0,0.0,0.0,0.0,-0.0009171916753984988,-0.001161463325843215,0.0009982899064198136,0.9999575614929199,0.0,0.0,0.0,-18.858293533325195,2.659174680709839,6.212821960449219,3413.388427734375,0
1466.8099999999995,0.03379829600453377,0.016814041882753372,-0.00013412241241894662,0.0,0.0,0.0,0.0,0.003905393648892641,0.0023743256460875273,0.0021801108960062265,1.000388741493225,0.0,0.0,0.0,-18.840274810791016,2.6546475887298584,6.2085490226745605,3410.127197265625,0
1476.7250000000004,0.03372953459620476,0.016828447580337524,-0.00015707827697042376,0.0,0.0,0.0,0.0,0.0021342604886740446,0.0018255021423101425,0.0019132025772705674,1.0008411407470703,0.0,0.0,0.0,-18.860454559326172,2.6482908725738525,6.190183162689209,3413.780029296875,0
1486.6270000000004,0.03367152810096741,0.01684519462287426,-0.00019243457063566893,0.0,0.0,0.0,0.0,0.0019914773292839527,0.0011971991043537855,0.00349201587960124,1.0015735626220703,0.0,0.0,0.0,-18.84177017211914,2.6353652477264404,6.193063259124756,3410.397705078125,0
1496.5470000000005,0.03360459953546524,0.01682744361460209,-0.0002540449786465615,0.0,0.0,0.0,0.0,-0.002493806416168809,-0.0017486214637756348,0.0017157677793875337,1.0000126361846924,0.0,0.0,0.0,-18.86164093017578,2.6109066009521484,6.1808648109436035,3413.994873046875,0
1506.451000000001,0.03354084864258766,0.016840903088450432,-0.0002886646834667772,0.0,0.0,0.0,0.0,-0.0009103238699026406,0.0036204433999955654,-0.001185469445772469,1.0017610788345337,0.0,0.0,0.0,-18.843420028686523,2.6055753231048584,6.1722798347473145,3410.696533203125,0
1516.384,0.03347287327051163,0.016828719526529312,-0.00034775733365677297,0.0,0.0,0.0,0.0,-0.002933716168627143,-0.003862132551148534,-0.0040048277005553246,1.0001111030578613,0.0,0.0,0.0,-18.860023498535156,2.595231294631958,6.1689558029174805,3413.7021484375,0
1526.2720000000008,0.033406056463718414,0.01684161275625229,-0.000381397403543815,0.0,0.0,0.0,0.0,0.00010295928223058581,0.0034065674990415573,0.0017637033015489578,0.9987905621528625,0.0,0.0,0.0,-18.84185218811035,2.5952811241149902,6.152918338775635,3410.41259765625,0
1536.1949999999997,0.0333438478410244,0.016870982944965363,-0.0004176487273070961,0.0,0.0,0.0,0.0,0.001271654386073351,-0.0022557007614523172,0.0013749219942837954,1.0003701448440552,0.0,0.0,0.0,-18.858556747436523,2.603394031524658,6.1483330726623535,3413.436279296875,0
1546.0990000000002,0.03327289596199989,0.016885094344615936,-0.0004517342313192785,0.0,0.0,0.0,0.0,0.003347796155139804,0.0037188935093581676,-0.0013636188814416528,0.9987804293632507,0.0,0.0,0.0,-18.839275360107422,2.603612184524536,6.149900436401367,3409.9462890625,0
1556.0200000000004,0.03322149068117142,0.01688593253493309,-0.000529127602931112,0.0,0.0,0.0,0.0,0.0009961347095668316,0.0007901423377916217,0.0007298321579582989,0.9992756247520447,0.0,0.0,0.0,-18.859289169311523,2.591287612915039,6.147334098815918,3413.56884765625,0
1565.9220000000005,0.033066581934690475,0.016912881284952164,-0.0006052929093129933,0.0,0.0,0.0,0.0,0.0007084507378749549,-0.0019762227311730385,-0.0012655600439757109,0.9998279213905334,0.0,0.0,0.0,-18.822092056274414,2.5870296955108643,6.123462200164795,3406.836181640625,0
1575.8410000000003,0.033110253512859344,0.016937484964728355,-0.0006419328274205327,0.0,0.0,0.0,0.0,-0.0038423961959779263,-0.0010497866896912456,-0.005903428420424461,0.9981784224510193,0.0,0.0,0.0,-18.854328155517578,2.606842517852783,6.1325578689575195,3412.6708984375,0
1585.7440000000006,0.03294959291815758,0.016965968534350395,-0.0007281311554834247,0.0,0.0,0.0,0.0,0.0026580768171697855,0.004282350651919842,-0.002184713026508689,0.9974305629730225,0.0,0.0,0.0,-18.817365646362305,2.6017775535583496,6.123291969299316,3405.980712890625,0
1595.6669999999995,0.0330016203224659,0.017001012340188026,-0.0007651911000721157,0.0,0.0,0.0,0.0,-0.003164057619869709,0.0015043567400425673,0.0008845333359204233,0.998984694480896,0.0,0.0,0.0,-18.854524612426758,2.6271941661834717,6.133225917816162,3412.706298828125,0
1605.5640000000003,0.0329139418900013,0.01702084019780159,-0.0008197809220291674,0.0,0.0,0.0,0.0,0.0030463426373898983,0.0037216099444776773,0.0006547562661580741,1.0007790327072144,0.0,0.0,0.0,-18.834548950195312,2.6247856616973877,6.127662181854248,3409.0908203125,0
1615.4840000000004,0.0328739732503891,0.017064226791262627,-0.000901798892300576,0.0,0.0,0.0,0.0,-0.0018598950700834394,-0.0012344419956207275,-0.0004801737086381763,0.9996142983436584,0.0,0.0,0.0,-18.8524112701416,2.643653154373169,6.1306633949279785,3412.32373046875,0
1625.3880000000008,0.03279188647866249,0.01708645187318325,-0.0009556135628372431,0.0,0.0,0.0,0.0,-0.001257999916560948,0.00397874228656292,0.0006895067053847015,1.001261591911316,0.0,0.0,0.0,-18.83302879333496,2.6335396766662598,6.121951580047607,3408.8154296875,0
1635.3060000000005,0.032751038670539856,0.017124388366937637,-0.001045495388098061,0.0,0.0,0.0,0.0,-0.0015236989129334688,0.003433183068409562,0.0011969550978392363,1.000789761543274,0.0,0.0,0.0,-18.858688354492188,2.6496121883392334,6.115991115570068,3413.4599609375,0
1645.210000000001,0.03266521543264389,0.017149895429611206,-0.0011022279504686594,0.0,0.0,0.0,0.0,-0.0007849839748814702,0.0004762929165735841,0.0002737324102781713,1.0012390613555908,0.0,0.0,0.0,-18.83991050720215,2.6463587284088135,6.102524280548096,3410.061279296875,0
1655.1350000000002,0.03264044225215912,0.017212409526109695,-0.0011953928042203188,0.0,0.0,0.0,0.0,0.0018611470004543662,0.008194022811949253,-0.0020661475136876106,0.9997220039367676,0.0,0.0,0.0,-18.855552673339844,2.6651532649993896,6.107633590698242,3412.892578125,0
1665.027,0.032551053911447525,0.017243776470422745,-0.0012546021025627851,0.0,0.0,0.0,0.0,0.0040488759987056255,0.0019489023834466934,0.0021536704152822495,0.9994673132896423,0.0,0.0,0.0,-18.836729049682617,2.663701295852661,6.091797828674316,3409.4853515625,0
1674.942000000001,0.03248979151248932,0.017271526157855988,-0.0013455655425786972,0.0,0.0,0.0,0.0,-0.0012120495084673166,0.004449653904885054,-0.0029149313922971487,0.9991888403892517,0.0,0.0,0.0,-18.861906051635742,2.6626687049865723,6.08068323135376,3414.04248046875,0
1684.857,0.03239769861102104,0.01730426959693432,-0.0014081771951168776,0.0,0.0,0.0,0.0,-0.0011348847765475512,-0.001455223886296153,-0.003259301418438554,1.0014662742614746,0.0,0.0,0.0,-18.842987060546875,2.65472149848938,6.0793890953063965,3410.617919921875,0
1694.768,0.03231975808739662,0.01732497103512287,-0.0015004349406808615,0.0,0.0,0.0,0.0,0.0018105870112776756,0.001083916868083179,0.002340336563065648,1.0019553899765015,0.0,0.0,0.0,-18.857324600219727,2.6549437046051025,6.072718620300293,3413.21337890625,0
1704.6810000000005,0.032224636524915695,0.017358090728521347,-0.001564443577080965,0.0,0.0,0.0,0.0,0.0006180220516398549,-0.0005326474201865494,-0.002046189270913601,1.0010581016540527,0.0,0.0,0.0,-18.839210510253906,2.6459696292877197,6.064503192901611,3409.934326171875,0
1714.5859999999993,0.03214240446686745,0.017383283004164696,-0.0016514890594407916,0.0,0.0,0.0,0.0,0.0005051274201832712,0.007338825613260269,-0.0028938474133610725,1.0005522966384888,0.0,0.0,0.0,-18.85129165649414,2.6516716480255127,6.062586307525635,3412.12109375,0
1724.491,0.03204524889588356,0.017417358234524727,-0.0017141964053735137,0.0,0.0,0.0,0.0,-0.0010878767352551222,0.0012615842279046774,0.0019269112963229418,1.0012681484222412,0.0,0.0,0.0,-18.832563400268555,2.649479866027832,6.054057598114014,3408.7314453125,0
1734.4120000000003,0.03194601088762283,0.017402837052941322,-0.0018065802287310362,0.0,0.0,0.0,0.0,-0.00040754227666184306,0.0038465058896690607,0.0008417885401286185,1.000248670578003,0.0,0.0,0.0,-18.85359001159668,2.6221988201141357,6.04450798034668,3412.537353515625,0
1744.3310000000001,0.03485303744673729,0.01624154858291149,0.0007502592634409666,0.0,0.0,0.0,0.0,0.0016297169495373964,0.0020367533434182405,-0.0010692283976823092,1.0011427402496338,0.0,0.0,0.0,-18.87548828125,2.590214252471924,6.34417724609375,3416.501220703125,0
1754.2360000000008,0.03483220934867859,0.01624838449060917,0.0007624223944731057,0.0,0.0,0.0,0.0,-0.0027708965353667736,0.0013492607977241278,-0.0004683442530222237,0.9997540712356567,0.0,0.0,0.0,-18.892744064331055,2.598113536834717,6.316433429718018,3419.62451171875,0
1764.1389999999992,0.034809134900569916,0.016246536746621132,0.0007597263902425766,0.0,0.0,0.0,0.0,0.00020008355204481632,-0.0015615987358614802,0.0007955303881317377,1.0008589029312134,0.0,0.0,0.0,-18.87366485595703,2.5968191623687744,6.303759574890137,3416.1708984375,0
1774.045,0.03479747101664543,0.016304854303598404,0.0007682418799959123,0.0,0.0,0.0,0.0,-0.0001816048752516508,0.0053217001259326935,-0.003791120136156678,0.999754011631012,0.0,0.0,0.0,-18.88898277282715,2.6092023849487305,6.29387903213501,3418.943603515625,0
1783.9670000000006,0.03477253392338753,0.01630527339875698,0.0007674001390114427,0.0,0.0,0.0,0.0,0.0032780258916318417,0.00021211407147347927,-0.00046865924377925694,1.0007433891296387,0.0,0.0,0.0,-18.87014389038086,2.6036934852600098,6.288937568664551,3415.53369140625,0
1793.8690000000006,0.03474981710314751,0.01630767248570919,0.0007594820926897228,0.0,0.0,0.0,0.0,0.0009303517872467637,0.0008528821053914726,0.001214152667671442,1.0001187324523926,0.0,0.0,0.0,-18.891565322875977,2.6087143421173096,6.279122829437256,3419.410888671875,0
1803.7810000000009,0.03472031280398369,0.016307085752487183,0.0007593378541059792,0.0,0.0,0.0,0.0,-0.00046129277325235307,-0.00229074084199965,-0.0010795188136398792,1.0019805431365967,0.0,0.0,0.0,-18.87226676940918,2.5977907180786133,6.273820877075195,3415.91796875,0
1813.6910000000007,0.03470340371131897,0.01636834256350994,0.0007380605093203485,0.0,0.0,0.0,0.0,0.0005000786622986197,0.0011617797426879406,0.003338299924507737,1.0014756917953491,0.0,0.0,0.0,-18.882692337036133,2.6113247871398926,6.266312599182129,3417.804931640625,0
1823.6059999999998,0.03466995060443878,0.016369611024856567,0.0007385549833998084,0.0,0.0,0.0,0.0,0.0007974497857503593,0.0033505335450172424,0.0009403500007465482,1.001993179321289,0.0,0.0,0.0,-18.863113403320312,2.612651824951172,6.256380558013916,3414.26123046875,0
1833.518,0.034640807658433914,0.016415374353528023,0.0007355432608164847,0.0,0.0,0.0,0.0,0.00046357521205209196,0.0025738244876265526,0.0016432841075584292,1.0004407167434692,0.0,0.0,0.0,-18.8815975189209,2.624333381652832,6.248022079467773,3417.606689453125,0
1843.4320000000007,0.03460141271352768,0.016416916623711586,0.0007391420658677816,0.0,0.0,0.0,0.0,0.0004541540693026036,0.0021744417026638985,-0.0009793001227080822,1.002185583114624,0.0,0.0,0.0,-18.862295150756836,2.6253156661987305,6.238595962524414,3414.11328125,0
1853.3400000000001,0.03458114713430405,0.01645422913134098,0.0006842812290415168,0.0,0.0,0.0,0.0,0.002325600478798151,0.0029539884999394417,-0.0033540353178977966,0.9999729990959167,0.0,0.0,0.0,-18.873796463012695,2.639556884765625,6.2404632568359375,3416.194580078125,0
1863.246000000001,0.034538738429546356,0.016455568373203278,0.0006863251328468323,0.0,0.0,0.0,0.0,-0.003442690707743168,0.004070920404046774,-0.0024286333937197924,1.0019303560256958,0.0,0.0,0.0,-18.854938507080078,2.6355485916137695,6.223513603210449,3412.78125,0
1873.1589999999997,0.034501850605010986,0.01649176888167858,0.0006829987396486104,0.0,0.0,0.0,0.0,-0.0021351801697164774,-0.0004718138079624623,-0.0015177627792581916,1.0029504299163818,0.0,0.0,0.0,-18.872705459594727,2.6429874897003174,6.202911853790283,3415.99755859375,0
1883.0650000000005,0.034456875175237656,0.016493484377861023,0.0006872962694615126,0.0,0.0,0.0,0.0,0.0014439801452681422,-0.0001914801396196708,0.0019879182800650597,1.00237238407135,0.0,0.0,0.0,-18.854345321655273,2.6456971168518066,6.1897053718566895,3412.673583984375,0
1892.9840000000004,0.034423355013132095,0.016529574990272522,0.0006728050648234785,0.0,0.0,0.0,0.0,-0.0007101123919710517,0.003368790727108717,-0.00037849528598599136,1.000744342803955,0.0,0.0,0.0,-18.87420654296875,2.6595067977905273,6.183783054351807,3416.268798828125,0
1902.8940000000002,0.034325920045375824,0.01653621532022953,0.0006897923885844648,0.0,0.0,0.0,0.0,0.0016831611283123493,0.0023574987426400185,-0.0027390511240810156,1.001582384109497,0.0,0.0,0.0,-18.837121963500977,2.6492602825164795,6.162539005279541,3409.556396484375,0
1912.7970000000005,0.03434506058692932,0.016560252755880356,0.0006518503651022911,0.0,0.0,0.0,0.0,0.0003200012433808297,0.0005576131516136229,0.003525975625962019,1.0019166469573975,0.0,0.0,0.0,-18.872379302978516,2.6650173664093018,6.167940139770508,3415.9384765625,0
1922.7160000000003,0.03424379602074623,0.016569796949625015,0.0006690290756523609,0.0,0.0,0.0,0.0,0.0011099888943135738,0.0018692996818572283,0.0012313737533986568,1.0010480880737305,0.0,0.0,0.0,-18.834123611450195,2.6630446910858154,6.160665512084961,3409.013671875,0
1932.6200000000008,0.03427274897694588,0.016560737043619156,0.0005891104810871184,0.0,0.0,0.0,0.0,-0.0006154206930659711,-0.0006703370017930865,0.001254043891094625,1.0013152360916138,0.0,0.0,0.0,-18.87680435180664,2.670560359954834,6.173224925994873,3416.739013671875,0
1942.5339999999997,0.03416843339800835,0.016571300104260445,0.0005997155094519258,0.0,0.0,0.0,0.0,0.0011679991148412228,-0.0038736399728804827,-0.0006576636806130409,0.9997504353523254,0.0,0.0,0.0,-18.839365005493164,2.662278890609741,6.155726909637451,3409.962158203125,0
1952.4449999999997,0.03419322520494461,0.01658843643963337,0.000558757979888469,0.0,0.0,0.0,0.0,0.0010056800674647093,-0.0009041559533216059,0.0017487723380327225,1.0008304119110107,0.0,0.0,0.0,-18.87286949157715,2.6778671741485596,6.162349700927734,3416.027099609375,0
1962.3539999999994,0.0341346301138401,0.016598274931311607,0.0005624074256047606,0.0,0.0,0.0,0.0,-2.570001015556045e-05,2.261194276798051e-05,0.0006184251396916807,1.001096248626709,0.0,0.0,0.0,-18.854372024536133,2.6735680103302,6.166529178619385,3412.6787109375,0
1972.2700000000004,0.03414379805326462,0.016630295664072037,0.0004647156165447086,0.0,0.0,0.0,0.0,0.003336358582600951,0.0008502611890435219,0.002006836701184511,1.000390648841858,0.0,0.0,0.0,-18.8737850189209,2.695892810821533,6.173638820648193,3416.192626953125,0
1982.1769999999997,0.034092977643013,0.01664273627102375,0.00046120621846057475,0.0,0.0,0.0,0.0,0.0009677764028310776,0.0027030031196773052,5.55627811991144e-05,1.000836968421936,0.0,0.0,0.0,-18.85431671142578,2.691481113433838,6.165273666381836,3412.6689453125,0
1992.0949999999993,0.03409137949347496,0.016670426353812218,0.0003833442460745573,0.0,0.0,0.0,0.0,0.0015103269834071398,0.001343717915005982,-0.0022850644309073687,0.9999235272407532,0.0,0.0,0.0,-18.868309020996094,2.70415997505188,6.166989326477051,3415.20166015625,0
2002.0100000000002,0.0345730297267437,0.016495637595653534,0.0008584234165027738,0.0,0.0,0.0,0.0,-0.001388012315146625,0.001059618778526783,0.0002581888111308217,1.0004726648330688,0.0,0.0,0.0,-18.88794708251953,2.7068018913269043,6.261080265045166,3418.755859375,0
2011.9189999999999,0.03459101915359497,0.01653478667140007,0.0007718861452303827,0.0,0.0,0.0,0.0,0.000262153975199908,-0.0030749074649065733,-0.002763817086815834,1.0006810426712036,0.0,0.0,0.0,-18.90558433532715,2.71216082572937,6.264856815338135,3421.948486328125,0
2021.8269999999993,0.034556929022073746,0.01654808782041073,0.0007762961322441697,0.0,0.0,0.0,0.0,0.0020816286560148,0.004300650674849749,-0.00023636530386283994,1.0011012554168701,0.0,0.0,0.0,-18.887332916259766,2.7109546661376953,6.265789985656738,3418.644775390625,0
2031.7379999999994,0.03454374521970749,0.016567211598157883,0.0007275144453160465,0.0,0.0,0.0,0.0,0.0017635154072195292,-0.00017026795831043273,-0.0024326711427420378,1.002252459526062,0.0,0.0,0.0,-18.900514602661133,2.7085049152374268,6.254940986633301,3421.03076171875,0
2041.6450000000004,0.034507062286138535,0.016583692282438278,0.0007301634759642184,0.0,0.0,0.0,0.0,0.002000161912292242,-0.0020628308411687613,0.0005266655352897942,1.0012143850326538,0.0,0.0,0.0,-18.883747100830078,2.7043230533599854,6.241349697113037,3417.995849609375,0
2051.5519999999997,0.034489504992961884,0.016591601073741913,0.0006615163292735815,0.0,0.0,0.0,0.0,1.8538861695560627e-05,0.0013636666117236018,0.0014754454605281353,1.0011790990829468,0.0,0.0,0.0,-18.896968841552734,2.7070884704589844,6.2501959800720215,3420.38916015625,0
2061.473,0.03444838151335716,0.016611289232969284,0.00066223437897861,0.0,0.0,0.0,0.0,-0.0011991937644779682,-0.003780683735385537,0.000759732211008668,1.0012383460998535,0.0,0.0,0.0,-18.87806510925293,2.7033579349517822,6.245580196380615,3416.96728515625,0
2071.374,0.03441818058490753,0.016617951914668083,0.0006105548818595707,0.0,0.0,0.0,0.0,0.0018372293561697006,0.003274014685302973,0.0007600189419463277,1.001183271408081,0.0,0.0,0.0,-18.888744354248047,2.705540418624878,6.245664119720459,3418.900634765625,0
2081.295,0.03437410667538643,0.016639236360788345,0.0006097769946791232,0.0,0.0,0.0,0.0,-0.0009644844685681164,0.0007978837820701301,-0.003228594549000263,1.0026589632034302,0.0,0.0,0.0,-18.868982315063477,2.7094225883483887,6.246756076812744,3415.3232421875,0
2091.1990000000005,0.03434651717543602,0.016651449725031853,0.0005302058416418731,0.0,0.0,0.0,0.0,-0.00034357450203970075,0.0011779849883168936,-0.002057093195617199,0.99988853931427,0.0,0.0,0.0,-18.88832664489746,2.707854747772217,6.241293907165527,3418.824951171875,0
2101.116,0.03429797664284706,0.016674675047397614,0.0005271193222142756,0.0,0.0,0.0,0.0,-0.0025632046163082123,0.00047012194409035146,-0.0016466923989355564,0.99994957447052,0.0,0.0,0.0,-18.87076187133789,2.706880569458008,6.224919319152832,3415.645751953125,0
2111.0190000000002,0.03424639254808426,0.016699427738785744,0.0005247110966593027,0.0,0.0,0.0,0.0,0.0005499444087035954,0.002291159238666296,0.003284957492724061,1.00203537940979,0.0,0.0,0.0,-18.852256774902344,2.7052416801452637,6.224356651306152,3412.2958984375,0
2120.9400000000005,0.034192200750112534,0.01672498881816864,0.0005228149238973856,0.0,0.0,0.0,0.0,-0.0008249888196587563,0.000385053688660264,-0.0008211351232603192,1.0022130012512207,0.0,0.0,0.0,-18.832155227661133,2.7034733295440674,6.209769248962402,3408.657470703125,0
2130.853000000001,0.03416484221816063,0.016730215400457382,0.0004005898372270167,0.0,0.0,0.0,0.0,-0.0027622822672128677,-0.0021367736626416445,-0.0016034577274695039,1.0002238750457764,0.0,0.0,0.0,-18.851459503173828,2.700258255004883,6.2072248458862305,3412.151611328125,0
2140.763999999999,0.03410933166742325,0.016754845157265663,0.00039413312333635986,0.0,0.0,0.0,0.0,0.0016126921400427818,0.004267205484211445,-0.004527847282588482,1.0001709461212158,0.0,0.0,0.0,-18.832468032836914,2.6972076892852783,6.203516483306885,3408.714111328125,0
2150.6620000000003,0.03407132998108864,0.01675918698310852,0.00030743342358618975,0.0,0.0,0.0,0.0,-0.0026201275177299976,-0.0023285390343517065,0.003617434063926339,1.0010857582092285,0.0,0.0,0.0,-18.84811782836914,2.6953365802764893,6.209707260131836,3411.546630859375,0
2160.5859999999993,0.03401343524456024,0.016782613471150398,0.0002970114292111248,0.0,0.0,0.0,0.0,0.00337697914801538,0.0007225032313726842,-0.00139805197250098,1.0017075538635254,0.0,0.0,0.0,-18.830215454101562,2.6916098594665527,6.2003302574157715,3408.306396484375,0
2170.4850000000006,0.033961255103349686,0.01674944907426834,0.00021782667317893356,0.0,0.0,0.0,0.0,-9.131831757258624e-05,0.0011008484289050102,0.001847815583460033,1.0019773244857788,0.0,0.0,0.0,-18.852813720703125,2.675586223602295,6.202182769775391,3412.396728515625,0
2180.402,0.033900026232004166,0.016768233850598335,0.0002062109560938552,0.0,0.0,0.0,0.0,0.0025499090552330017,0.00022627452563028783,0.000636800832580775,0.9999648332595825,0.0,0.0,0.0,-18.833942413330078,2.6720023155212402,6.189764976501465,3408.98095703125,0
