timestamp,stateEstimate.x,stateEstimate.y,stateEstimate.z,controller.cmd_thrust,controller.cmd_roll,controller.cmd_pitch,controller.cmd_yaw,controller.r_roll,controller.r_pitch,controller.r_yaw,controller.accelz,controller.actuatorThrust,controller.roll,controller.pitch,controller.yaw,controller.rollRate,controller.pitchRate,controller.yawRate,controller.ctr_yaw
0.0,-4.968234134139493e-05,-0.0007707515032961965,-0.00027532794047147036,0.0,0.0,0.0,0.0,-0.0015642961952835321,-0.0010169644374400377,0.005306718870997429,1.0012826919555664,0.0,0.0,0.0,0.2907102108001709,1.8421006202697754,5.257063388824463,-52.6191291809082,0
9.894000000000233,-7.526147237513214e-05,-0.000823063834104687,-0.0002831800375133753,0.0,0.0,0.0,0.0,-0.0014572566142305732,-0.00035242774174548686,-0.006594313308596611,1.0006130933761597,0.0,0.0,0.0,0.29168352484703064,1.839387059211731,5.255014419555664,-52.7952995300293,0
19.811999999999898,-0.00010163702245336026,-0.0008763739024288952,-0.0002896279620472342,0.0,0.0,0.0,0.0,0.0012569265672937036,-0.0018453547963872552,0.0013336772099137306,0.999645471572876,0.0,0.0,0.0,0.2901315987110138,1.8356026411056519,5.245108604431152,-52.514400482177734,0
29.712999999999738,-0.00012926199997309595,-0.0009306254796683788,-0.00029552995692938566,0.0,0.0,0.0,0.0,-0.0016227047890424728,0.00061993912095204,-0.0021465993486344814,1.0013096332550049,0.0,0.0,0.0,0.2903972566127777,1.8332043886184692,5.23504638671875,-52.56248092651367,0
39.634000000000015,-0.00012926911585964262,-0.0007413788116537035,-6.975664291530848e-05,0.0,0.0,0.0,0.0,9.831802890403196e-05,0.005052678287029266,-0.0020832924637943506,0.999994158744812,0.0,0.0,0.0,0.2897897958755493,1.911332130432129,5.224667549133301,-52.45253372192383,0
49.54099999999926,-0.0001608331804163754,-0.000783738330937922,-6.0006335843354464e-05,0.0,0.0,0.0,0.0,-0.0012516380520537496,0.00036482102586887777,-0.001684281276538968,0.9993053674697876,0.0,0.0,0.0,0.2889058291912079,1.9145028591156006,5.210407257080078,-52.29253005981445,0
59.45600000000013,-0.00019249239994678646,-0.0008282754570245743,-5.026778671890497e-05,0.0,0.0,0.0,0.0,3.893340544891544e-05,-0.0008945438894443214,0.006068625021725893,1.0000178813934326,0.0,0.0,0.0,0.287820965051651,1.9082660675048828,5.202696323394775,-52.096168518066406,0
69.36199999999917,-0.00022459325555246323,-0.0008748627151362598,-4.095095209777355e-05,0.0,0.0,0.0,0.0,0.0008695750148035586,0.0013245897134765983,-0.0033505314495414495,0.9991525411605835,0.0,0.0,0.0,0.28872939944267273,1.9044554233551025,5.192366123199463,-52.260597229003906,0
79.28899999999885,-0.00025780810392461717,-0.0009239059290848672,-3.1835283152759075e-05,0.0,0.0,0.0,0.0,-0.0017378138145431876,0.0011917041847482324,-0.0034203403629362583,0.9970592260360718,0.0,0.0,0.0,0.2881135046482086,1.8968101739883423,5.179532527923584,-52.14911651611328,0
89.1810000000005,-0.00029244201141409576,-0.0009748286684043705,-2.422777470201254e-05,0.0,0.0,0.0,0.0,7.824448402971029e-05,-0.005386734381318092,0.0017319396138191223,0.9984428286552429,0.0,0.0,0.0,0.28615304827690125,1.9049067497253418,5.170746326446533,-51.794273376464844,0
99.10299999999916,-0.00032871984876692295,-0.0010267682373523712,-1.8856138922274113e-05,0.0,0.0,0.0,0.0,-0.0011830729199573398,-0.0021952232345938683,0.0007377700530923903,1.0000815391540527,0.0,0.0,0.0,0.28711432218551636,1.905142068862915,5.172420501708984,-51.96826934814453,0
109.003999999999,-0.0003663112875074148,-0.001079806825146079,-1.4447956345975399e-05,0.0,0.0,0.0,0.0,-4.927323607262224e-05,-0.00037827721098437905,0.0010957737686112523,1.0008690357208252,0.0,0.0,0.0,0.2864294648170471,1.9055191278457642,5.174327373504639,-51.844303131103516,0
118.92200000000048,-0.0004042699874844402,-0.001134464400820434,-9.660783689469099e-06,0.0,0.0,0.0,0.0,0.00033211588743142784,-3.348589962115511e-05,0.0019474014407023787,1.0008227825164795,0.0,0.0,0.0,0.28676170110702515,1.9002947807312012,5.166067123413086,-51.90443801879883,0
128.82799999999952,-0.000245758390519768,-0.0007286875043064356,0.0003899773000739515,0.0,0.0,0.0,0.0,0.0005751137505285442,0.0006029630894772708,-0.000385817838832736,1.0000556707382202,0.0,0.0,0.0,0.28798574209213257,2.036872386932373,5.211064338684082,-52.1259880065918,0
138.76100000000042,-0.0002746682148426771,-0.0007590834284201264,0.00042173342080786824,0.0,0.0,0.0,0.0,3.450035001151264e-05,-0.0006071680109016597,0.007120764814317226,0.9981309771537781,0.0,0.0,0.0,0.28712621331214905,2.034458875656128,5.206815242767334,-51.97041702270508,0
148.66200000000026,-7.576158532174304e-05,-0.00019083752704318613,-0.00033897149842232466,0.0,0.0,0.0,0.0,0.0009988498641178012,0.004642247688025236,0.0024937018752098083,0.998629629611969,0.0,0.0,0.0,0.2883390486240387,2.134486436843872,5.239751815795898,-52.189937591552734,0
158.57300000000032,-9.735669300425798e-05,-0.00019623008847702295,-0.0003343059215694666,0.0,0.0,0.0,0.0,-0.001238419907167554,0.0003227225097361952,0.0017907179426401854,0.9982995390892029,0.0,0.0,0.0,0.28908294439315796,2.1302273273468018,5.231813907623291,-52.3245849609375,0
168.47400000000016,-0.0001006954480544664,-0.00014797187759540975,-0.00035771375405602157,0.0,0.0,0.0,0.0,-0.004126767162233591,0.0016114043537527323,0.002219757065176964,0.9992081522941589,0.0,0.0,0.0,0.2972515821456909,2.141659736633301,5.230930328369141,-53.803123474121094,0
178.40099999999984,-0.00012424495071172714,-0.0001519268553238362,-0.0003564185171853751,0.0,0.0,0.0,0.0,0.002728697145357728,-2.0515879441518337e-05,-0.0010180446552112699,0.9989506006240845,0.0,0.0,0.0,0.2982275187969208,2.145008087158203,5.227864742279053,-53.97977066040039,0
188.30099999999948,-0.0001300222793361172,-6.246594421099871e-05,-0.0003614452143665403,0.0,0.0,0.0,0.0,-0.0013356675626710057,-0.0025762508157640696,-0.001278942683711648,0.9986161589622498,0.0,0.0,0.0,0.2981604337692261,2.137983560562134,5.223130702972412,-53.96763229370117,0
198.21899999999914,-0.00015528849326074123,-6.188299448695034e-05,-0.0003619439958129078,0.0,0.0,0.0,0.0,-0.0019179396331310272,-0.0014091673074290156,0.0009401770657859743,0.999206006526947,0.0,0.0,0.0,0.2974299490451813,2.1374869346618652,5.21807861328125,-53.835411071777344,0
208.1180000000004,-0.0001663534640101716,-7.474391168216243e-05,-0.00042498152470216155,0.0,0.0,0.0,0.0,0.0017285742796957493,0.004068244714289904,0.00014064248534850776,1.0003255605697632,0.0,0.0,0.0,0.2975425720214844,2.14217472076416,5.217370510101318,-53.85580062866211,0
218.04299999999967,-0.00019385598716326058,-7.466035458492115e-05,-0.00043059646850451827,0.0,0.0,0.0,0.0,-0.0029751169495284557,0.00014473733608610928,-0.003645828692242503,0.9991893768310547,0.0,0.0,0.0,0.2966386675834656,2.1370136737823486,5.205056190490723,-53.69218826293945,0
227.9409999999989,-0.00019837720901705325,-0.00014389118587132543,-0.000482841394841671,0.0,0.0,0.0,0.0,-0.000862819142639637,0.0003605012025218457,-0.0040841735899448395,1.001484751701355,0.0,0.0,0.0,0.2888103425502777,2.1423370838165283,5.206445693969727,-52.275245666503906,0
237.85999999999876,-0.0002286683738930151,-0.00014650230878032744,-0.0004922274383716285,0.0,0.0,0.0,0.0,0.0028054043650627136,0.0040283203125,0.0011565155582502484,0.9998318552970886,0.0,0.0,0.0,0.288074254989624,2.142894983291626,5.197288990020752,-52.14201736450195,0
247.7639999999992,-0.00024085906625259668,-0.0001010940977721475,-0.0005108531331643462,0.0,0.0,0.0,0.0,-0.0024560708552598953,0.002456432208418846,0.0013750591315329075,1.0005881786346436,0.0,0.0,0.0,0.2871301770210266,2.1378540992736816,5.191686153411865,-51.971134185791016,0
257.6909999999989,-0.00027113829855807126,-0.00010438303434057161,-0.0005198257276788354,0.0,0.0,0.0,0.0,-0.0023183589801192284,-0.0010035923914983869,-0.0008825263357721269,0.9999110102653503,0.0,0.0,0.0,0.28685593605041504,2.1380231380462646,5.1801838874816895,-51.92149353027344,0
267.59200000000055,-0.00013589253649115562,-0.00019388440705370158,-0.0005570821813307703,0.0,0.0,0.0,0.0,0.0010625474387779832,0.0025377420242875814,0.002029282273724675,1.0001509189605713,0.0,0.0,0.0,0.28727322816848755,2.1365859508514404,5.182152271270752,-51.99702835083008,0
277.509,-0.0001640354166738689,-0.00019919738406315446,-0.0005684929201379418,0.0,0.0,0.0,0.0,-0.0018517908174544573,-0.005878600757569075,-0.0013738597044721246,1.0014734268188477,0.0,0.0,0.0,0.28612369298934937,2.1302363872528076,5.168941497802734,-51.78895950317383,0
287.40799999999945,-7.31124309822917e-05,-0.00028309482149779797,-0.00057265255600214,0.0,0.0,0.0,0.0,0.0013864929787814617,-0.001959596062079072,-0.00191587139852345,1.001922845840454,0.0,0.0,0.0,0.2848266363143921,2.132139205932617,5.17710542678833,-51.5541877746582,0
297.3289999999997,-0.00010233710781903937,-0.00028946480597369373,-0.0005817477940581739,0.0,0.0,0.0,0.0,-0.0026157887186855078,-0.0003817406250163913,0.0023151859641075134,1.001017451286316,0.0,0.0,0.0,0.2843100428581238,2.1190907955169678,5.17142915725708,-51.4606819152832,0
307.23499999999876,1.57066297106212e-05,-0.000321523955790326,-0.000563227164093405,0.0,0.0,0.0,0.0,0.0010903956135734916,-0.0024920483119785786,-0.0006875814869999886,0.9999064207077026,0.0,0.0,0.0,0.2849590480327606,2.1206231117248535,5.163027763366699,-51.578155517578125,0
317.15699999999924,-1.3053337170276791e-05,-0.0003275690251030028,-0.0005676074069924653,0.0,0.0,0.0,0.0,-0.00230072857812047,0.0004352998221293092,-0.00082486990140751,1.0003081560134888,0.0,0.0,0.0,0.2853989005088806,2.1274752616882324,5.161030292510986,-51.657772064208984,0
327.0579999999991,2.6769981559482403e-05,-0.00035893978201784194,-0.0005760240601375699,0.0,0.0,0.0,0.0,-0.0014491640031337738,-0.004213288892060518,0.0010582657996565104,0.9995070099830627,0.0,0.0,0.0,0.2780398726463318,2.1145424842834473,5.1623992919921875,-50.32577133178711,0
336.97799999999916,-2.2855656425235793e-06,-0.00036518718115985394,-0.0005808613495901227,0.0,0.0,0.0,0.0,0.0016458926256746054,-0.0004416772280819714,0.0014780856436118484,1.0009773969650269,0.0,0.0,0.0,0.2777858078479767,2.1167805194854736,5.1584553718566895,-50.27978515625,0
346.878999999999,9.181283530779183e-05,-0.00038614007644355297,-0.0005518076359294355,0.0,0.0,0.0,0.0,0.000888935464899987,0.00574568472802639,0.0013771546073257923,0.9989498853683472,0.0,0.0,0.0,0.2780546247959137,2.1071784496307373,5.154412269592285,-50.32844161987305,0
356.79399999999987,6.194035086082295e-05,-0.0003911017847713083,-0.0005537912365980446,0.0,0.0,0.0,0.0,0.00011919062671950087,-9.973371925298125e-05,0.0008185229380615056,0.9999120235443115,0.0,0.0,0.0,0.278128981590271,2.1045982837677,5.144394397735596,-50.34189987182617,0
366.6990000000005,0.00013958566705696285,-0.00043396270484663546,-0.00045207515358924866,0.0,0.0,0.0,0.0,0.003297121962532401,0.0018963075708597898,0.002044247929006815,1.0002351999282837,0.0,0.0,0.0,0.270443856716156,2.093073606491089,5.154810905456543,-48.95087432861328,0
376.6229999999996,0.00011006154090864584,-0.0004423193749971688,-0.0004458347102627158,0.0,0.0,0.0,0.0,-0.0012235620524734259,0.00358150084502995,-0.0010198332602158189,0.9990969896316528,0.0,0.0,0.0,0.26981255412101746,2.0831515789031982,5.147201061248779,-48.836605072021484,0
386.53299999999945,0.00012490384688135237,-0.00047795684076845646,-0.00030685323872603476,0.0,0.0,0.0,0.0,0.0012930475641041994,-0.008014004677534103,0.005112261511385441,0.999294102191925,0.0,0.0,0.0,0.26118704676628113,2.0744946002960205,5.147033214569092,-47.2753791809082,0
396.4400000000005,9.461019362788647e-05,-0.000489675672724843,-0.00029058856307528913,0.0,0.0,0.0,0.0,-0.0023068368900567293,-0.0024247777182608843,0.000566571019589901,1.000570297241211,0.0,0.0,0.0,0.2625596225261688,2.07255482673645,5.154764175415039,-47.5238151550293,0
406.34599999999955,7.082616502884775e-05,-0.00038206856697797775,-0.00023576366947963834,0.0,0.0,0.0,0.0,0.0014933126512914896,0.0007285230094566941,-0.0042923372238874435,0.9976176619529724,0.0,0.0,0.0,0.26332390308380127,2.0737078189849854,5.16190242767334,-47.66215133666992,0
416.27800000000025,3.658116111182608e-05,-0.0003940896422136575,-0.000216483895201236,0.0,0.0,0.0,0.0,0.0010748814092949033,0.006465776823461056,-0.0030121300369501114,0.9975723624229431,0.0,0.0,0.0,0.26292407512664795,2.0740983486175537,5.154749870300293,-47.58978271484375,0
426.16799999999967,2.1030027710366994e-06,-0.00029605365125462413,-0.00015910646470729262,0.0,0.0,0.0,0.0,0.0005524623556993902,-0.0021115303970873356,0.0001818739401642233,0.9987235069274902,0.0,0.0,0.0,0.2690328359603882,2.0914580821990967,5.141910076141357,-48.69548034667969,0
436.09000000000015,-3.5318193113198504e-05,-0.00030426698504015803,-0.00013990684237796813,0.0,0.0,0.0,0.0,0.0010285344906151295,0.0012151538394391537,-0.0012861904688179493,1.0005335807800293,0.0,0.0,0.0,0.27026796340942383,2.088672637939453,5.132397651672363,-48.91904067993164,0
445.991,-4.2519604903645813e-05,-0.0001982329849852249,-0.0001393356069456786,0.0,0.0,0.0,0.0,0.002419133670628071,0.002190637169405818,-0.0035786221269518137,0.997692346572876,0.0,0.0,0.0,0.2702353894710541,2.089444398880005,5.129012107849121,-48.91314697265625,0
455.91100000000006,-7.996182830538601e-05,-0.00020004839461762458,-0.00012289968435652554,0.0,0.0,0.0,0.0,0.0031835169065743685,-0.0035186924505978823,-0.0008757678442634642,0.9962023496627808,0.0,0.0,0.0,0.2693241834640503,2.0814547538757324,5.12377405166626,-48.748207092285156,0
465.8140000000003,-8.408288704231381e-05,-0.0001217254321090877,-0.00014151644427329302,0.0,0.0,0.0,0.0,0.001017292495816946,-0.00023557482927571982,7.520001236116514e-05,0.9982681274414062,0.0,0.0,0.0,0.26873156428337097,2.0760691165924072,5.11731481552124,-48.64094543457031,0
475.73099999999977,-0.0001211388225783594,-0.00012033930397592485,-0.00013275141827762127,0.0,0.0,0.0,0.0,-0.002375155221670866,-0.0015848898328840733,0.0009818352991715074,1.000386357307434,0.0,0.0,0.0,0.26837894320487976,2.075901508331299,5.117156505584717,-48.577125549316406,0
485.64300000000003,0.0001240759447682649,-0.00028798828134313226,-0.00014400031068362296,0.0,0.0,0.0,0.0,0.0038505797274410725,0.0016040789196267724,0.0009098226437345147,1.0013315677642822,0.0,0.0,0.0,0.2611543536186218,2.016893148422241,5.189330577850342,-47.26945495605469,0
495.5589999999993,0.00010480394121259451,-0.0002966362808365375,-0.00013901610509492457,0.0,0.0,0.0,0.0,-0.004317007027566433,-0.0027868289034813643,0.002664482221007347,0.9982197880744934,0.0,0.0,0.0,0.26030945777893066,2.009761333465576,5.180816173553467,-47.11652755737305,0
505.46799999999894,0.00010896196181420237,-0.00023934619093779474,-0.00014210845984052867,0.0,0.0,0.0,0.0,-0.00444642873480916,0.0005598330753855407,0.004754124209284782,0.9984171986579895,0.0,0.0,0.0,0.2661789059638977,2.023108720779419,5.184310436248779,-48.17891311645508,0
515.3829999999998,8.91339368536137e-05,-0.00024347419093828648,-0.00013855383440386504,0.0,0.0,0.0,0.0,0.0029794382862746716,0.0017141230637207627,-0.0027609504759311676,0.9994810223579407,0.0,0.0,0.0,0.2670399248600006,2.0262231826782227,5.187058448791504,-48.334754943847656,0
525.2819999999992,5.740506821894087e-05,-0.000197115950868465,-8.479745156364515e-05,0.0,0.0,0.0,0.0,0.0019089571433141828,0.001790107460692525,0.0045016976073384285,1.0004608631134033,0.0,0.0,0.0,0.26638859510421753,2.019902229309082,5.173346996307373,-48.21686553955078,0
535.2099999999991,3.37038109137211e-05,-0.00020124012371525168,-7.881568308221176e-05,0.0,0.0,0.0,0.0,0.0011422208044677973,0.0033725120592862368,-0.0008317749598063529,0.9994756579399109,0.0,0.0,0.0,0.2668287754058838,2.011099100112915,5.169914722442627,-48.296539306640625,0
545.1129999999994,2.4324890546267852e-06,-0.000156948619405739,-3.911783642251976e-05,0.0,0.0,0.0,0.0,-0.0027865252923220396,-0.0026265964843332767,-0.0022732564248144627,0.9992278218269348,0.0,0.0,0.0,0.2660110294818878,2.0073089599609375,5.16204309463501,-48.148521423339844,0
555.0439999999999,-8.302859896502923e-06,-0.00010882892820518464,-5.7809302234090865e-05,0.0,0.0,0.0,0.0,0.0008056183578446507,0.0028535076417028904,-0.00010884518269449472,1.0010440349578857,0.0,0.0,0.0,0.26553380489349365,2.011662006378174,5.1559038162231445,-48.0621452331543,0
564.9290000000001,-3.752763586817309e-05,-0.00010761181329144165,-5.190861702430993e-05,0.0,0.0,0.0,0.0,0.002137676114216447,-0.002760033356025815,0.0026303620543330908,1.0006731748580933,0.0,0.0,0.0,0.2657814919948578,2.0085458755493164,5.1541547775268555,-48.10697937011719,0
574.848,-6.826376193203032e-05,-0.00010858551831915975,-4.532276943791658e-05,0.0,0.0,0.0,0.0,0.0018975093262270093,0.0019279340049251914,0.0010775907430797815,1.0000649690628052,0.0,0.0,0.0,0.2653408348560333,2.0015463829040527,5.148412704467773,-48.027217864990234,0
584.7489999999998,-9.450542711419985e-05,-0.0002034124336205423,-0.00014480171375907958,0.0,0.0,0.0,0.0,-0.0017657417338341475,0.0007524469401687384,0.004133766982704401,1.0010982751846313,0.0,0.0,0.0,0.27221623063087463,2.0028979778289795,5.140429973602295,-49.27167892456055,0
594.6749999999993,-7.73895881138742e-05,-0.00013376543938647956,-0.0002021092950599268,0.0,0.0,0.0,0.0,0.0028237514197826385,0.000597791513428092,0.002738668117672205,1.0001996755599976,0.0,0.0,0.0,0.27259814739227295,2.0015242099761963,5.135003566741943,-49.3408088684082,0
604.5730000000003,-0.00011009181616827846,-0.000140313059091568,-0.00020470448362175375,0.0,0.0,0.0,0.0,0.001135681290179491,-0.0019543387461453676,0.00253491778858006,0.9997676610946655,0.0,0.0,0.0,0.27396127581596375,2.0011932849884033,5.129518508911133,-49.58753967285156,0
614.4939999999988,-0.00011221359454793856,-3.3884334698086604e-05,-0.0002255171857541427,0.0,0.0,0.0,0.0,0.0004553099279291928,0.00474535534158349,0.001368410186842084,0.9989643692970276,0.0,0.0,0.0,0.2742187976837158,2.0016839504241943,5.13207483291626,-49.63414764404297,0
624.3950000000004,-0.0001527625572634861,-3.7525020161410794e-05,-0.0002294701262144372,0.0,0.0,0.0,0.0,0.0014964339789003134,0.0009402760188095272,1.8280708900419995e-05,0.9997327923774719,0.0,0.0,0.0,0.2746698260307312,1.9994091987609863,5.1193461418151855,-49.715782165527344,0
634.3189999999995,-0.00018027570331469178,-1.1464082490419969e-05,-0.0002534032391849905,0.0,0.0,0.0,0.0,0.001275352668017149,-0.00043716176878660917,0.0015003243461251259,0.9993512630462646,0.0,0.0,0.0,0.2747829556465149,1.9919215440750122,5.111081123352051,-49.73625946044922,0
644.2199999999993,-0.0003248850116506219,-3.99610580643639e-05,-0.0003694237384479493,0.0,0.0,0.0,0.0,-0.0020415468607097864,-0.004191295709460974,0.0030643250793218613,0.9997028708457947,0.0,0.0,0.0,0.2741852402687073,1.985737919807434,5.114654541015625,-49.62807846069336,0
654.1459999999988,-0.0003249895526096225,6.524787750095129e-05,-0.0004133885959163308,0.0,0.0,0.0,0.0,-0.0003535456780809909,0.00236513908021152,0.0018537732539698482,0.9998908638954163,0.0,0.0,0.0,0.2734474837779999,1.9825512170791626,5.113738059997559,-49.49454116821289,0
664.0439999999999,-0.00037589349085465074,6.194176967255771e-05,-0.00042877154191955924,0.0,0.0,0.0,0.0,-0.0005651721730828285,-0.004123128019273281,-0.00015765466378070414,1.00193190574646,0.0,0.0,0.0,0.2741680145263672,1.9794392585754395,5.109281063079834,-49.62495803833008,0
673.9660000000003,-0.00040630242438055575,0.0001352518447674811,-0.00045563525054603815,0.0,0.0,0.0,0.0,0.0008605247712694108,2.7429083274910226e-05,-0.002883591689169407,1.000820279121399,0.0,0.0,0.0,0.27359864115715027,1.9799902439117432,5.108057022094727,-49.52189636230469,0
683.8649999999998,-0.0003603078075684607,3.1234139896696433e-05,-0.0004813095147255808,0.0,0.0,0.0,0.0,0.0004920477513223886,-0.0011441967217251658,-0.0011461194371804595,1.0000568628311157,0.0,0.0,0.0,0.2727028429508209,1.9766868352890015,5.101004600524902,-49.3597526550293,0
693.7799999999988,-0.00039393347105942667,5.3690509957959875e-05,-0.0005141855217516422,0.0,0.0,0.0,0.0,0.0019731803331524134,-0.0003487102803774178,-0.002707298379391432,0.9993304014205933,0.0,0.0,0.0,0.2723027765750885,1.979612112045288,5.101838111877441,-49.28734588623047,0
703.6859999999997,-0.0004477534384932369,4.780737799592316e-05,-0.0005294816801324487,0.0,0.0,0.0,0.0,-0.0008730117115192115,0.001266137813217938,0.003212254261597991,1.0001062154769897,0.0,0.0,0.0,0.2709923982620239,1.9736855030059814,5.086222171783447,-49.0501594543457,0
713.6090000000004,-0.000481043680338189,0.0001285513280890882,-0.0005516807432286441,0.0,0.0,0.0,0.0,0.0020830926951020956,0.0031792002264410257,-0.0020560903940349817,1.0019813776016235,0.0,0.0,0.0,0.27073031663894653,1.9728477001190186,5.077920913696289,-49.00272750854492,0
723.509,-0.00022321697906590998,-6.917294376762584e-05,-0.0005155513063073158,0.0,0.0,0.0,0.0,0.000609753536991775,-0.0017108843894675374,0.00605053873732686,1.0017272233963013,0.0,0.0,0.0,0.26976558566093445,1.9304733276367188,5.110349655151367,-48.82810592651367,0
733.4279999999999,-0.00025951885618269444,-3.58395445800852e-05,-0.0005247020744718611,0.0,0.0,0.0,0.0,0.0014388957060873508,0.00030648597748950124,0.004011253360658884,1.0005849599838257,0.0,0.0,0.0,0.27067115902900696,1.924245834350586,5.114121437072754,-48.99201965332031,0
743.3330000000005,-0.0001534158509457484,-9.288235742133111e-05,-0.0005016830400563776,0.0,0.0,0.0,0.0,0.0016166321001946926,-0.00019292945216875523,0.0010566110722720623,1.0025256872177124,0.0,0.0,0.0,0.27169734239578247,1.9205296039581299,5.099571704864502,-49.177757263183594,0
753.2510000000002,-0.00020542745187412947,-8.18632252048701e-05,-0.0004943503881804645,0.0,0.0,0.0,0.0,0.0016492401482537389,-0.002282998990267515,0.0013301342260092497,1.0045645236968994,0.0,0.0,0.0,0.27135297656059265,1.9176934957504272,5.093362331390381,-49.11542510986328,0
763.1579999999994,-0.0002568225027061999,-9.751891775522381e-05,-0.0004958979552611709,0.0,0.0,0.0,0.0,-0.0004240346315782517,-7.379132875939831e-05,0.002439917763695121,0.9996443390846252,0.0,0.0,0.0,0.2713105082511902,1.9125070571899414,5.088779926300049,-49.10774230957031,0
773.0689999999995,-0.00034681553370319307,-0.00014178475248627365,-0.0004379520541988313,0.0,0.0,0.0,0.0,0.0006176882307045162,0.004678867291659117,-0.0026150543708354235,0.9994183778762817,0.0,0.0,0.0,0.2716861367225647,1.908652663230896,5.076453685760498,-49.17572784423828,0
782.982,-0.00040346570312976837,-0.00016057988977991045,-0.00043160218046978116,0.0,0.0,0.0,0.0,2.7408079404267482e-05,0.0006893503596074879,0.0012280254159122705,1.0017688274383545,0.0,0.0,0.0,0.27120962738990784,1.9035141468048096,5.07163667678833,-49.08948516845703,0
792.896999999999,-0.00045125267934054136,-0.00013382283214014024,-0.00043364212615415454,0.0,0.0,0.0,0.0,-0.0020147659815847874,0.0015356470830738544,-6.271339952945709e-05,0.9998318552970886,0.0,0.0,0.0,0.26954108476638794,1.8988913297653198,5.059496879577637,-48.787471771240234,0
802.8050000000003,-0.00051138736307621,-0.000152944412548095,-0.00042674504220485687,0.0,0.0,0.0,0.0,0.0049478900618851185,0.004337005317211151,0.000319313898216933,0.9998939633369446,0.0,0.0,0.0,0.2704883813858032,1.9032047986984253,5.056310176849365,-48.95893478393555,0
812.7119999999995,-0.0005508112371899188,-0.00011633568647084758,-0.0004524611576925963,0.0,0.0,0.0,0.0,-0.001043298514559865,-0.0006508000660687685,-0.001709837932139635,0.999866247177124,0.0,0.0,0.0,0.2693113088607788,1.8954002857208252,5.041700839996338,-48.74588394165039,0
822.6239999999998,6.114393909228966e-05,-0.00047313622781075537,-0.00015285950212273747,0.0,0.0,0.0,0.0,0.0007210369221866131,-0.001957011641934514,0.0030831717886030674,0.9996479749679565,0.0,0.0,0.0,0.2635723948478699,1.8236050605773926,5.204347610473633,-47.707130432128906,0
832.5409999999993,6.05043642281089e-05,-0.0004203476710245013,-0.0001324155309703201,0.0,0.0,0.0,0.0,-0.0012954029953107238,-0.003734587226063013,0.0022973932791501284,0.9981444478034973,0.0,0.0,0.0,0.2634888291358948,1.8268016576766968,5.210055351257324,-47.6920051574707,0
842.4490000000005,0.0001793825504137203,-0.0005677920999005437,-0.000109157532278914,0.0,0.0,0.0,0.0,-0.002893077442422509,0.0005912079359404743,-0.0022327988408505917,0.9989256262779236,0.0,0.0,0.0,0.2559921145439148,1.8164997100830078,5.235525131225586,-46.335079193115234,0
852.3559999999998,0.00020053556363563985,-0.00043172703590244055,-8.585395698901266e-05,0.0,0.0,0.0,0.0,0.0019374986877664924,0.0003300599637441337,-0.0020932438783347607,1.0001271963119507,0.0,0.0,0.0,0.2556086778640747,1.814393162727356,5.22528076171875,-46.265682220458984,0
862.2700000000004,0.00021931546507403255,-0.0005489109898917377,-8.966002496890724e-05,0.0,0.0,0.0,0.0,-0.003823373466730118,-0.0026975644286721945,0.0030488092452287674,0.999955952167511,0.0,0.0,0.0,0.24632024765014648,1.801700234413147,5.230360984802246,-44.58445358276367,0
872.1839999999993,0.00027057554689235985,-0.00039873423520475626,-0.0001106153940781951,0.0,0.0,0.0,0.0,0.0013078837655484676,0.0016869368264451623,0.00042367586866021156,1.0011571645736694,0.0,0.0,0.0,0.246738463640213,1.8018430471420288,5.219165802001953,-44.660152435302734,0
882.0910000000003,0.00024502412998117507,-0.0004357894940767437,-9.449070785194635e-05,0.0,0.0,0.0,0.0,-0.00166815216653049,-0.0010316791012883186,0.002717019524425268,1.0019663572311401,0.0,0.0,0.0,0.24595755338668823,1.797416090965271,5.212131023406982,-44.51880645751953,0
892.0029999999988,0.0002775122120510787,-0.00028073901194147766,-0.00011119016562588513,0.0,0.0,0.0,0.0,-0.001021700561977923,0.0017639335710555315,-0.0002037066878983751,1.000304102897644,0.0,0.0,0.0,0.2497349977493286,1.8416365385055542,5.221372127532959,-45.20252990722656,0
901.914999999999,0.0002201433089794591,-0.00039775672485120595,-0.00016425388457719237,0.0,0.0,0.0,0.0,-0.0009959599701687694,-0.0004421042976900935,-0.003719606436789036,1.001394510269165,0.0,0.0,0.0,0.24969790875911713,1.8427420854568481,5.220111846923828,-45.19581985473633,0
911.8339999999989,0.00027496402617543936,-0.0002565429313108325,-0.0002056263474514708,0.0,0.0,0.0,0.0,-0.002710727509111166,-0.003078922163695097,-0.003512610448524356,1.0015218257904053,0.0,0.0,0.0,0.24953988194465637,1.8459875583648682,5.213023662567139,-45.167213439941406,0
921.735999999999,0.00021099671721458435,-0.0003731813048943877,-0.0002569831849541515,0.0,0.0,0.0,0.0,0.0008500040858052671,0.0005202014581300318,0.004863293841481209,1.0003899335861206,0.0,0.0,0.0,0.2487780749797821,1.857847809791565,5.217357158660889,-45.02932357788086,0
931.6630000000005,0.00021312048193067312,-0.0002705064252950251,-0.00024184003996197134,0.0,0.0,0.0,0.0,-0.001968967029824853,0.0004358936275821179,0.0031615926418453455,1.0018792152404785,0.0,0.0,0.0,0.2554830312728882,1.8754774332046509,5.222041606903076,-46.24293518066406,0
941.5599999999995,0.0001775920100044459,-0.00037071702536195517,-0.0002729800471570343,0.0,0.0,0.0,0.0,0.0012233434244990349,-0.004169576335698366,-0.002682979917153716,0.9985921382904053,0.0,0.0,0.0,0.25603094696998596,1.8759573698043823,5.214303016662598,-46.34211349487305,0
951.4789999999994,0.00017658810247667134,-0.00028804829344153404,-0.00027111024246551096,0.0,0.0,0.0,0.0,-0.0031088385730981827,0.005166766699403524,-0.003954924643039703,0.999552845954895,0.0,0.0,0.0,0.25489532947540283,1.872580885887146,5.2195353507995605,-46.136566162109375,0
961.3819999999996,5.0074995670001954e-05,-0.0003531503607518971,-0.0003102639166172594,0.0,0.0,0.0,0.0,0.0005063507123850286,-0.0022883941419422626,-0.0009850672213360667,0.9992279410362244,0.0,0.0,0.0,0.2537432610988617,1.8783382177352905,5.20320987701416,-45.928035736083984,0
971.2999999999993,6.294878403423354e-05,-0.00021432658832054585,-0.00032009606366045773,0.0,0.0,0.0,0.0,-0.0001375819992972538,-0.0012960854219272733,-0.0006147313979454339,0.9997227191925049,0.0,0.0,0.0,0.2534051537513733,1.8738075494766235,5.2009782791137695,-45.86683654785156,0
981.2080000000005,1.6163918189704418e-05,-0.000249130476731807,-0.0003201987419743091,0.0,0.0,0.0,0.0,-0.0017662171740084887,0.000869857962243259,-0.002838579472154379,1.0003771781921387,0.0,0.0,0.0,0.25397926568984985,1.8741192817687988,5.202096939086914,-45.97075271606445,0
991.1309999999994,-1.0167704203922767e-05,-0.00019360844453331083,-0.0003197191108483821,0.0,0.0,0.0,0.0,-0.0015459737041965127,-0.00042818509973585606,0.0022643450647592545,1.001927375793457,0.0,0.0,0.0,0.2594255805015564,1.8905049562454224,5.194645881652832,-46.956546783447266,0
1001.0339999999997,-5.6383589253528044e-05,-0.00022268062457442284,-0.00031911415862850845,0.0,0.0,0.0,0.0,-0.0018071912927553058,-0.001562080578878522,0.000891424308065325,0.9992815852165222,0.0,0.0,0.0,0.2588634192943573,1.8896539211273193,5.1887712478637695,-46.854793548583984,0
1010.9509999999991,-0.0001108625074266456,-0.00016357708955183625,-0.0002764626988209784,0.0,0.0,0.0,0.0,-0.0011680610477924347,0.0018286999547854066,0.005508675705641508,0.9995696544647217,0.0,0.0,0.0,0.25829821825027466,1.894593358039856,5.191249847412109,-46.75249099731445,0
1020.8490000000002,-0.00020618736743927002,-0.0002053162024822086,-0.0003309591847937554,0.0,0.0,0.0,0.0,-0.001014922745525837,-0.0016642146511003375,0.003114132909104228,0.999495804309845,0.0,0.0,0.0,0.25993427634239197,1.8893626928329468,5.1818695068359375,-47.04861831665039,0
1030.7749999999996,-0.00023771492124069482,-0.0001378449669573456,-0.00031976340687833726,0.0,0.0,0.0,0.0,0.001844466314651072,-0.0016956781037151814,0.0006059589795768261,0.9997516870498657,0.0,0.0,0.0,0.26057153940200806,1.8904058933258057,5.180147647857666,-47.163970947265625,0
1040.673999999999,-0.0002920241968240589,-0.00016179679369088262,-0.0003187349357176572,0.0,0.0,0.0,0.0,-0.00233274488709867,-0.002893876750022173,-0.0006053077522665262,0.9996647238731384,0.0,0.0,0.0,0.26024749875068665,1.8821536302566528,5.179873466491699,-47.105316162109375,0
1050.592999999999,-0.0003252578026149422,-0.00010151271271752194,-0.0003221380466129631,0.0,0.0,0.0,0.0,0.0011554807424545288,0.0006643478409387171,0.000729086110368371,1.0004123449325562,0.0,0.0,0.0,0.2662093937397003,1.8989953994750977,5.187182903289795,-48.18442916870117,0
1060.4959999999992,-0.00038030551513656974,-0.00011970517516601831,-0.00032155224471352994,0.0,0.0,0.0,0.0,0.001296398346312344,0.00274766911752522,0.0002799037902150303,1.0018582344055176,0.0,0.0,0.0,0.2662232220172882,1.8931788206100464,5.176441192626953,-48.18693542480469,0
1070.4159999999993,-0.00039214102434925735,-5.369649807107635e-05,-0.00038091771421022713,0.0,0.0,0.0,0.0,0.00027297757333144546,0.0041186632588505745,0.0018933734390884638,1.0013418197631836,0.0,0.0,0.0,0.26595234870910645,1.8960074186325073,5.175747394561768,-48.137901306152344,0
1080.3230000000003,-0.00044518851791508496,-6.665741966571659e-05,-0.00038271749508567154,0.0,0.0,0.0,0.0,0.0017026078421622515,-0.0022869515232741833,-0.0003046234487555921,0.9994809627532959,0.0,0.0,0.0,0.26675552129745483,1.890709400177002,5.163947105407715,-48.28328323364258,0
1090.2369999999992,-0.00048763613449409604,-1.2007170880679041e-05,-0.0003800831618718803,0.0,0.0,0.0,0.0,0.0010474224109202623,-0.0012834449298679829,0.0022936048917472363,1.0010119676589966,0.0,0.0,0.0,0.26509034633636475,1.8930892944335938,5.1561126708984375,-47.98188018798828,0
1100.1499999999996,-0.0005394410691224039,-2.5297940737800673e-05,-0.0003801950952038169,0.0,0.0,0.0,0.0,0.0005525795859284699,0.0007145406561903656,-0.0015762954717501998,0.9987544417381287,0.0,0.0,0.0,0.26472240686416626,1.8871667385101318,5.156013011932373,-47.915279388427734,0
1110.0609999999997,-0.0005431890022009611,3.6837205698248e-05,-0.000445361016318202,0.0,0.0,0.0,0.0,5.994660023134202e-05,-0.0035736605059355497,0.005115255247801542,0.9968760013580322,0.0,0.0,0.0,0.2654375731945038,1.8896123170852661,5.149263858795166,-48.04472732543945,0
1119.9629999999997,-0.0005929612088948488,2.5792320229811594e-05,-0.0004517695342656225,0.0,0.0,0.0,0.0,0.0029034025501459837,0.0019010438118129969,0.0014698706800118089,0.9993727803230286,0.0,0.0,0.0,0.26557213068008423,1.8892357349395752,5.1476216316223145,-48.06908416748047,0
1129.8869999999988,-0.0005985997267998755,7.605888822581619e-05,-0.0005133133963681757,0.0,0.0,0.0,0.0,0.0015224043745547533,-0.0034206723794341087,-0.00026879238430410624,0.9995095133781433,0.0,0.0,0.0,0.2658304274082184,1.8831199407577515,5.141030788421631,-48.1158332824707,0
1139.7870000000003,-0.0006457953713834286,6.716062489431351e-05,-0.0005266399821266532,0.0,0.0,0.0,0.0,-0.0013226288137957454,0.0009499372681602836,-0.0008125381427817047,0.9999980330467224,0.0,0.0,0.0,0.26635557413101196,1.8858225345611572,5.141471862792969,-48.21088790893555,0
1149.7119999999995,-0.0006525334320031106,0.000107989864773117,-0.0005856086499989033,0.0,0.0,0.0,0.0,0.0016911630518734455,-0.002340905601158738,-0.0022724242880940437,1.0019335746765137,0.0,0.0,0.0,0.2663648724555969,1.8837558031082153,5.140778064727783,-48.21257400512695,0
1159.610999999999,-0.0006999553879722953,0.00010333454702049494,-0.0006026014452800155,0.0,0.0,0.0,0.0,0.0030989092774689198,0.001846590545028448,0.0016420397441834211,0.9991121888160706,0.0,0.0,0.0,0.2657233774662018,1.8825794458389282,5.142546653747559,-48.096458435058594,0
1169.530999999999,-0.0007418585591949522,0.00011650188389467075,-0.0006234997999854386,0.0,0.0,0.0,0.0,-0.0006574562867172062,0.0025230515748262405,0.0012529073283076286,0.9977148175239563,0.0,0.0,0.0,0.2659609317779541,1.8810142278671265,5.134087562561035,-48.13945388793945,0
1179.4359999999997,-0.0007913619047030807,0.00011046203144360334,-0.000640842248685658,0.0,0.0,0.0,0.0,0.0015417059184983373,0.0030050796922296286,0.001221654238179326,0.9993988275527954,0.0,0.0,0.0,0.264828622341156,1.8762096166610718,5.121734619140625,-47.934505462646484,0
1189.3529999999992,-0.0007919789641164243,0.00017864136316347867,-0.0006908969371579587,0.0,0.0,0.0,0.0,-0.001276433584280312,0.0014004509430378675,-0.0005947782774455845,0.9994043707847595,0.0,0.0,0.0,0.2716692388057709,1.9119895696640015,5.137511253356934,-49.172672271728516,0
1199.2549999999992,-0.0008399714133702219,0.00017839243810158223,-0.0007133960025385022,0.0,0.0,0.0,0.0,-0.0018366118893027306,0.0005003965343348682,0.0006201882497407496,1.0002001523971558,0.0,0.0,0.0,0.2713373303413391,1.9038352966308594,5.126774311065674,-49.11259460449219,0
1209.1769999999997,-0.0008854737970978022,0.00019015869474969804,-0.000738533039111644,0.0,0.0,0.0,0.0,0.0014038215158507228,-0.002956800162792206,-0.0003305005084257573,0.9995518326759338,0.0,0.0,0.0,0.271045446395874,1.8997557163238525,5.117613792419434,-49.05976867675781,0
1219.0779999999995,0.00011403455573599786,-0.00036410446045920253,-0.0001049404963850975,0.0,0.0,0.0,0.0,-0.0005776340258307755,0.0005588066414929926,-0.0023998795077204704,0.9994164705276489,0.0,0.0,0.0,0.2627326548099518,1.7761479616165161,5.319478988647461,-47.55513381958008,0
1229.0059999999994,0.00012064615293638781,-0.0003434682439547032,-7.971678132889792e-05,0.0,0.0,0.0,0.0,0.0019506113603711128,-0.00015838508261367679,0.0002386387495789677,0.9981787204742432,0.0,0.0,0.0,0.26228955388069153,1.77323317527771,5.31845760345459,-47.47493362426758,0
1238.9040000000005,0.00022005302889738232,-0.000517521402798593,-0.0001135388229158707,0.0,0.0,0.0,0.0,0.00017441458476241678,0.0020671221427619457,0.0009981768671423197,1.0011093616485596,0.0,0.0,0.0,0.26118752360343933,1.7752372026443481,5.309155464172363,-47.27545928955078,0
1248.825999999999,0.00023999049153644592,-0.00042535088141448796,-8.292018173960969e-05,0.0,0.0,0.0,0.0,-0.0010946780676022172,0.002515758853405714,-0.007225576788187027,1.001326084136963,0.0,0.0,0.0,0.2622971534729004,1.7763766050338745,5.304347515106201,-47.47631072998047,0
1258.723,0.0002378954814048484,-0.00046086826478131115,-8.129694469971582e-05,0.0,0.0,0.0,0.0,0.0020572184585034847,0.0019062625942751765,-0.0008855145424604416,1.0002586841583252,0.0,0.0,0.0,0.26156869530677795,1.7763909101486206,5.2889933586120605,-47.34445571899414,0
1268.6399999999994,0.0002592052915133536,-0.00038156952359713614,-8.133923256536946e-05,0.0,0.0,0.0,0.0,0.0007125834817998111,-0.001347250770777464,0.0003935909771826118,1.0015558004379272,0.0,0.0,0.0,0.2662270963191986,1.7871627807617188,5.283220291137695,-48.1876335144043,0
1278.545,0.00025314459344372153,-0.000417432194808498,-7.776615530019626e-05,0.0,0.0,0.0,0.0,0.0014401262160390615,-0.0009164200746454298,-0.002185465069487691,0.999885618686676,0.0,0.0,0.0,0.2679145634174347,1.7836247682571411,5.284229278564453,-48.493064880371094,0
1288.4660000000003,0.00026343745412305,-0.00027412374038249254,-5.277390664559789e-05,0.0,0.0,0.0,0.0,-7.307434134418145e-05,-8.611087832832709e-05,-0.0009913960238918662,0.9997971057891846,0.0,0.0,0.0,0.267072856426239,1.7810362577438354,5.285890579223633,-48.34071731567383,0
1298.3680000000004,0.00025599420769140124,-0.0003059371665585786,-4.6455348638119176e-05,0.0,0.0,0.0,0.0,-0.002851288067176938,0.0002225482021458447,0.0027524810284376144,0.9992598295211792,0.0,0.0,0.0,0.26695990562438965,1.7845076322555542,5.282281398773193,-48.32027816772461,0
1308.2839999999997,0.00025186885613948107,-0.0002196894056396559,-1.5579631508444436e-05,0.0,0.0,0.0,0.0,-0.002713037421926856,-0.0005975505337119102,-0.00017591787036508322,1.000348448753357,0.0,0.0,0.0,0.2743571102619171,1.8169056177139282,5.280296802520752,-49.6591796875,0
1318.1990000000005,0.0002420500386506319,-0.0002527485485188663,-7.081021976773627e-06,0.0,0.0,0.0,0.0,-0.00011005451233359054,0.0045746807008981705,-0.00129906355869025,0.9991413950920105,0.0,0.0,0.0,0.273447722196579,1.8176295757293701,5.278750896453857,-49.49458312988281,0
1328.107,0.00023806613171473145,-0.00021412821661215276,6.3349134507006966e-06,0.0,0.0,0.0,0.0,-0.0005800073267892003,-0.0038217520341277122,-0.00036246798117645085,0.9976094365119934,0.0,0.0,0.0,0.27266478538513184,1.820900797843933,5.2745490074157715,-49.352867126464844,0
1338.0169999999998,0.0002273052668897435,-0.000245510513195768,1.3818381376040634e-05,0.0,0.0,0.0,0.0,0.000396396906580776,0.0016366319032385945,-0.002669327426701784,0.9992173314094543,0.0,0.0,0.0,0.2721460461616516,1.81912100315094,5.271864891052246,-49.258975982666016,0
1347.932999999999,0.00020556962408591062,-0.0002752235741354525,5.141444853506982e-05,0.0,0.0,0.0,0.0,0.002653759438544512,-0.003553094808012247,-0.0036215612199157476,0.9998471736907959,0.0,0.0,0.0,0.2717885673046112,1.819346308708191,5.261439800262451,-49.19426727294922,0
1357.8400000000001,0.00019211221660953015,-0.00030831104959361255,5.9347221395000815e-05,0.0,0.0,0.0,0.0,-0.0015769641613587737,0.0038062441162765026,0.0016252566128969193,1.0010814666748047,0.0,0.0,0.0,0.2711259424686432,1.813400387763977,5.250133991241455,-49.0743293762207,0
1367.7529999999988,0.0001955694315256551,-0.0002100927958963439,6.808061880292371e-05,0.0,0.0,0.0,0.0,-0.0006728912703692913,-0.0006405607564374804,-0.004755190573632717,0.9997522234916687,0.0,0.0,0.0,0.2718714773654938,1.8493287563323975,5.254417419433594,-49.20927810668945,0
1377.6630000000005,0.00014394125901162624,-0.00044966660789214075,-0.00016459808102808893,0.0,0.0,0.0,0.0,0.002097256714478135,0.001722009270451963,9.496624261373654e-05,1.0005168914794922,0.0,0.0,0.0,0.26242297887802124,1.8047975301742554,5.246150016784668,-47.49908447265625,0
1387.5730000000003,0.00018961328896693885,-0.00029177649412304163,-0.0001780483144102618,0.0,0.0,0.0,0.0,-0.0014280077302828431,-0.0003906642086803913,0.001094734645448625,1.000270128250122,0.0,0.0,0.0,0.2620345652103424,1.7954413890838623,5.235707759857178,-47.428775787353516,0
1397.4879999999994,-2.1474452296388336e-05,-0.0003611827560234815,-0.0003146044327877462,0.0,0.0,0.0,0.0,-0.001162777654826641,0.0012824920704588294,0.0050260042771697044,0.9982847571372986,0.0,0.0,0.0,0.2604965567588806,1.7986525297164917,5.2276225090026855,-47.15039825439453,0
1407.3989999999994,1.8063985407934524e-05,-0.000220433808863163,-0.00035313598345965147,0.0,0.0,0.0,0.0,-0.00047464671661145985,0.0020609793718904257,-0.002124137943610549,0.9992817044258118,0.0,0.0,0.0,0.267155259847641,1.8181161880493164,5.231606483459473,-48.35563278198242,0
1417.3050000000003,-9.790222975425422e-05,-0.00023869029246270657,-0.0004052765143569559,0.0,0.0,0.0,0.0,-0.0022664687130600214,-0.000832432066090405,0.005086551420390606,0.9993348717689514,0.0,0.0,0.0,0.2660385072231293,1.8196626901626587,5.207592010498047,-48.15349197387695,0
1427.2170000000006,-9.580249025020748e-05,-0.00018940928566735238,-0.0004332480311859399,0.0,0.0,0.0,0.0,0.00022598874056711793,0.004653713200241327,0.0010543691460043192,0.9992484450340271,0.0,0.0,0.0,0.26772958040237427,1.81882643699646,5.198430061340332,-48.4595832824707,0
1437.1329999999998,-0.000186084711458534,-0.00017207015480380505,-0.0004583945847116411,0.0,0.0,0.0,0.0,-0.0006158263422548771,0.002002586144953966,0.00040139741031453013,1.0000998973846436,0.0,0.0,0.0,0.2671319246292114,1.818608045578003,5.1812262535095215,-48.35140609741211,0
1447.039999999999,-0.0001847217936301604,-0.0001259210257558152,-0.0004878693143837154,0.0,0.0,0.0,0.0,-0.002269776538014412,-0.001946516102179885,-0.005298395175486803,0.9998133778572083,0.0,0.0,0.0,0.26614895462989807,1.8118301630020142,5.169198513031006,-48.173492431640625,0
1456.950999999999,-0.00021722241945099086,-0.00012911693193018436,-0.0005047674058005214,0.0,0.0,0.0,0.0,-0.00188898341730237,-5.7105644373223186e-05,0.0015597399324178696,0.9987264275550842,0.0,0.0,0.0,0.26570793986320496,1.8181623220443726,5.168337345123291,-48.09366226196289,0
1466.8619999999992,-0.00022648056619800627,-9.749266610015184e-05,-0.0005251073744148016,0.0,0.0,0.0,0.0,0.0012040459550917149,-0.0012690027942880988,0.0014286338118836284,1.0006321668624878,0.0,0.0,0.0,0.2669273316860199,1.8193033933639526,5.162919044494629,-48.31437301635742,0
1476.7739999999994,-0.0002517644315958023,-0.0001308755308855325,-0.0005475197685882449,0.0,0.0,0.0,0.0,0.002828083233907819,-0.0013962604571133852,-0.004237334709614515,0.9994140863418579,0.0,0.0,0.0,0.2673298418521881,1.8147611618041992,5.1625800132751465,-48.387229919433594,0
1486.688,-0.0002665063657332212,-8.125708700390533e-05,-0.0005593763198703527,0.0,0.0,0.0,0.0,-0.002850875724107027,0.0049017625860869884,0.0005724612274207175,0.999275267124176,0.0,0.0,0.0,0.2660606801509857,1.8136930465698242,5.152256965637207,-48.157508850097656,0
1496.6009999999987,-0.00024665877572260797,-0.00011329104017931968,-0.0005589199718087912,0.0,0.0,0.0,0.0,-0.0009848494082689285,0.0008856096537783742,0.002122897421941161,0.9977060556411743,0.0,0.0,0.0,0.26676321029663086,1.814872145652771,5.144638538360596,-48.28466796875,0
1506.509,-0.0002483293937984854,-4.718287163996138e-05,-0.0005767875700257719,0.0,0.0,0.0,0.0,0.0007985989795997739,-0.0002349390124436468,0.00375089468434453,1.0001689195632935,0.0,0.0,0.0,0.2733001708984375,1.8371775150299072,5.152423858642578,-49.46787643432617,0
1516.4179999999997,-0.0002332502044737339,-5.7919693063013256e-05,-0.0005725834053009748,0.0,0.0,0.0,0.0,-0.00033898637047968805,-0.0005525063024833798,0.0007570937159471214,1.0014115571975708,0.0,0.0,0.0,0.28018277883529663,1.8354449272155762,5.152884483337402,-50.71363830566406,0
1526.3289999999997,-0.00024799018865451217,1.1255915524088778e-05,-0.00057192612439394,0.0,0.0,0.0,0.0,-0.005411864724010229,-0.004205007571727037,0.0025556839536875486,1.0009652376174927,0.0,0.0,0.0,0.2804027199745178,1.842128872871399,5.151773929595947,-50.753448486328125,0
1536.25,-0.0002262823545606807,-4.643234933610074e-05,-0.0005852701142430305,0.0,0.0,0.0,0.0,0.0008491768385283649,0.003504960099235177,0.0009003960876725614,0.9998828768730164,0.0,0.0,0.0,0.288860023021698,1.842529535293579,5.159558296203613,-52.28424072265625,0
1546.1540000000005,-0.00026331705157645047,-4.0574203012511134e-05,-0.0005807210109196603,0.0,0.0,0.0,0.0,-0.0027690185233950615,0.0038709978107362986,-0.0009001211728900671,1.001129150390625,0.0,0.0,0.0,0.2883474826812744,1.8418586254119873,5.141654968261719,-52.19146728515625,0
1556.0679999999993,-0.00013730225327890366,-0.00011057725350838155,-0.0005591731169261038,0.0,0.0,0.0,0.0,-0.00016450580733362585,0.0032373059075325727,-0.0028543896041810513,1.0002166032791138,0.0,0.0,0.0,0.2875448763370514,1.8422019481658936,5.133788108825684,-52.04619598388672,0
1565.9759999999987,-0.00021076157281640917,-0.00012566101213451475,-0.0005033850902691483,0.0,0.0,0.0,0.0,0.0007107613491825759,-0.0009300509700551629,0.0009462723392061889,0.9986441731452942,0.0,0.0,0.0,0.28694456815719604,1.840896487236023,5.120367527008057,-51.93753433227539,0
1575.8860000000004,-0.00010268214828101918,-0.0001502590748714283,-0.0004539544752333313,0.0,0.0,0.0,0.0,0.002347503323107958,-0.0003313607594463974,0.002220307709649205,0.9979874491691589,0.0,0.0,0.0,0.28654932975769043,1.8401442766189575,5.113801956176758,-51.865997314453125,0
1585.7979999999989,-0.0001281661679968238,-0.00013051385758444667,-0.0004478490736801177,0.0,0.0,0.0,0.0,-0.003539576893672347,-0.0016761402366682887,0.0015461617149412632,1.0002413988113403,0.0,0.0,0.0,0.286452978849411,1.8326380252838135,5.11060905456543,-51.84856033325195,0
1595.714,1.802089172997512e-05,-0.00018166952941101044,-0.0003975994768552482,0.0,0.0,0.0,0.0,-0.0020933030173182487,0.0010324931936338544,-0.0004576750216074288,0.9998677372932434,0.0,0.0,0.0,0.2860831916332245,1.8350350856781006,5.096486568450928,-51.7816276550293,0
1605.6260000000002,-9.071532076632138e-06,-0.00015642189828213304,-0.0003834967501461506,0.0,0.0,0.0,0.0,0.0013253656215965748,-0.0016001922776922584,-0.0007486604736186564,1.0005964040756226,0.0,0.0,0.0,0.2856784760951996,1.8376566171646118,5.096733570098877,-51.7083740234375,0
1615.5319999999992,-4.741507655126043e-05,-0.000193260217201896,-0.0003787244204431772,0.0,0.0,0.0,0.0,-0.00419244822114706,0.0033671779092401266,3.024519537575543e-05,1.00247323513031,0.0,0.0,0.0,0.2860390245914459,1.8396198749542236,5.0965800285339355,-51.77362823486328,0
1625.4429999999993,-7.492166332667693e-05,-0.00014601886505261064,-0.0003631226718425751,0.0,0.0,0.0,0.0,0.002482658252120018,-0.00041246291948482394,3.4536556086095516e-06,1.000115156173706,0.0,0.0,0.0,0.2860684096813202,1.8443201780319214,5.0789570808410645,-51.77894973754883,0
1635.3559999999998,0.00015903759049251676,-0.0003652521118056029,-0.0003170100098941475,0.0,0.0,0.0,0.0,-0.0010952671291306615,0.00024328970175702125,-0.0005615796544589102,1.0006827116012573,0.0,0.0,0.0,0.2796573042869568,1.8117300271987915,5.133678436279297,-50.6185302734375,0
1645.2700000000004,0.00016945342940744013,-0.00025074766017496586,-0.0002938297111541033,0.0,0.0,0.0,0.0,0.0010547678684815764,0.003856382565572858,0.0018849759362637997,1.0007578134536743,0.0,0.0,0.0,0.2809813618659973,1.8130877017974854,5.13474178314209,-50.858184814453125,0
1655.179,0.00013986771227791905,-0.0002904684515669942,-0.0002806243719533086,0.0,0.0,0.0,0.0,-0.0002265978546347469,0.000545184884686023,-0.0021264103706926107,0.9996454119682312,0.0,0.0,0.0,0.2811225354671478,1.8057974576950073,5.125819683074951,-50.88373947143555,0
1665.092999999999,0.00010875448060687631,-0.0002394268667558208,-0.00023131741909310222,0.0,0.0,0.0,0.0,0.002933330601081252,0.0010161022655665874,-0.001038569724187255,0.9981085658073425,0.0,0.0,0.0,0.2815746068954468,1.8000863790512085,5.121551990509033,-50.9655647277832,0
1675.0110000000004,0.00022603040270041674,-0.0004662403662223369,-0.0002398309879936278,0.0,0.0,0.0,0.0,-0.0011829615104943514,-0.0013470158446580172,0.0009216147009283304,0.9990419745445251,0.0,0.0,0.0,0.27314406633377075,1.7635451555252075,5.139978885650635,-49.439613342285156,0
1684.914999999999,0.0001981113018700853,-0.00040850057848729193,-0.00017263341578654945,0.0,0.0,0.0,0.0,-0.0003832422662526369,0.002712920540943742,0.0033579717855900526,1.0000561475753784,0.0,0.0,0.0,0.27290746569633484,1.7673307657241821,5.142778396606445,-49.39678955078125,0
1694.833999999999,0.00020572716312017292,-0.0005539400735870004,-0.00019437326409388334,0.0,0.0,0.0,0.0,0.0006312474142760038,0.0024242019280791283,0.002636152086779475,0.9989034533500671,0.0,0.0,0.0,0.26629191637039185,1.7473608255386353,5.139223575592041,-48.19936752319336,0
1704.7340000000004,0.00018697723862715065,-0.0004814711573999375,-0.00014331161219161004,0.0,0.0,0.0,0.0,0.0014506543520838022,-0.002573145553469658,0.0020423117093741894,0.9987713098526001,0.0,0.0,0.0,0.27216652035713196,1.7688254117965698,5.12211799621582,-49.2626838684082,0
1714.6489999999994,0.00015629811969120055,-0.000529522483702749,-0.0001283227902604267,0.0,0.0,0.0,0.0,0.001094495179131627,-0.00022745868773199618,-0.0025899559259414673,0.9997724294662476,0.0,0.0,0.0,0.271709680557251,1.7684707641601562,5.121315002441406,-49.179988861083984,0
1724.5599999999995,0.00016695000522304326,-0.0004226036835461855,-0.00012706189590971917,0.0,0.0,0.0,0.0,-0.0016005440847948194,-0.0025075131561607122,0.002075864002108574,0.9992361068725586,0.0,0.0,0.0,0.2733312249183655,1.807996153831482,5.132480144500732,-49.47349548339844,0
1734.4709999999995,0.00016798730939626694,-0.0006057351129129529,-0.00018344410636927933,0.0,0.0,0.0,0.0,0.002155585214495659,-0.0021796980872750282,-0.0037540686316788197,1.0007600784301758,0.0,0.0,0.0,0.2681542932987213,1.7849962711334229,5.13433837890625,-48.53645706176758,0
1744.3799999999992,0.00020353443687781692,-0.0004709490167442709,-0.00020097431843169034,0.0,0.0,0.0,0.0,0.0006035965634509921,0.000293679884634912,0.00014816000475548208,0.9985579252243042,0.0,0.0,0.0,0.2687642574310303,1.8129457235336304,5.141583442687988,-48.64686965942383,0
1754.295,0.00011237516446271911,-0.0005833270843140781,-0.000253350124694407,0.0,0.0,0.0,0.0,-0.003285021288320422,-0.0013491188874468207,-0.0015342548722401261,0.9985433220863342,0.0,0.0,0.0,0.2636629343032837,1.7948920726776123,5.129786491394043,-47.72351837158203,0
1764.205,0.00010454443690832704,-0.000477709952974692,-0.000228528690058738,0.0,0.0,0.0,0.0,0.0009303429396823049,0.002909626578912139,-0.0010154054034501314,0.9996994137763977,0.0,0.0,0.0,0.2633524537086487,1.7947077751159668,5.125986576080322,-47.667320251464844,0
1774.128999999999,3.881176598952152e-05,-0.0005760977510362864,-0.00026638677809387445,0.0,0.0,0.0,0.0,-0.0002002738183364272,-0.0020942820701748133,-0.002610337920486927,1.0010169744491577,0.0,0.0,0.0,0.2642490565776825,1.7888644933700562,5.119040489196777,-47.82960891723633,0
1784.030999999999,3.41391350957565e-05,-0.0004553469188977033,-0.0002533855149522424,0.0,0.0,0.0,0.0,-0.001165697700344026,-0.00010323776950826868,0.001542578567750752,1.0026438236236572,0.0,0.0,0.0,0.26343315839767456,1.7900036573410034,5.12395715713501,-47.68192672729492,0
1793.9449999999997,-4.363399057183415e-05,-0.0005536447279155254,-0.0002981355937663466,0.0,0.0,0.0,0.0,-0.00013490472338162363,0.0009561306796967983,0.00011975291999988258,1.001228928565979,0.0,0.0,0.0,0.26279884576797485,1.7881592512130737,5.110013008117676,-47.567115783691406,0
1803.848,-3.830395144177601e-06,-0.0003876920964103192,-0.0003440522123128176,0.0,0.0,0.0,0.0,-0.0007568614091724157,-0.0008926343289203942,0.0015723903197795153,1.0000783205032349,0.0,0.0,0.0,0.26242363452911377,1.7841757535934448,5.101593017578125,-47.499202728271484,0
1813.7790000000005,-8.646705828141421e-05,-0.000494329899083823,-0.0003915296110790223,0.0,0.0,0.0,0.0,-0.0007872618734836578,0.00431841379031539,-0.002562914974987507,1.0010063648223877,0.0,0.0,0.0,0.26276925206184387,1.7834618091583252,5.093776702880859,-47.5617561340332,0
1823.6720000000005,-0.00010612934420350939,-0.00038227191544137895,-0.00038182054413482547,0.0,0.0,0.0,0.0,0.0012576199369505048,0.0008077201782725751,-0.0020332601852715015,0.9996431469917297,0.0,0.0,0.0,0.2619767487049103,1.7803198099136353,5.074744701385498,-47.418312072753906,0
1833.5920000000006,-0.00017966306768357754,-0.00040524519863538444,-0.0003869534994009882,0.0,0.0,0.0,0.0,0.002095045754685998,-0.0005447564763016999,6.468497304012999e-05,1.0011610984802246,0.0,0.0,0.0,0.26134219765663147,1.7754722833633423,5.0676164627075195,-47.30345916748047,0
1843.5,-0.00020708650117740035,-0.0003135541919618845,-0.00038216033135540783,0.0,0.0,0.0,0.0,-0.0006208578124642372,0.0007840282050892711,0.0010864845244213939,0.9991693496704102,0.0,0.0,0.0,0.26176807284355164,1.7690479755401611,5.060869216918945,-47.38054275512695,0
1853.423999999999,-0.00025278975954279304,-0.0004261095600668341,-0.00041580377728678286,0.0,0.0,0.0,0.0,0.0008298338507302105,0.004451347980648279,-0.0009298522491008043,0.9985262155532837,0.0,0.0,0.0,0.26153746247291565,1.7684929370880127,5.048625946044922,-47.33879852294922,0
1863.321,-0.00023210835934150964,-0.0002738598268479109,-0.00046303123235702515,0.0,0.0,0.0,0.0,-0.0010255193337798119,0.0015180285554379225,0.00046936928993090987,0.9976348876953125,0.0,0.0,0.0,0.26074299216270447,1.7670625448226929,5.033444404602051,-47.19499969482422,0
1873.2420000000002,-0.0002934471413027495,-0.0003079053421970457,-0.00047075239126570523,0.0,0.0,0.0,0.0,0.0016238497337326407,0.001018023700453341,-0.000561255554202944,0.998936116695404,0.0,0.0,0.0,0.2598799467086792,1.7673768997192383,5.02675724029541,-47.038787841796875,0
1883.1409999999996,-0.0003097792505286634,-0.0001671588106546551,-0.0004914820892736316,0.0,0.0,0.0,0.0,0.0006285644485615194,0.0017885123379528522,0.0004159121308475733,0.9978153705596924,0.0,0.0,0.0,0.26453638076782227,1.8013808727264404,5.034004211425781,-47.881614685058594,0
1893.066999999999,-0.0003463931498117745,-0.0002285925147589296,-0.0005163645837455988,0.0,0.0,0.0,0.0,0.0006606706883758307,-0.0007436645682901144,0.0052284495905041695,1.000307559967041,0.0,0.0,0.0,0.26435405015945435,1.7984228134155273,5.027825355529785,-47.848609924316406,0
1902.9619999999995,-0.00034575682366266847,-9.163038339465857e-05,-0.0005564618622884154,0.0,0.0,0.0,0.0,0.0017785195959731936,0.0028465392533689737,0.002242464106529951,0.9986354112625122,0.0,0.0,0.0,0.2717336118221283,1.8245701789855957,5.036282539367676,-49.184326171875,0
1912.884,-0.0004091510199941695,-0.00011747651296900585,-0.0005716721061617136,0.0,0.0,0.0,0.0,-0.001344260759651661,-0.005176017060875893,-0.002969254506751895,0.9988219141960144,0.0,0.0,0.0,0.27193647623062134,1.8185086250305176,5.026399612426758,-49.22104263305664,0
1922.7849999999999,-0.0004445652011781931,-1.589621570019517e-05,-0.0005850053858011961,0.0,0.0,0.0,0.0,-0.002149212406948209,0.0029487810097634792,-0.0033828543964773417,1.0003247261047363,0.0,0.0,0.0,0.27130013704299927,1.8188467025756836,5.039935111999512,-49.10586166381836,0
1932.705,-0.000307252659695223,-0.00010525513789616525,-0.0005379494396038353,0.0,0.0,0.0,0.0,-0.0030539582949131727,-0.0030117591377347708,0.00016588439757470042,0.9998636841773987,0.0,0.0,0.0,0.2726227343082428,1.8021156787872314,5.071918964385986,-49.34525680541992,0
1942.6080000000002,-0.0003320472897030413,-3.625474710133858e-05,-0.0005560196004807949,0.0,0.0,0.0,0.0,0.0022309471387416124,-0.001218389137648046,-0.002979456214234233,0.9986420273780823,0.0,0.0,0.0,0.278831422328949,1.8254013061523438,5.086812973022461,-50.46904373168945,0
1952.5249999999996,-0.0002370475558564067,-0.00010091596777783707,-0.0005327584221959114,0.0,0.0,0.0,0.0,-0.003924001939594746,0.0013164167758077383,-0.0038069544825702906,0.9991008043289185,0.0,0.0,0.0,0.27751681208610535,1.8237438201904297,5.083705425262451,-50.2310905456543,0
1962.4390000000003,-0.0003344049328006804,-0.00016100033826660365,-0.0004905698588117957,0.0,0.0,0.0,0.0,-0.002661719685420394,0.0016067941905930638,-0.0009657040354795754,1.000216007232666,0.0,0.0,0.0,0.27652132511138916,1.831065058708191,5.074883460998535,-50.050907135009766,0
1972.3580000000002,-0.0003918104339390993,-0.00019268367032054812,-0.000497368979267776,0.0,0.0,0.0,0.0,-0.0018261077348142862,0.004964929074048996,-0.0002673650160431862,1.0008771419525146,0.0,0.0,0.0,0.27625733613967896,1.8313660621643066,5.068357467651367,-50.00312805175781,0
1982.259,-0.0004772384709212929,-0.0002119959390256554,-0.00045100218267180026,0.0,0.0,0.0,0.0,0.0005593260284513235,0.005699936766177416,-0.0014508496969938278,1.0001957416534424,0.0,0.0,0.0,0.2753137946128845,1.834434151649475,5.049022674560547,-49.83234405517578,0
1992.1859999999997,-0.0005375629989430308,-0.000244921597186476,-0.0004524286196101457,0.0,0.0,0.0,0.0,0.0020169327035546303,-0.002084012608975172,0.0007911280845291913,0.9977434873580933,0.0,0.0,0.0,0.2751983106136322,1.831493854522705,5.033157825469971,-49.811439514160156,0
2002.0830000000005,-0.0005758135230280459,-0.00014677060244139284,-0.0004617180675268173,0.0,0.0,0.0,0.0,-0.0019520357018336654,0.0033248967956751585,-0.0032095741480588913,0.9996033906936646,0.0,0.0,0.0,0.27829864621162415,1.8608719110488892,5.040972709655762,-50.37261199951172,0
2012.0100000000002,-9.515079000266269e-05,-0.00035697559360414743,-0.0002204947086283937,0.0,0.0,0.0,0.0,0.003112956415861845,-0.006415166892111301,-0.0013722256990149617,1.002143383026123,0.0,0.0,0.0,0.273693710565567,1.8238437175750732,5.165399551391602,-49.53910446166992,0
2021.9079999999994,-9.241360385203734e-05,-0.0002845700364559889,-0.00020736268197651953,0.0,0.0,0.0,0.0,0.002831757301464677,-0.001850429456681013,-0.006170493550598621,1.0005292892456055,0.0,0.0,0.0,0.2737889289855957,1.8172153234481812,5.160921096801758,-49.55634307861328,0
2031.8220000000001,1.0639078027452342e-05,-0.00035445185494609177,-0.0001578337250975892,0.0,0.0,0.0,0.0,-0.001999693689867854,0.0027793271001428366,-0.00243861204944551,0.9979682564735413,0.0,0.0,0.0,0.2726515531539917,1.805019736289978,5.157050132751465,-49.3504753112793,0
2041.7279999999992,3.64548250217922e-05,-0.0002783430099952966,-0.00018017935508396477,0.0,0.0,0.0,0.0,-0.0011239980813115835,0.0019096712348982692,-0.0008070117328315973,0.9996315836906433,0.0,0.0,0.0,0.27997007966041565,1.8264069557189941,5.153772830963135,-50.675140380859375,0
2051.6489999999994,1.0547444617259316e-05,-0.0003098257293459028,-0.00016754526586737484,0.0,0.0,0.0,0.0,-0.001479717786423862,0.0013306180480867624,-0.00113181013148278,0.9996615648269653,0.0,0.0,0.0,0.2802804112434387,1.8287068605422974,5.144793510437012,-50.7313117980957,0
2061.5589999999993,2.4657945687067695e-05,-0.00018950103549286723,-0.00016935243911575526,0.0,0.0,0.0,0.0,0.0025549933779984713,0.0009368755272589624,0.0025851638056337833,0.9997794032096863,0.0,0.0,0.0,0.2789860665798187,1.8291887044906616,5.138696670532227,-50.497032165527344,0
2071.4619999999995,-3.576977178454399e-06,-0.00021679453493561596,-0.00015779414388816804,0.0,0.0,0.0,0.0,-0.001118125393986702,-0.006636859383434057,0.0022327157203108072,0.9999339580535889,0.0,0.0,0.0,0.2791263163089752,1.8239035606384277,5.1292924880981445,-50.52241897583008,0
2081.3719999999994,-1.6092017176561058e-05,-0.00012016599794151261,-0.00013850971299689263,0.0,0.0,0.0,0.0,0.0009366952581331134,-0.0024390832986682653,0.0005205104243941605,0.9979608654975891,0.0,0.0,0.0,0.28030768036842346,1.8226025104522705,5.129472255706787,-50.73625183105469,0
2091.2870000000003,0.00025728167383931577,-0.0004139136290177703,-0.000110664899693802,0.0,0.0,0.0,0.0,-0.0018592743435874581,0.003246864303946495,-0.0017405749531462789,0.998833954334259,0.0,0.0,0.0,0.2737078070640564,1.76254403591156,5.199769973754883,-49.54166030883789,0
2101.2019999999993,0.0002706320374272764,-0.0003369039040990174,-9.607898391550407e-05,0.0,0.0,0.0,0.0,0.0007913501467555761,0.0011985989985987544,-0.0030139232985675335,1.0002186298370361,0.0,0.0,0.0,0.27309951186180115,1.7636126279830933,5.186635494232178,-49.431549072265625,0
2111.120999999999,0.0003209311398677528,-0.0005344909732230008,-0.00015188260294962674,0.0,0.0,0.0,0.0,-0.0004387416411191225,-0.0022542618680745363,-0.0006420257850550115,1.001236081123352,0.0,0.0,0.0,0.26623982191085815,1.7343083620071411,5.188328266143799,-48.189937591552734,0
