timestamp,stateEstimate.x,stateEstimate.y,stateEstimate.z,controller.cmd_thrust,controller.cmd_roll,controller.cmd_pitch,controller.cmd_yaw,controller.r_roll,controller.r_pitch,controller.r_yaw,controller.accelz,controller.actuatorThrust,controller.roll,controller.pitch,controller.yaw,controller.rollRate,controller.pitchRate,controller.yawRate,controller.ctr_yaw
0.0,-0.00014825959806330502,-5.2529780077748e-05,-8.720865298528224e-05,0.0,0.0,0.0,0.0,-0.0014380929060280323,-0.0015435153618454933,0.0014649605145677924,1.0014636516571045,0.0,0.0,0.0,0.29488322138786316,-2.786672830581665,5.214019298553467,-53.37445068359375,0
9.925000000001091,-9.8968725069426e-05,-4.261655703885481e-05,-5.204126500757411e-05,0.0,0.0,0.0,0.0,-0.0013254472287371755,-0.0022973804734647274,-0.0007505537359975278,1.002022385597229,0.0,0.0,0.0,0.29436200857162476,-2.7807865142822266,5.211587429046631,-53.28010559082031,0
19.820999999999913,-0.00010304929310223088,-1.8605533114168793e-06,-8.79181461641565e-05,0.0,0.0,0.0,0.0,-0.0019584789406508207,-0.0033121167216449976,0.00028862207545898855,0.9991949200630188,0.0,0.0,0.0,0.2934950292110443,-2.7780094146728516,5.213675022125244,-53.12318801879883,0
29.74200000000019,-6.624183151870966e-05,7.569789886474609e-06,-5.914279608987272e-05,0.0,0.0,0.0,0.0,-0.0032291968818753958,-0.004779123701155186,-0.0008463208796456456,0.9977745413780212,0.0,0.0,0.0,0.2934098243713379,-2.7679107189178467,5.2198567390441895,-53.107765197753906,0
39.64500000000044,-7.737799023743719e-05,3.768291207961738e-05,-9.158517787000164e-05,0.0,0.0,0.0,0.0,0.0025324667803943157,0.0009275753400288522,0.0012029965873807669,0.9979539513587952,0.0,0.0,0.0,0.2879379093647003,-2.7571961879730225,5.236134052276611,-52.117332458496094,0
49.569000000001324,-5.285555380396545e-05,3.266852945671417e-05,-8.186900959117338e-05,0.0,0.0,0.0,0.0,-0.0015835571102797985,-0.002858642488718033,-0.004244867712259293,1.000052571296692,0.0,0.0,0.0,0.2883283495903015,-2.7620036602020264,5.230335235595703,-52.18800354003906,0
59.46900000000096,-0.00011994209489785135,1.4124212611932307e-05,-7.480070780729875e-05,0.0,0.0,0.0,0.0,0.0031154502648860216,-0.0015425710007548332,0.003146181581541896,1.001250147819519,0.0,0.0,0.0,0.2869698405265808,-2.7550275325775146,5.227485179901123,-51.94211196899414,0
69.38900000000103,-8.976411481853575e-05,5.709215474780649e-05,-3.7749254261143506e-05,0.0,0.0,0.0,0.0,0.002608545823022723,3.657991692307405e-05,-0.004056024365127087,1.0006016492843628,0.0,0.0,0.0,0.2884827256202698,-2.761059522628784,5.2227559089660645,-52.21595001220703,0
79.29399999999987,-0.0001244133891304955,9.910020889947191e-05,-2.849761222023517e-05,0.0,0.0,0.0,0.0,0.0038672995287925005,0.0028820144943892956,0.00016868929378688335,1.0010544061660767,0.0,0.0,0.0,0.2879459261894226,-2.7617037296295166,5.215876579284668,-52.11878967285156,0
89.21600000000035,-0.000180953778908588,7.758487481623888e-05,-3.298557930975221e-05,0.0,0.0,0.0,0.0,-0.0010228921892121434,-0.004771380219608545,0.0035566382575780153,1.0017009973526,0.0,0.0,0.0,0.28783097863197327,-2.7645912170410156,5.2043585777282715,-52.09798049926758,0
99.11700000000019,-0.00021891025244258344,0.00012048716598656029,-2.2269141481956467e-05,0.0,0.0,0.0,0.0,0.001692183199338615,-0.0010552759049460292,0.0004999263910576701,1.0018459558486938,0.0,0.0,0.0,0.2879009544849396,-2.7554874420166016,5.209440231323242,-52.11064529418945,0
109.04000000000087,-0.00022359828290063888,7.174925849540159e-05,-0.00010064197704195976,0.0,0.0,0.0,0.0,0.0008255341672338545,0.001762815285474062,-0.0025302479043602943,1.0004425048828125,0.0,0.0,0.0,0.2876749038696289,-2.757509708404541,5.2017974853515625,-52.06972885131836,0
118.95100000000093,-0.0002652319672051817,0.00011652462126221508,-9.343866258859634e-05,0.0,0.0,0.0,0.0,0.000686001731082797,-0.0001561565004521981,0.0007795648998580873,0.9981073141098022,0.0,0.0,0.0,0.2861660122871399,-2.757395029067993,5.196639060974121,-51.79661560058594,0
128.871000000001,-0.0002694962313398719,6.262020906433463e-05,-0.00017509260214865208,0.0,0.0,0.0,0.0,0.0024004755541682243,-0.0018656823085621,-0.0015359781682491302,0.9984806776046753,0.0,0.0,0.0,0.28659290075302124,-2.7551779747009277,5.193586349487305,-51.87388610839844,0
138.76699999999983,-0.00030705658718943596,9.849027992459014e-05,-0.0001774034753907472,0.0,0.0,0.0,0.0,-0.0013586514396592975,0.00233518541790545,-0.0005119746783748269,0.9981576800346375,0.0,0.0,0.0,0.2854664623737335,-2.757448434829712,5.191830158233643,-51.67000198364258,0
148.6900000000005,-0.0002513148356229067,0.00017040979582816362,-0.00027041538851335645,0.0,0.0,0.0,0.0,0.00029390331474132836,-0.003415054176002741,0.00026490085292607546,1.0010026693344116,0.0,0.0,0.0,0.27923983335494995,-2.737116813659668,5.230900287628174,-50.54296112060547,0
158.58500000000095,-0.00028257854864932597,0.00021201388153713197,-0.0002813261526171118,0.0,0.0,0.0,0.0,0.0032929324079304934,-0.0015723285032436252,-0.0008915524813346565,1.0020534992218018,0.0,0.0,0.0,0.27853038907051086,-2.7328903675079346,5.23756742477417,-50.41455078125,0
168.51200000000063,-0.00030032882932573557,0.00019214065105188638,-0.0003358562244102359,0.0,0.0,0.0,0.0,0.0018474217504262924,-0.0009697474306449294,-0.00043211126467213035,0.9988678097724915,0.0,0.0,0.0,0.2719460129737854,-2.7558817863464355,5.240795135498047,-49.222774505615234,0
178.40899999999965,-0.0003322127740830183,0.00023237189452629536,-0.00034793876693584025,0.0,0.0,0.0,0.0,-0.002061446662992239,-0.002468491904437542,0.0008611585362814367,0.9982275366783142,0.0,0.0,0.0,0.2720654010772705,-2.752744197845459,5.241326808929443,-49.244380950927734,0
188.33400000000074,-0.0003453516692388803,0.00021629846014548093,-0.00040624712710268795,0.0,0.0,0.0,0.0,0.0010084746172651649,-0.0005684448988176882,0.0012320862151682377,0.999451220035553,0.0,0.0,0.0,0.27187252044677734,-2.7492666244506836,5.243282794952393,-49.209468841552734,0
198.2420000000002,-0.0003769607574213296,0.0002529002376832068,-0.00042396760545670986,0.0,0.0,0.0,0.0,-0.000750214618165046,0.00027869234327226877,0.0026124881114810705,0.9996774196624756,0.0,0.0,0.0,0.27116551995277405,-2.752713680267334,5.238847732543945,-49.08149719238281,0
208.15899999999965,-0.0004045377136208117,0.00021257052139844745,-0.0004851385310757905,0.0,0.0,0.0,0.0,-0.001137864193879068,0.0009980587055906653,0.0034873690456151962,1.0009063482284546,0.0,0.0,0.0,0.26340407133102417,-2.7776689529418945,5.230682849884033,-47.676658630371094,0
218.0580000000009,-0.00043985722004435956,0.00024563627084717155,-0.0005057412781752646,0.0,0.0,0.0,0.0,-0.0028723925352096558,0.003644348820671439,-0.0004903728258796036,0.999211311340332,0.0,0.0,0.0,0.26367294788360596,-2.776036262512207,5.22527551651001,-47.7253303527832,0
227.97700000000077,-0.0004626467707566917,0.00023603931185789406,-0.0005587235791608691,0.0,0.0,0.0,0.0,0.004902333486825228,-0.0005444152629934251,0.004827041644603014,0.9978154897689819,0.0,0.0,0.0,0.26213207840919495,-2.765695333480835,5.22212553024292,-47.44642639160156,0
237.88400000000001,-0.0005004892009310424,0.00026876747142523527,-0.0005826721899211407,0.0,0.0,0.0,0.0,0.0014195289695635438,-0.002193029038608074,-0.001524142688140273,0.9969981908798218,0.0,0.0,0.0,0.26326984167099,-2.7695913314819336,5.220649719238281,-47.652366638183594,0
247.80299999999988,-0.0005287271924316883,0.0002419236407149583,-0.0006476666312664747,0.0,0.0,0.0,0.0,0.0017780590569600463,0.0013390218373388052,0.001833474962040782,0.9994143843650818,0.0,0.0,0.0,0.26271283626556396,-2.7749826908111572,5.2165350914001465,-47.55154800415039,0
257.71200000000135,-0.0005698660388588905,0.0002719778858590871,-0.0006775223882868886,0.0,0.0,0.0,0.0,0.0015233897138386965,-0.000622214749455452,-0.004483949393033981,0.9986279010772705,0.0,0.0,0.0,0.26350125670433044,-2.7800371646881104,5.207820415496826,-47.694252014160156,0
267.6270000000004,-0.0006447184132412076,0.00026250333758071065,-0.0007082384545356035,0.0,0.0,0.0,0.0,-0.0017214505933225155,0.0015285443514585495,0.0008074106299318373,1.0006425380706787,0.0,0.0,0.0,0.26237207651138306,-2.779411792755127,5.209769248962402,-47.489871978759766,0
277.53200000000106,-0.0006913226097822189,0.00028847731300629675,-0.0007382912444882095,0.0,0.0,0.0,0.0,-0.001555891241878271,0.0002863422269001603,-0.001857255818322301,1.0004748106002808,0.0,0.0,0.0,0.26312047243118286,-2.7775166034698486,5.20206880569458,-47.625328063964844,0
287.4400000000005,-0.0007385467761196196,0.0003153547295369208,-0.0007678022375330329,0.0,0.0,0.0,0.0,-0.001610670005902648,-0.0060483841225504875,0.0034294158685952425,0.9993743300437927,0.0,0.0,0.0,0.26282742619514465,-2.772920608520508,5.200969696044922,-47.572288513183594,0
297.362000000001,-0.0007862992933951318,0.0003438304993323982,-0.0007971032755449414,0.0,0.0,0.0,0.0,-0.0014819218777120113,0.0039033452048897743,-0.00012361993140075356,1.0013071298599243,0.0,0.0,0.0,0.2637009620666504,-2.7680022716522217,5.210309028625488,-47.73040008544922,0
307.28000000000065,-0.0008347322582267225,0.00037347141187638044,-0.0008254947606474161,0.0,0.0,0.0,0.0,0.0004924361710436642,-0.0008013875340111554,-0.0012849326012656093,1.0019457340240479,0.0,0.0,0.0,0.264312744140625,-2.7681539058685303,5.199178695678711,-47.84113693237305,0
317.1800000000003,-0.0008841260569170117,0.00040401192381978035,-0.000851902412250638,0.0,0.0,0.0,0.0,4.90673010062892e-05,-0.0024314639158546925,0.0009681009687483311,1.0014020204544067,0.0,0.0,0.0,0.2638501226902008,-2.7699313163757324,5.190502166748047,-47.75739288330078,0
327.10000000000036,-0.0009340935503132641,0.00043596289469860494,-0.0008765225065872073,0.0,0.0,0.0,0.0,-0.0012140660546720028,-0.002227446064352989,-4.4028263801010326e-05,0.9989809989929199,0.0,0.0,0.0,0.26452091336250305,-2.7648589611053467,5.1919636726379395,-47.87881088256836,0
337.005000000001,-0.0009844820015132427,0.000470154540380463,-0.0009007037151604891,0.0,0.0,0.0,0.0,0.0014565514866262674,-0.0019706839229911566,0.00026179745327681303,1.000882863998413,0.0,0.0,0.0,0.26497378945350647,-2.758505344390869,5.188207626342773,-47.960784912109375,0
346.9240000000009,-0.0001445943198632449,6.910337106091902e-05,-0.0001941994996741414,0.0,0.0,0.0,0.0,0.004300950560718775,0.0018970818491652608,-0.00044167027226649225,1.0012298822402954,0.0,0.0,0.0,0.26766523718833923,-2.827195882797241,5.316516399383545,-48.44793701171875,0
356.83400000000074,-0.0001614766224520281,8.903203706722707e-05,-0.00019348354544490576,0.0,0.0,0.0,0.0,-0.0017838261555880308,0.00222937879152596,0.0014158706180751324,0.9995765089988708,0.0,0.0,0.0,0.2676622271537781,-2.8293888568878174,5.306334972381592,-48.447391510009766,0
366.7380000000012,-0.00011969635670538992,9.113949636230245e-05,-0.0001727753406157717,0.0,0.0,0.0,0.0,0.0036516122054308653,-0.0020436893682926893,-0.006420099176466465,0.9993818998336792,0.0,0.0,0.0,0.2680048644542694,-2.82531476020813,5.298671245574951,-48.50941467285156,0
376.65600000000086,-0.0001359161688014865,0.00011315890878904611,-0.00017136363021563739,0.0,0.0,0.0,0.0,0.000646000262349844,-0.0014402215601876378,0.0025914611760526896,1.0021013021469116,0.0,0.0,0.0,0.2653159499168396,-2.8269832134246826,5.300295829772949,-48.0227165222168,0
386.5660000000007,-3.623912198236212e-05,0.00010390008537797257,-0.00016953599697444588,0.0,0.0,0.0,0.0,-0.0004516699118539691,0.0029601454734802246,-0.001189844566397369,1.0030211210250854,0.0,0.0,0.0,0.26579079031944275,-2.82855486869812,5.297765731811523,-48.10866165161133,0
396.47600000000057,-5.1742532377829775e-05,0.00012341553519945592,-0.00016438054444734007,0.0,0.0,0.0,0.0,-0.00028754776576533914,-0.003961541689932346,0.003750236937776208,1.0029404163360596,0.0,0.0,0.0,0.26524925231933594,-2.826991558074951,5.286072254180908,-48.010643005371094,0
406.3860000000004,-6.846812175353989e-05,0.00014338111213874072,-0.00015602273924741894,0.0,0.0,0.0,0.0,-0.0015918005956336856,-0.004256999585777521,-0.0013997837668284774,1.0034072399139404,0.0,0.0,0.0,0.2658888101577759,-2.8218882083892822,5.2920966148376465,-48.126399993896484,0
416.2960000000003,-8.643192995805293e-05,0.00016439847240690142,-0.00014457940415013582,0.0,0.0,0.0,0.0,0.00101899029687047,-0.001200019964016974,0.00031550091807730496,1.0017540454864502,0.0,0.0,0.0,0.2655697762966156,-2.8225719928741455,5.294771194458008,-48.06865692138672,0
426.21100000000115,-1.6838948795339093e-05,0.00012729554146062583,-0.0001746602210914716,0.0,0.0,0.0,0.0,0.0015983919147402048,-0.004781913012266159,0.0018796961521729827,0.9995139241218567,0.0,0.0,0.0,0.2653065025806427,-2.825394868850708,5.292899131774902,-48.02100372314453,0
436.1220000000012,-3.295439819339663e-05,0.00014515015936922282,-0.00016298498667310923,0.0,0.0,0.0,0.0,0.001177670550532639,0.002184610813856125,0.004479410592466593,1.0013322830200195,0.0,0.0,0.0,0.26654621958732605,-2.827378034591675,5.296883583068848,-48.24539566040039,0
446.03100000000086,-5.2319672249723226e-05,0.00016789343499112874,-0.0001495542674092576,0.0,0.0,0.0,0.0,-0.00023248043726198375,-0.005600623786449432,0.004221003036946058,1.0024325847625732,0.0,0.0,0.0,0.26752060651779175,-2.828186511993408,5.289163112640381,-48.4217643737793,0
455.9440000000013,-7.154856575652957e-05,0.0001924153621075675,-0.00013528675481211394,0.0,0.0,0.0,0.0,0.004159715957939625,0.006973048206418753,0.0006563273491337895,1.000388503074646,0.0,0.0,0.0,0.2684813141822815,-2.8258166313171387,5.298435211181641,-48.59565353393555,0
465.85100000000057,-9.253076132154092e-05,0.00021869955526199192,-0.00011935770453419536,0.0,0.0,0.0,0.0,-0.003390543395653367,-2.3991822217794834e-06,0.0010706475004553795,1.0003838539123535,0.0,0.0,0.0,0.26851290464401245,-2.834307909011841,5.282120227813721,-48.60136795043945,0
475.77400000000125,-0.00011526395246619359,0.0002447163569740951,-0.00010261124407406896,0.0,0.0,0.0,0.0,-0.0029286763165146112,-0.000925360363908112,0.0003507530491333455,1.0007456541061401,0.0,0.0,0.0,0.26900216937065125,-2.8315329551696777,5.276490211486816,-48.6899299621582,0
485.6740000000009,-0.000138936098664999,0.00027116897399537265,-8.49438802106306e-05,0.0,0.0,0.0,0.0,0.0010083774104714394,-0.003093914594501257,0.002807487966492772,1.0003889799118042,0.0,0.0,0.0,0.2699143588542938,-2.8274331092834473,5.269724369049072,-48.855037689208984,0
495.59100000000035,-0.00016291093197651207,0.0002990721841342747,-6.635107274632901e-05,0.0,0.0,0.0,0.0,-0.0017404572572559118,-0.0022843768820166588,-1.8423232177156024e-05,1.003180980682373,0.0,0.0,0.0,0.2710583209991455,-2.825132131576538,5.27132511138916,-49.062095642089844,0
505.4989999999998,-0.00018789796740747988,0.00032898926292546093,-4.581052053254098e-05,0.0,0.0,0.0,0.0,0.0002681874902918935,0.001943434588611126,0.003077559173107147,1.002105474472046,0.0,0.0,0.0,0.2708567976951599,-2.816577672958374,5.273769378662109,-49.02561950683594,0
515.4230000000007,-0.00021475132962223142,0.0003610780113376677,-2.2466920199804008e-05,0.0,0.0,0.0,0.0,0.005743103567510843,-0.0016310906503349543,-0.00047072532470338047,1.0015947818756104,0.0,0.0,0.0,0.2722472846508026,-2.811495304107666,5.264559745788574,-49.27730178833008,0
525.3220000000001,-0.00024872104404494166,0.00023673615942243487,-0.00019823289767373353,0.0,0.0,0.0,0.0,0.0021466936450451612,-0.0008289027609862387,0.002383382758125663,0.9997231960296631,0.0,0.0,0.0,0.26285699009895325,-2.8747289180755615,5.265157222747803,-47.57763671875,0
535.2399999999998,-0.00027882365975528955,0.0002617728023324162,-0.00018344215641263872,0.0,0.0,0.0,0.0,-0.00026278491714037955,0.0010156580246984959,-0.0021149334497749805,0.9986078143119812,0.0,0.0,0.0,0.26333218812942505,-2.8772289752960205,5.264304161071777,-47.66365051269531,0
545.1410000000014,-0.0003214047756046057,0.00014704569184686989,-0.00030724669340997934,0.0,0.0,0.0,0.0,0.0019351161317899823,0.002599400235339999,0.00044162978883832693,1.0033913850784302,0.0,0.0,0.0,0.2567458748817444,-2.920027017593384,5.260979652404785,-46.47151184082031,0
555.0640000000003,-0.00035467519774101675,0.00016751665680203587,-0.00029966013971716166,0.0,0.0,0.0,0.0,0.0034590372815728188,-0.0020730593241751194,-0.003405991941690445,0.9998060464859009,0.0,0.0,0.0,0.25700992345809937,-2.9206910133361816,5.251371383666992,-46.519309997558594,0
564.973,-0.00034312301431782544,0.0001968282595044002,-0.00041487094131298363,0.0,0.0,0.0,0.0,0.0017204954056069255,-0.0023153964430093765,-0.0003470002266112715,1.00026535987854,0.0,0.0,0.0,0.2484130859375,-2.9208364486694336,5.271768093109131,-44.963260650634766,0
574.8950000000004,-0.00037483114283531904,0.000218201894313097,-0.0004118362267035991,0.0,0.0,0.0,0.0,-0.0024245327804237604,-0.004773302003741264,0.0014170296490192413,1.0008435249328613,0.0,0.0,0.0,0.2478681057691574,-2.918221950531006,5.272084712982178,-44.864620208740234,0
584.7910000000011,-0.0003846061881631613,0.00017731229308992624,-0.0005206285277381539,0.0,0.0,0.0,0.0,-0.0003532678820192814,0.006540307309478521,0.0014279693132266402,1.0019326210021973,0.0,0.0,0.0,0.2349439263343811,-2.93043851852417,5.284943580627441,-42.52531814575195,0
594.710000000001,-0.00041611609049141407,0.0001972592290258035,-0.0005216140416450799,0.0,0.0,0.0,0.0,-0.00012222342775203288,0.0005969505873508751,0.00395108200609684,1.0026785135269165,0.0,0.0,0.0,0.23443228006362915,-2.928900957107544,5.265077114105225,-42.432708740234375,0
604.621000000001,-0.0004180099058430642,0.00017984636360779405,-0.0006096336292102933,0.0,0.0,0.0,0.0,0.005488814320415258,-0.00011316888412693515,-0.0022951613646000624,1.0028034448623657,0.0,0.0,0.0,0.2352329045534134,-2.926313877105713,5.259267330169678,-42.57762145996094,0
614.5349999999999,-0.0004505273827817291,0.0002036308142123744,-0.0006111600087024271,0.0,0.0,0.0,0.0,0.003254848765209317,-0.0008667231304571033,0.002758698770776391,1.0015453100204468,0.0,0.0,0.0,0.23397164046764374,-2.931734323501587,5.25175142288208,-42.349334716796875,0
624.4350000000013,-0.0004962659440934658,0.00016519342898391187,-0.0006580425542779267,0.0,0.0,0.0,0.0,0.0009284617844969034,-0.0037326423916965723,-0.00030730891739949584,1.0026012659072876,0.0,0.0,0.0,0.24272474646568298,-2.9576385021209717,5.242099761962891,-43.933658599853516,0
634.3590000000004,-0.0005318234907463193,0.00018863404693547636,-0.0006572449929080904,0.0,0.0,0.0,0.0,0.0008191557135432959,-0.0016610511811450124,-0.005334722343832254,1.002377986907959,0.0,0.0,0.0,0.24309733510017395,-2.953761577606201,5.249030590057373,-44.0010986328125,0
644.2600000000002,-0.000569928262848407,0.0002129741624230519,-0.0006539344321936369,0.0,0.0,0.0,0.0,-0.0004839985049329698,0.00016262529243249446,0.0009813752258196473,1.0007295608520508,0.0,0.0,0.0,0.24174369871616364,-2.953758955001831,5.250869274139404,-43.7560920715332,0
654.1850000000013,-0.0006098776939325035,0.0002379020006628707,-0.0006490525556728244,0.0,0.0,0.0,0.0,0.0010672234930098057,-0.0006215874454937875,0.0016495048766955733,0.9985847473144531,0.0,0.0,0.0,0.24229571223258972,-2.9501824378967285,5.250323295593262,-43.85600662231445,0
664.085000000001,-0.0006501541938632727,0.00026342010824009776,-0.0006442965823225677,0.0,0.0,0.0,0.0,0.0018680957145988941,-0.0034718879032880068,-0.00022504648950416595,1.00087571144104,0.0,0.0,0.0,0.2428715080022812,-2.948333740234375,5.247238636016846,-43.96022415161133,0
674.0060000000012,-0.0006901347660459578,0.0002895690849982202,-0.000639596488326788,0.0,0.0,0.0,0.0,0.0034220071975141764,0.0025827104691416025,0.0012097542639821768,0.9996786713600159,0.0,0.0,0.0,0.24242770671844482,-2.948608875274658,5.245477676391602,-43.87989807128906,0
683.9089999999997,-0.000730311730876565,0.0003166196693200618,-0.000634482188615948,0.0,0.0,0.0,0.0,-0.0022739882115274668,-0.003052313579246402,0.0016863452037796378,0.99979567527771,0.0,0.0,0.0,0.24227170646190643,-2.9521336555480957,5.234135150909424,-43.85165786743164,0
693.8280000000013,-0.0007715858519077301,0.000344076135661453,-0.0006293309852480888,0.0,0.0,0.0,0.0,0.002281307941302657,0.0018199835903942585,-0.002132971305400133,1.0013145208358765,0.0,0.0,0.0,0.24332557618618011,-2.945783853530884,5.232676982879639,-44.042415618896484,0
703.728000000001,-0.000814083032310009,0.00037115110899321735,-0.0006235084729269147,0.0,0.0,0.0,0.0,0.002340221544727683,0.0019929769914597273,-0.0019214024068787694,1.0018583536148071,0.0,0.0,0.0,0.24273252487182617,-2.9490034580230713,5.221962928771973,-43.93506622314453,0
713.6450000000004,-0.0008576840627938509,0.0003990371769759804,-0.0006161132478155196,0.0,0.0,0.0,0.0,0.0006091069662943482,-0.001541914651170373,0.0006407806067727506,1.0007541179656982,0.0,0.0,0.0,0.24182254076004028,-2.9505043029785156,5.213712692260742,-43.770362854003906,0
723.5529999999999,-0.0009018110577017069,0.0004297567647881806,-0.0006071662064641714,0.0,0.0,0.0,0.0,-0.00216226396150887,-0.0016066276002675295,-0.00044996326323598623,1.0009952783584595,0.0,0.0,0.0,0.24253040552139282,-2.9495346546173096,5.213749885559082,-43.89848327636719,0
733.4719999999998,-0.0009464946924708784,0.00046374028897844255,-0.0005971979699097574,0.0,0.0,0.0,0.0,-0.0005807678098790348,0.0005516583332791924,-0.0010917221661657095,0.9994476437568665,0.0,0.0,0.0,0.2427484542131424,-2.94244122505188,5.214627742767334,-43.937950134277344,0
743.375,-0.0009921594755724072,0.0004997434443794191,-0.0005869378219358623,0.0,0.0,0.0,0.0,0.0007366012432612479,-0.005554004572331905,0.0011757774045690894,1.000694990158081,0.0,0.0,0.0,0.24277089536190033,-2.9412989616394043,5.202240943908691,-43.9420166015625,0
753.3000000000011,-0.0010394240962341428,0.0005369372665882111,-0.0005762509535998106,0.0,0.0,0.0,0.0,0.0022752524819225073,0.005485468544065952,-0.0010510003194212914,1.0023714303970337,0.0,0.0,0.0,0.24342656135559082,-2.938261032104492,5.209737300872803,-44.060691833496094,0
763.1980000000003,-6.686866981908679e-05,-3.154536898364313e-07,4.152082328801043e-05,0.0,0.0,0.0,0.0,0.002087772125378251,-8.546582103008404e-05,-0.0012076811399310827,1.0023137331008911,0.0,0.0,0.0,0.26157253980636597,-3.0484018325805664,5.363768577575684,-47.345149993896484,0
773.1200000000008,-7.873662980273366e-05,1.3115794899931643e-05,6.859652057755738e-05,0.0,0.0,0.0,0.0,-0.0027733920142054558,-0.0006005261675454676,0.0005850845482200384,0.9999812841415405,0.0,0.0,0.0,0.2611887454986572,-3.0497472286224365,5.36477518081665,-47.27568054199219,0
783.0249999999996,-9.155662701232359e-05,2.5808833015616983e-05,9.6613381174393e-05,0.0,0.0,0.0,0.0,-0.0002498560643289238,-0.003876834874972701,-0.002361649414524436,0.9970393180847168,0.0,0.0,0.0,0.26054248213768005,-3.037496328353882,5.361722946166992,-47.15871047973633,0
792.9459999999999,-0.00010542702511884272,3.993308200733736e-05,0.00012336666986811906,0.0,0.0,0.0,0.0,-0.0027849492616951466,-0.0012830204796046019,0.0014031849568709731,0.9990050196647644,0.0,0.0,0.0,0.2592497766017914,-3.0331947803497314,5.365339756011963,-46.92472457885742,0
802.8520000000008,-7.091792940627784e-05,-2.780755858111661e-05,9.626446262700483e-05,0.0,0.0,0.0,0.0,0.0009261045488528907,0.004069320857524872,-0.0004408018139656633,1.0011284351348877,0.0,0.0,0.0,0.2594699561595917,-3.024325370788574,5.36159610748291,-46.964576721191406,0
812.7690000000002,-8.352526492672041e-05,-1.5330688256653957e-05,0.00011875223572133109,0.0,0.0,0.0,0.0,-0.0002895774377975613,-0.0012986627407371998,0.0015363842248916626,1.0015217065811157,0.0,0.0,0.0,0.25937899947166443,-3.025818109512329,5.3519768714904785,-46.948116302490234,0
822.6679999999997,-9.769298776518553e-05,-1.047518708219286e-06,0.00014277949230745435,0.0,0.0,0.0,0.0,-5.158685598871671e-05,0.002672674134373665,0.001875179004855454,0.99951171875,0.0,0.0,0.0,0.2596333622932434,-3.0213239192962646,5.350713729858398,-46.99415588378906,0
832.594000000001,-0.00011374325549695641,1.5333152987295762e-05,0.00016761681763455272,0.0,0.0,0.0,0.0,-0.0012585800141096115,-0.002677435986697674,0.005343643017113209,1.0000871419906616,0.0,0.0,0.0,0.2604532539844513,-3.0189151763916016,5.3396525382995605,-47.14256286621094,0
842.496000000001,-0.00013102093362249434,3.344366268720478e-05,0.0001925527467392385,0.0,0.0,0.0,0.0,-0.0015281238593161106,-0.0039733354933559895,-0.0005788680864498019,0.9992126822471619,0.0,0.0,0.0,0.2618066370487213,-3.0177555084228516,5.340386867523193,-47.387516021728516,0
852.4200000000001,-0.00014829932479187846,5.289804903441109e-05,0.00021731818560510874,0.0,0.0,0.0,0.0,-0.0028818766586482525,0.00031122181098908186,0.0038872172590345144,0.9991422891616821,0.0,0.0,0.0,0.2611394226551056,-3.0147647857666016,5.343245029449463,-47.266754150390625,0
862.3150000000005,-0.00013797642895951867,-5.249785681371577e-05,0.00013136185589246452,0.0,0.0,0.0,0.0,-0.0011735475854948163,-0.0031220593955367804,-0.0009357421076856554,1.0001859664916992,0.0,0.0,0.0,0.2641913890838623,-3.0572855472564697,5.353037357330322,-47.81916809082031,0
872.241,-0.00015314362826757133,-4.051674113725312e-05,0.0001491265429649502,0.0,0.0,0.0,0.0,-0.0006728184525854886,0.00029583604191429913,0.00022398418514057994,1.0017828941345215,0.0,0.0,0.0,0.2634863555431366,-3.0562946796417236,5.359367370605469,-47.691551208496094,0
882.1410000000014,-0.00010582629329292104,1.1815456673502922e-05,-0.00010237212700303644,0.0,0.0,0.0,0.0,0.000351158669218421,-0.0032204247545450926,0.002102429047226906,1.0019111633300781,0.0,0.0,0.0,0.26332253217697144,-3.051643133163452,5.353692054748535,-47.661903381347656,0
892.0640000000003,-0.00011765722592826933,2.7849509933730587e-05,-9.243054955732077e-05,0.0,0.0,0.0,0.0,0.003188186092302203,-0.001156112179160118,0.0026722028851509094,0.9988740682601929,0.0,0.0,0.0,0.26345568895339966,-3.048482656478882,5.356731414794922,-47.686004638671875,0
901.9610000000011,-4.0743187128100544e-05,-1.0094591743836645e-05,-0.00012521559256128967,0.0,0.0,0.0,0.0,-0.0008211834356188774,-0.003374638967216015,-0.0003775146615225822,1.0001256465911865,0.0,0.0,0.0,0.26410582661628723,-3.048593759536743,5.35223913192749,-47.80367660522461,0
911.8820000000014,-5.206637433730066e-05,8.532245374226477e-06,-0.00011681174510158598,0.0,0.0,0.0,0.0,0.0028365205507725477,-0.004789631348103285,0.002859129337593913,1.001973032951355,0.0,0.0,0.0,0.26344263553619385,-3.0371651649475098,5.352499485015869,-47.68363952636719,0
921.7900000000009,-2.9242113669170067e-05,-8.867965334502514e-06,-0.00012606626842170954,0.0,0.0,0.0,0.0,0.0015091623645275831,-0.001504915882833302,-0.0003509065427351743,1.0006613731384277,0.0,0.0,0.0,0.2566450238227844,-3.042811870574951,5.361748695373535,-46.45326232910156,0
931.7080000000005,-4.237321263644844e-05,1.3124171346134972e-05,-0.00011630554217845201,0.0,0.0,0.0,0.0,0.001287137740291655,-0.0003817850083578378,-0.0016396589344367385,1.0002291202545166,0.0,0.0,0.0,0.25648820400238037,-3.041090250015259,5.363916873931885,-46.42487335205078,0
941.6130000000012,-3.0032570066396147e-05,-3.569043110474013e-05,-0.00010288939665770158,0.0,0.0,0.0,0.0,0.001313121523708105,-0.0016339017311111093,-0.0005442861584015191,1.0001626014709473,0.0,0.0,0.0,0.25633105635643005,-3.0412793159484863,5.3670806884765625,-46.39643096923828,0
951.5290000000005,-4.508690471993759e-05,-1.1749983968911693e-05,-9.225939720636234e-05,0.0,0.0,0.0,0.0,-0.0015495563857257366,-0.0062996274791657925,-0.0003765065339393914,0.999954342842102,0.0,0.0,0.0,0.2559402883052826,-3.044738292694092,5.3652262687683105,-46.32569885253906,0
961.4380000000001,-1.7768930774764158e-05,-2.5924153305822983e-05,-0.00010649374598870054,0.0,0.0,0.0,0.0,-0.000979132833890617,0.0007818948943167925,-0.0012514148838818073,1.0000605583190918,0.0,0.0,0.0,0.2550123333930969,-3.0488040447235107,5.373819351196289,-46.15774154663086,0
971.3520000000008,-3.467150963842869e-05,1.161726686405018e-06,-9.725199925014749e-05,0.0,0.0,0.0,0.0,-0.00010274409578414634,0.0012412851210683584,0.0050344932824373245,1.0015075206756592,0.0,0.0,0.0,0.25469037890434265,-3.0496296882629395,5.364588737487793,-46.099464416503906,0
981.255000000001,-5.5914235417731106e-05,-6.030661825207062e-05,-6.37566190562211e-05,0.0,0.0,0.0,0.0,0.0019134285394102335,0.0010145381093025208,-0.00013245840091258287,1.0008008480072021,0.0,0.0,0.0,0.2558143138885498,-3.0445969104766846,5.356230735778809,-46.30289840698242,0
991.1800000000003,-7.50306062400341e-05,-3.385510353837162e-05,-5.056111695012078e-05,0.0,0.0,0.0,0.0,-0.0029017897322773933,-0.003455736441537738,-0.0008937237435020506,0.9991109371185303,0.0,0.0,0.0,0.2553674280643463,-3.0467679500579834,5.35183048248291,-46.22201156616211,0
1001.0810000000001,-8.916629303712398e-05,4.047390575578902e-06,-8.236565918195993e-05,0.0,0.0,0.0,0.0,-0.0011311854468658566,0.0015844563022255898,-0.0021561956964433193,0.9991921782493591,0.0,0.0,0.0,0.2545125484466553,-3.040365695953369,5.348348140716553,-46.06727981567383,0
1011.0079999999998,-0.00011031721078325063,3.4108106774510816e-05,-7.300976722035557e-05,0.0,0.0,0.0,0.0,-0.00022069591796025634,6.627157563343644e-05,0.0011183139868080616,0.9985122680664062,0.0,0.0,0.0,0.25377368927001953,-3.0392115116119385,5.335434436798096,-45.93354415893555,0
1020.9050000000007,-4.318998253438622e-05,1.9190363673260435e-05,-8.891434845281765e-05,0.0,0.0,0.0,0.0,-0.0029024553950875998,0.0004916590987704694,0.000422360491938889,0.9980905652046204,0.0,0.0,0.0,0.24383680522441864,-3.038403272628784,5.333098411560059,-44.134944915771484,0
1030.821,-6.356991798384115e-05,5.2607931138481945e-05,-8.418602374149486e-05,0.0,0.0,0.0,0.0,0.0006295438506640494,-0.0036577973514795303,0.004938562400639057,0.9990302920341492,0.0,0.0,0.0,0.24404245615005493,-3.034176826477051,5.318129062652588,-44.17217254638672,0
1040.7240000000002,-9.967752703232691e-05,6.235941327759065e-06,-0.00011752432328648865,0.0,0.0,0.0,0.0,0.004419954959303141,0.0011522495187819004,-0.0005768479313701391,0.9996126890182495,0.0,0.0,0.0,0.24567241966724396,-3.033297061920166,5.321301460266113,-44.46719741821289,0
1050.652,-0.00012279317888896912,4.235695814713836e-05,-0.00011754859588108957,0.0,0.0,0.0,0.0,0.0032431893050670624,7.885629747761413e-05,0.002864184556528926,0.9986734390258789,0.0,0.0,0.0,0.24528637528419495,-3.0360381603240967,5.3146467208862305,-44.39732360839844,0
1060.549000000001,-9.223414963344112e-05,7.925099635031074e-05,-0.00020170955394860357,0.0,0.0,0.0,0.0,0.0014383605448529124,0.002148542320355773,-0.0030076627153903246,0.9979144334793091,0.0,0.0,0.0,0.24642544984817505,-3.0387706756591797,5.313253402709961,-44.60349655151367,0
1070.4650000000001,-0.00011579830606933683,0.00011664799239952117,-0.0002106847387040034,0.0,0.0,0.0,0.0,0.0026117663364857435,0.0028798284474760294,-0.0018140878528356552,0.999453067779541,0.0,0.0,0.0,0.24564902484416962,-3.0344905853271484,5.305428981781006,-44.46296310424805,0
1080.3760000000002,-0.0001469375129090622,8.800304203759879e-05,-0.0002433203044347465,0.0,0.0,0.0,0.0,0.0007530383300036192,-0.001658321125432849,0.0011332834837958217,0.999747633934021,0.0,0.0,0.0,0.23852884769439697,-3.048549175262451,5.292847156524658,-43.1741943359375,0
1090.3050000000003,-0.0001934921892825514,6.0251484683249146e-05,-0.00025036107399500906,0.0,0.0,0.0,0.0,0.0002961707941722125,0.001144222915172577,-0.0013217575615271926,1.000253438949585,0.0,0.0,0.0,0.23899000883102417,-3.048917531967163,5.292235374450684,-43.25766372680664,0
1100.1940000000013,-0.00010873140854528174,2.5502133212285116e-05,-0.00021090812515467405,0.0,0.0,0.0,0.0,-0.0005058942479081452,0.0019877178128808737,0.003026817459613085,1.000832200050354,0.0,0.0,0.0,0.24465741217136383,-3.063781261444092,5.313373565673828,-44.283477783203125,0
1110.1260000000002,-0.00018784997519105673,-4.156697104917839e-05,-0.00020706860232166946,0.0,0.0,0.0,0.0,-0.0016033619176596403,0.0004417374439071864,-0.00011962219286942855,0.9993534088134766,0.0,0.0,0.0,0.2452712506055832,-3.059849500656128,5.299713134765625,-44.39458465576172,0
1120.023000000001,-8.071464253589511e-05,-2.0758963728439994e-05,-0.00014462960825767368,0.0,0.0,0.0,0.0,4.994431947125122e-05,-0.0033515263348817825,0.0013446388766169548,0.9996737241744995,0.0,0.0,0.0,0.2562514841556549,-3.0545263290405273,5.310452461242676,-46.38202667236328,0
1129.9480000000003,-9.495845006313175e-05,-1.3983119060867466e-05,-0.00018244003877043724,0.0,0.0,0.0,0.0,0.00044797276495955884,0.0013018526369705796,0.002167444908991456,0.9996556043624878,0.0,0.0,0.0,0.2567918300628662,-3.051907539367676,5.3146162033081055,-46.47983169555664,0
1139.8490000000002,-3.644327080110088e-05,-7.005150564509677e-06,-0.00015923216415103525,0.0,0.0,0.0,0.0,-0.0014669406227767467,0.001811591675505042,0.002443910576403141,0.9999204874038696,0.0,0.0,0.0,0.2565009593963623,-3.0527751445770264,5.301898956298828,-46.427181243896484,0
1149.7630000000008,-6.760422547813505e-05,-2.440205389575567e-05,-0.0001832829148042947,0.0,0.0,0.0,0.0,-0.0003639312635641545,-0.0007184106507338583,-0.001393956714309752,1.0000876188278198,0.0,0.0,0.0,0.2561263144016266,-3.047724485397339,5.287954807281494,-46.359375,0
1159.6640000000007,-8.911020995583385e-05,8.561424692743458e-06,-0.00018730841111391783,0.0,0.0,0.0,0.0,0.0004308165516704321,-0.002605206100270152,0.004046382382512093,1.0008995532989502,0.0,0.0,0.0,0.25452637672424316,-3.0429420471191406,5.2855939865112305,-46.06977844238281,0
1169.5830000000005,-0.00010056773317046463,2.7953005883318838e-06,-0.00022512047144118696,0.0,0.0,0.0,0.0,0.0018704145913943648,-0.00026235575205646455,-0.0027611572295427322,0.9988991618156433,0.0,0.0,0.0,0.2550163269042969,-3.0423731803894043,5.2831854820251465,-46.15846252441406,0
1179.4899999999998,-2.409704029560089e-05,1.3932034335084609e-06,-0.00019223830895498395,0.0,0.0,0.0,0.0,-0.0005361562361940742,-0.0018408531323075294,-0.0007662432035431266,1.0006067752838135,0.0,0.0,0.0,0.2656911313533783,-3.0495309829711914,5.298525333404541,-48.09062576293945,0
1189.4030000000002,-5.192668686504476e-05,-9.373858347316855e-07,-0.00020768409012816846,0.0,0.0,0.0,0.0,0.002190912840887904,-0.00048330312711186707,-0.002474082401022315,1.0007555484771729,0.0,0.0,0.0,0.266160249710083,-3.0407450199127197,5.296828746795654,-48.175537109375,0
1199.312,-7.215049845399335e-05,2.780716386041604e-05,-0.00021128333173692226,0.0,0.0,0.0,0.0,0.0012812995119020343,-0.0017523955320939422,-0.0006517617730423808,0.999824047088623,0.0,0.0,0.0,0.2646860182285309,-3.0381174087524414,5.2948408126831055,-47.908695220947266,0
1209.2260000000006,-0.00012143759522587061,5.647270882036537e-06,-0.00020039854280184954,0.0,0.0,0.0,0.0,-0.0015060731675475836,-0.0008131751674227417,-0.002728027757257223,1.000123381614685,0.0,0.0,0.0,0.26424968242645264,-3.035559892654419,5.299288749694824,-47.82971954345703,0
1219.1370000000006,-3.966056101489812e-05,9.882921403914224e-06,-0.00015025144966784865,0.0,0.0,0.0,0.0,0.0019516090396791697,0.0037027483340352774,0.0017121488926932216,1.0001792907714844,0.0,0.0,0.0,0.2699452340602875,-3.0294947624206543,5.313717842102051,-48.860626220703125,0
1229.050000000001,-6.273346662055701e-05,-4.522167728282511e-06,-0.0001731464290060103,0.0,0.0,0.0,0.0,0.003209225833415985,-0.0019864675123244524,-0.0010457417229190469,0.9991309642791748,0.0,0.0,0.0,0.25965699553489685,-3.0332038402557373,5.297762870788574,-46.99843215942383,0
1238.9610000000011,-1.4213856957212556e-05,-2.5476140308455797e-06,-0.00015123162302188575,0.0,0.0,0.0,0.0,0.0018833178328350186,0.003624100936576724,0.001114668557420373,1.0020265579223633,0.0,0.0,0.0,0.2590779960155487,-3.034527063369751,5.292356491088867,-46.89363098144531,0
1248.8730000000014,-4.26056249125395e-05,-2.1355514036258683e-05,-0.00016756248078309,0.0,0.0,0.0,0.0,0.000485888245748356,-0.0016947333933785558,0.0020268838852643967,1.002793788909912,0.0,0.0,0.0,0.2579692006111145,-3.038280963897705,5.276875019073486,-46.69293212890625,0
1258.7880000000005,-2.7564501579036005e-05,1.719083229545504e-05,-0.00015005902969278395,0.0,0.0,0.0,0.0,0.0002537114778533578,-0.003898094641044736,-0.00040709221502766013,1.0024316310882568,0.0,0.0,0.0,0.26898711919784546,-3.0383265018463135,5.279165744781494,-48.68720626831055,0
1268.6949999999997,-5.9196550864726305e-05,7.849122994230129e-06,-0.00015827904280740768,0.0,0.0,0.0,0.0,0.0024547837674617767,-0.0010023911017924547,-0.0005542048602364957,1.0015478134155273,0.0,0.0,0.0,0.26849403977394104,-3.0384066104888916,5.276279926300049,-48.597957611083984,0
1278.6090000000004,-2.5154777176794596e-05,2.5634020857978612e-05,-0.00013551059237215668,0.0,0.0,0.0,0.0,0.0005641203024424613,-0.0015448948834091425,-0.0013802789617329836,1.002488136291504,0.0,0.0,0.0,0.2773120105266571,-3.0387449264526367,5.278956413269043,-50.194026947021484,0
1288.5210000000006,-4.8866822908166796e-05,3.1689105526311323e-06,-0.0001501282094977796,0.0,0.0,0.0,0.0,0.0011379439383745193,-0.00019818627333734185,0.0009710926096886396,1.0006595849990845,0.0,0.0,0.0,0.27712342143058777,-3.0375723838806152,5.275334358215332,-50.159889221191406,0
1298.4310000000005,-3.714805279741995e-05,1.8904329408542253e-05,-0.00013045192463323474,0.0,0.0,0.0,0.0,0.0014565597521141171,0.003927277401089668,0.0015281322412192822,0.9988964200019836,0.0,0.0,0.0,0.27732905745506287,-3.0327365398406982,5.271108150482178,-50.19710922241211,0
1308.339,-6.070862946216948e-05,8.038152373046614e-06,-0.00014090584591031075,0.0,0.0,0.0,0.0,0.0018078688299283385,0.0019359138095751405,0.000561770866625011,1.0006635189056396,0.0,0.0,0.0,0.27574583888053894,-3.0318727493286133,5.257917881011963,-49.910545349121094,0
1318.2520000000004,-8.088591130217537e-05,3.577442839741707e-05,-0.00013040559133514762,0.0,0.0,0.0,0.0,0.00017686659703031182,0.0009995584841817617,0.00040268662269227207,1.0014674663543701,0.0,0.0,0.0,0.2757335603237152,-3.031466007232666,5.251960754394531,-49.9083251953125,0
1328.1679999999997,-5.8605612139217556e-05,2.843884431058541e-05,-0.00018638314213603735,0.0,0.0,0.0,0.0,-0.000827891519293189,0.0008881778921931982,-0.003839127952232957,1.0024240016937256,0.0,0.0,0.0,0.2749091386795044,-3.0293986797332764,5.238740921020508,-49.75910186767578,0
1338.076000000001,-9.969452366931364e-05,6.352312630042434e-05,-0.00019060011254623532,0.0,0.0,0.0,0.0,-0.0006044185138307512,0.001724696601741016,0.0005425680428743362,1.000109314918518,0.0,0.0,0.0,0.27465713024139404,-3.0223751068115234,5.224784851074219,-49.71348190307617,0
1347.9860000000008,-0.00013183614646550268,3.773613570956513e-05,-0.00020855605544056743,0.0,0.0,0.0,0.0,-0.0021895812824368477,-0.00029939974774606526,0.0026194460224360228,0.9992302060127258,0.0,0.0,0.0,0.26655855774879456,-3.0172688961029053,5.221617221832275,-48.24762725830078,0
1357.9030000000002,-0.00013213253987487406,6.069098162697628e-05,-0.0001949676516233012,0.0,0.0,0.0,0.0,-0.0006729369633831084,-7.375249697361141e-05,0.0001894619344966486,0.9984157681465149,0.0,0.0,0.0,0.2665445804595947,-3.013536214828491,5.221718788146973,-48.24509811401367,0
1367.8180000000011,-0.00016039209731388837,4.58293579868041e-05,-0.00021790002938359976,0.0,0.0,0.0,0.0,-0.0005791941657662392,0.0016354256076738238,0.002070200629532337,1.000940203666687,0.0,0.0,0.0,0.26649540662765503,-3.0156731605529785,5.21194314956665,-48.23619842529297,0
1377.7260000000006,-8.33338126540184e-05,8.073199569480494e-05,-0.00016067796968854964,0.0,0.0,0.0,0.0,0.0010588207514956594,-0.0010545862605795264,0.0024480221327394247,1.0001015663146973,0.0,0.0,0.0,0.2669347822666168,-3.0139272212982178,5.217622756958008,-48.31572723388672,0
1387.6329999999998,-0.00011873492621816695,5.3068088163854554e-05,-0.00017136053065769374,0.0,0.0,0.0,0.0,-0.0028879083693027496,-0.004409280139952898,-0.0011978130787611008,1.0001020431518555,0.0,0.0,0.0,0.2667877972126007,-3.0108394622802734,5.209611892700195,-48.28912353515625,0
1397.5480000000007,-4.118831566302106e-05,2.2354503016686067e-05,-0.000142061326187104,0.0,0.0,0.0,0.0,-0.0004491745785344392,-9.45540377870202e-05,0.004685254767537117,1.0003693103790283,0.0,0.0,0.0,0.2659056782722473,-3.0094947814941406,5.217471599578857,-48.12945556640625,0
1407.4570000000003,-6.960591417737305e-05,-1.4229226508177817e-07,-0.0001556554198032245,0.0,0.0,0.0,0.0,-0.0010713812662288547,-0.005734666716307402,0.0008408910362049937,0.9981790781021118,0.0,0.0,0.0,0.26648178696632385,-3.0051028728485107,5.207023620605469,-48.23373794555664,0
1417.3690000000006,-3.437730993027799e-05,-8.870905730873346e-06,-0.00013927782129030675,0.0,0.0,0.0,0.0,-0.0015287692658603191,-0.0049925004132092,0.0022895585279911757,0.9989969730377197,0.0,0.0,0.0,0.2673390507698059,-3.0012900829315186,5.213946342468262,-48.38890075683594,0
1427.2830000000013,-0.00010413271229481325,-7.478203770006076e-05,-0.00012441075523383915,0.0,0.0,0.0,0.0,0.0014036246575415134,-0.003111019032076001,-0.0008659670711494982,1.0000460147857666,0.0,0.0,0.0,0.26760944724082947,-2.9899673461914062,5.222128391265869,-48.43783950805664,0
1437.196,-8.410935697611421e-05,-5.3681629651691765e-05,-9.899459837470204e-05,0.0,0.0,0.0,0.0,-0.0006138996686786413,-0.002194466535001993,-0.00022495230950880796,0.9987746477127075,0.0,0.0,0.0,0.26747676730155945,-2.988461971282959,5.218897819519043,-48.41382598876953,0
1447.1080000000002,-7.562116661574692e-05,-3.10641698888503e-05,-0.0001407284289598465,0.0,0.0,0.0,0.0,0.0031240563839673996,-0.001986981835216284,0.002690318040549755,1.0023928880691528,0.0,0.0,0.0,0.2684400677680969,-2.983537435531616,5.2184367179870605,-48.58818817138672,0
1457.0190000000002,-4.2458384996280074e-05,-2.1557607396971434e-06,-0.00011575880489544943,0.0,0.0,0.0,0.0,-0.0004117680073250085,0.0024552932009100914,1.0363598448748235e-05,0.9992470741271973,0.0,0.0,0.0,0.2774747610092163,-2.986304759979248,5.226349830627441,-50.22348403930664,0
1466.9300000000003,-6.308245792752132e-05,8.024562703212723e-07,-0.00012894732935819775,0.0,0.0,0.0,0.0,0.0008946844609454274,0.0007515873294323683,-0.0027597136795520782,1.0016536712646484,0.0,0.0,0.0,0.27771425247192383,-2.9822089672088623,5.22061014175415,-50.2668342590332,0
1476.8410000000003,-4.534245454124175e-05,4.0744613215792924e-05,-0.00010368852963438258,0.0,0.0,0.0,0.0,0.0002803527459036559,-0.0027831331826746464,0.0025442277546972036,1.0018658638000488,0.0,0.0,0.0,0.28468582034111023,-2.9768118858337402,5.218766212463379,-51.52870178222656,0
1486.7610000000004,-6.897959974594414e-05,3.251489397371188e-05,-0.00012268191494513303,0.0,0.0,0.0,0.0,-0.00033982968307100236,0.002231453312560916,0.0007092142477631569,1.0007877349853516,0.0,0.0,0.0,0.27955934405326843,-2.9783425331115723,5.221512317657471,-50.600799560546875,0
1496.666000000001,-3.6755976907443255e-05,1.907591285998933e-05,-0.00011045602877857164,0.0,0.0,0.0,0.0,-0.0006257849745452404,-0.004675050266087055,0.004890408832579851,1.001359224319458,0.0,0.0,0.0,0.27920132875442505,-2.9747257232666016,5.215877532958984,-50.53599548339844,0
1506.5879999999997,-5.5150376283563673e-05,2.8600345103768632e-05,-0.00012903657625429332,0.0,0.0,0.0,0.0,-0.0026977788656949997,0.0013139967340976,-0.0008425877895206213,1.0010789632797241,0.0,0.0,0.0,0.2801077365875244,-2.971353769302368,5.223877906799316,-50.70005798339844,0
1516.4850000000006,-0.00010296218533767387,6.466807099059224e-05,-0.00012832906213589013,0.0,0.0,0.0,0.0,0.0010725039755925536,-0.0011591518996283412,-0.0020787641406059265,0.9990188479423523,0.0,0.0,0.0,0.2803509533405304,-2.960683822631836,5.216902732849121,-50.744083404541016,0
1526.402,-0.00017867724818643183,3.0361334211193025e-06,-0.00011675641871988773,0.0,0.0,0.0,0.0,-0.004561512731015682,-0.003930273931473494,0.0022223512642085552,1.002587080001831,0.0,0.0,0.0,0.2792552411556244,-2.963439702987671,5.211557865142822,-50.545753479003906,0
1536.3100000000013,-0.000211481616133824,3.1270927138393745e-05,-0.00010705372551456094,0.0,0.0,0.0,0.0,0.00023390589922200888,-0.00031973799923434854,0.0018008999759331346,1.001561164855957,0.0,0.0,0.0,0.2806592583656311,-2.949561595916748,5.21811056137085,-50.79988479614258,0
1546.2330000000002,-0.00020135275553911924,3.999125328846276e-05,-0.00015862687723711133,0.0,0.0,0.0,0.0,0.0034329150803387165,0.004165996331721544,0.002153794514015317,1.000244140625,0.0,0.0,0.0,0.28106361627578735,-2.952094316482544,5.20952844619751,-50.87307357788086,0
1556.139000000001,-0.00012118713493691757,1.446235637558857e-05,-0.00011575139069464058,0.0,0.0,0.0,0.0,0.0010551100131124258,0.0002571073709987104,0.0024416015949100256,1.00033438205719,0.0,0.0,0.0,0.2918832302093506,-2.965787172317505,5.215972423553467,-52.831443786621094,0
1566.054,-0.0001299287105211988,2.6607827749103308e-05,-0.00014771988207940012,0.0,0.0,0.0,0.0,-0.0017680777236819267,-0.0007609525928273797,-0.0016718866536393762,1.0008747577667236,0.0,0.0,0.0,0.28256404399871826,-2.9662606716156006,5.216554164886475,-51.1446533203125,0
1575.955,-7.035258749965578e-05,1.579931085871067e-05,-0.00011447591532487422,0.0,0.0,0.0,0.0,0.00012193901784485206,-0.006299549713730812,-0.0040445527993142605,0.998996913433075,0.0,0.0,0.0,0.28229811787605286,-2.95794415473938,5.21240234375,-51.096519470214844,0
1585.8730000000014,-0.00011140838614664972,-2.6306481231586076e-05,-0.00013300610589794815,0.0,0.0,0.0,0.0,0.0019639218226075172,0.004368558991700411,0.0011049627792090178,0.9990537762641907,0.0,0.0,0.0,0.28177326917648315,-2.952967882156372,5.21266508102417,-51.001522064208984,0
1595.7790000000005,-6.219991337275133e-05,-2.3679662263020873e-05,-0.00010050652781501412,0.0,0.0,0.0,0.0,0.003939072135835886,-0.004484065342694521,0.004561619367450476,0.9985134601593018,0.0,0.0,0.0,0.28148704767227173,-2.9520914554595947,5.198555946350098,-50.9497184753418,0
1605.7000000000007,-7.288323831744492e-05,4.435374648892321e-06,-0.00012533510744106025,0.0,0.0,0.0,0.0,-0.002466263249516487,-0.008077406324446201,-0.0005925302393734455,1.0009524822235107,0.0,0.0,0.0,0.28229227662086487,-2.954793691635132,5.201305389404297,-51.095462799072266,0
1615.6050000000014,-4.957401688443497e-05,6.384587322827429e-06,-0.00010861438931897283,0.0,0.0,0.0,0.0,0.0001852332497946918,0.004514304455369711,-0.003135551465675235,1.0001935958862305,0.0,0.0,0.0,0.28103214502334595,-2.9457199573516846,5.212568283081055,-50.867374420166016,0
1625.5259999999998,-3.5843568184645846e-05,2.2074102162150666e-05,-0.00017505914729554206,0.0,0.0,0.0,0.0,0.00036851383629254997,0.0010438472963869572,0.002725300146266818,1.0005918741226196,0.0,0.0,0.0,0.2811475694179535,-2.941629409790039,5.206940650939941,-50.888267517089844,0
1635.425000000001,-3.287640356575139e-05,2.8642754841712303e-05,-0.00017107582243625075,0.0,0.0,0.0,0.0,-0.0030853054486215115,-0.003724159672856331,0.004826863296329975,0.9991533160209656,0.0,0.0,0.0,0.27968665957450867,-2.9411091804504395,5.195568561553955,-50.623844146728516,0
1645.3490000000002,-0.00012796165538020432,-3.577919414965436e-05,-0.00014577161346096545,0.0,0.0,0.0,0.0,0.0015159293543547392,0.0008039959939196706,-0.001290196436457336,0.9994701147079468,0.0,0.0,0.0,0.2805277407169342,-2.933838367462158,5.199295997619629,-50.77608108520508,0
1655.2480000000014,-6.482703611254692e-05,-8.473164780298248e-05,-0.00013476575259119272,0.0,0.0,0.0,0.0,0.003631236031651497,0.0009886262705549598,-0.001207974972203374,1.000963807106018,0.0,0.0,0.0,0.2795203626155853,-2.9353768825531006,5.186647415161133,-50.593746185302734,0
1665.174000000001,-0.00011379052011761814,-6.918743747519329e-05,-0.00012067561328876764,0.0,0.0,0.0,0.0,-0.002236285014078021,-0.008515404537320137,0.001830408233217895,0.9993168115615845,0.0,0.0,0.0,0.2795230746269226,-2.9421048164367676,5.182987689971924,-50.59423828125,0
1675.071,-0.00014502083649858832,-4.096382326679304e-05,-0.00011504512804094702,0.0,0.0,0.0,0.0,0.0013814803678542376,0.00306833628565073,-0.00017512509657535702,1.0019848346710205,0.0,0.0,0.0,0.28006696701049805,-2.9340403079986572,5.191163539886475,-50.69267654418945,0
1684.9920000000002,-0.00018160362378694117,-6.842417496955022e-05,-0.0001257794356206432,0.0,0.0,0.0,0.0,0.0009827741887420416,0.0008362781372852623,0.002190403873100877,1.0030773878097534,0.0,0.0,0.0,0.27981290221214294,-2.9308812618255615,5.1777544021606445,-50.64669418334961,0
1694.8940000000002,-0.00021314932382665575,-4.1896317270584404e-05,-0.0001175112120108679,0.0,0.0,0.0,0.0,0.0004439186304807663,-0.0016045741504058242,-0.0018897517584264278,1.0021287202835083,0.0,0.0,0.0,0.2792748510837555,-2.9299190044403076,5.173259735107422,-50.54930114746094,0
1704.8160000000007,-0.00019204024283681065,2.2435651771957055e-06,-0.00016668028547428548,0.0,0.0,0.0,0.0,-0.0005370000726543367,5.6874614529078826e-05,-0.001004968537017703,0.9977895617485046,0.0,0.0,0.0,0.27866438031196594,-2.927525758743286,5.1656599044799805,-50.438804626464844,0
1714.7180000000008,-6.570528057636693e-05,-3.0278364647529088e-05,-8.242015610449016e-05,0.0,0.0,0.0,0.0,0.0018963241018354893,0.0008669780218042433,0.002654947806149721,0.9983482360839844,0.0,0.0,0.0,0.28764697909355164,-2.9392457008361816,5.196877479553223,-52.06467819213867,0
1724.6400000000012,-0.00011384027311578393,-8.13629012554884e-05,-8.239095041062683e-05,0.0,0.0,0.0,0.0,0.0010662043932825327,0.00023740390315651894,0.0033253412693738937,0.9988628029823303,0.0,0.0,0.0,0.2868214547634125,-2.9428231716156006,5.183817386627197,-51.915252685546875,0
1734.5429999999997,-7.432454003719613e-05,-7.4191098974552e-05,-4.969246219843626e-05,0.0,0.0,0.0,0.0,0.0017941039986908436,0.007531852927058935,-0.0012628218391910195,1.000778079032898,0.0,0.0,0.0,0.2869313955307007,-2.937002658843994,5.175597190856934,-51.93515396118164,0
1744.4620000000014,-5.402839451562613e-05,-4.988292130292393e-05,-0.00010413142445031554,0.0,0.0,0.0,0.0,0.00011114560038549826,0.0021662793587893248,-9.660113573772833e-05,1.0001673698425293,0.0,0.0,0.0,0.28663432598114014,-2.9393553733825684,5.16325044631958,-51.88138198852539,0
1754.3690000000006,-0.000114599330117926,3.878256393363699e-06,-0.00010911481513176113,0.0,0.0,0.0,0.0,-0.0007095111068338156,-0.001374353771097958,-0.00013431886327452958,0.999488890171051,0.0,0.0,0.0,0.2860555052757263,-2.939525842666626,5.155318260192871,-51.776611328125,0
1764.2929999999997,-0.00012920648441649973,-2.7688894988386892e-05,-0.0001558169024065137,0.0,0.0,0.0,0.0,0.0028016124852001667,0.0025033371057361364,0.0022733155637979507,0.9996209740638733,0.0,0.0,0.0,0.28756657242774963,-2.93583345413208,5.154288291931152,-52.05012130737305,0
1774.1980000000003,-9.71113913692534e-05,2.9759074095636606e-05,-0.00011360823555151,0.0,0.0,0.0,0.0,0.002407009480521083,-0.001301122596487403,-0.004441485274583101,0.9981723427772522,0.0,0.0,0.0,0.28755462169647217,-2.939382791519165,5.148804187774658,-52.04795455932617,0
1784.116,-0.00011149531201226637,2.6455400075064972e-05,-0.00015113844710867852,0.0,0.0,0.0,0.0,-0.0007405471988022327,-0.004409211687743664,0.0008322927169501781,0.9998965263366699,0.0,0.0,0.0,0.27972155809402466,-2.943542003631592,5.159552574157715,-50.63016128540039,0
1794.014000000001,-9.166935342364013e-05,3.7803532904945314e-05,-0.00014442225801758468,0.0,0.0,0.0,0.0,-0.003085059579461813,0.00030737274209968746,0.004585593938827515,1.0007083415985107,0.0,0.0,0.0,0.28795963525772095,-2.944693088531494,5.164268970489502,-52.12126541137695,0
1803.9410000000007,-0.00017945896252058446,-3.7620247894665226e-05,-0.00013085766113363206,0.0,0.0,0.0,0.0,0.0010587667347863317,-0.0027523115277290344,0.0018043483141809702,0.9992441534996033,0.0,0.0,0.0,0.2887296676635742,-2.9365711212158203,5.155292510986328,-52.26063919067383,0
1813.835000000001,-0.00010001721966546029,-9.027264241012745e-06,-8.31267170724459e-05,0.0,0.0,0.0,0.0,7.827607987564988e-06,0.0016882901545614004,0.000967878382652998,0.9991118907928467,0.0,0.0,0.0,0.29731446504592896,-2.9338934421539307,5.168919563293457,-53.814510345458984,0
1823.7579999999998,-0.00010145171108888462,2.2258156604948454e-05,-0.0001230429479619488,0.0,0.0,0.0,0.0,0.0013809072552248836,-0.002715346636250615,0.002835168968886137,1.0005927085876465,0.0,0.0,0.0,0.29032838344573975,-2.9299490451812744,5.1640849113464355,-52.55001449584961,0
1833.6599999999999,-6.294567720033228e-05,5.3872179705649614e-05,-9.879315621219575e-05,0.0,0.0,0.0,0.0,-0.00017447388381697237,-0.0045938496477901936,0.001000897609628737,1.0000543594360352,0.0,0.0,0.0,0.30123332142829895,-2.9332363605499268,5.172370910644531,-54.52383041381836,0
1843.5840000000007,-8.54009558679536e-05,5.820997466798872e-05,-0.00012713941396214068,0.0,0.0,0.0,0.0,-0.000625826243776828,-0.005152488127350807,-0.002024289220571518,0.999125599861145,0.0,0.0,0.0,0.30064162611961365,-2.932034492492676,5.178596496582031,-54.41672897338867,0
1853.4840000000004,-4.530345177045092e-05,7.813489355612546e-05,-0.00010701367864385247,0.0,0.0,0.0,0.0,0.0004067842091899365,4.502003866946325e-05,0.0011913402704522014,0.9999454617500305,0.0,0.0,0.0,0.3074711263179779,-2.9300129413604736,5.186485767364502,-55.65288162231445,0
1863.3999999999996,-0.00010186371218878776,1.0129742804565467e-05,-0.00013273826334625483,0.0,0.0,0.0,0.0,0.0005285352817736566,0.0016565098194405437,0.003218388883396983,0.9989103674888611,0.0,0.0,0.0,0.3073613941669464,-2.9239449501037598,5.177986145019531,-55.633026123046875,0
1873.3050000000003,-2.9254813853185624e-05,3.514707350404933e-05,-9.299950761487707e-05,0.0,0.0,0.0,0.0,-0.0003062479954678565,-0.006007837597280741,-0.0010380890453234315,0.9980518817901611,0.0,0.0,0.0,0.30768585205078125,-2.9224438667297363,5.166299819946289,-55.69175338745117,0
1883.2300000000014,-6.13861921010539e-05,2.2822277969680727e-05,-0.00011949086183449253,0.0,0.0,0.0,0.0,0.0006800821865908802,0.0055413744412362576,0.0016598317306488752,0.9989672899246216,0.0,0.0,0.0,0.30714038014411926,-2.922234296798706,5.165266036987305,-55.593017578125,0
1893.130000000001,-9.13630283321254e-05,5.467102528200485e-05,-0.0001222518039867282,0.0,0.0,0.0,0.0,-0.001342618721537292,0.0017325528897345066,0.0012949116062372923,1.0000041723251343,0.0,0.0,0.0,0.3073284924030304,-2.917951822280884,5.151522159576416,-55.627071380615234,0
1903.0429999999997,-0.00011455819185357541,3.604747325880453e-05,-0.00015834633086342365,0.0,0.0,0.0,0.0,0.0013866114895790815,6.448266503866762e-05,0.0011051783803850412,1.0008068084716797,0.0,0.0,0.0,0.29692211747169495,-2.9256012439727783,5.144779682159424,-53.743492126464844,0
1912.9570000000003,-5.5040371080394834e-05,1.0122672392753884e-05,-0.00013552427117247134,0.0,0.0,0.0,0.0,0.0003823824517894536,0.0033203186467289925,0.0013115854235365987,1.000083565711975,0.0,0.0,0.0,0.2960273325443268,-2.9290170669555664,5.138809680938721,-53.58153533935547,0
1922.8720000000012,-7.35228750272654e-05,2.4121454771375284e-05,-0.00016484131629113108,0.0,0.0,0.0,0.0,0.001165994442999363,-0.001100199413485825,0.0023780532646924257,0.9995955228805542,0.0,0.0,0.0,0.29641154408454895,-2.9286773204803467,5.129937171936035,-53.65107727050781,0
1932.7839999999997,-1.4743901374458801e-05,-3.350530460011214e-05,-0.0001745552581269294,0.0,0.0,0.0,0.0,-0.00042673616553656757,-0.0009576155571267009,0.003224477404728532,1.0017991065979004,0.0,0.0,0.0,0.2963210344314575,-2.930187225341797,5.123522758483887,-53.63469696044922,0
1942.6949999999997,-2.671800393727608e-05,1.2816737580578774e-05,-0.00019289579358883202,0.0,0.0,0.0,0.0,-0.0007674008375033736,-0.0007122670067474246,0.0048164925538003445,1.0011873245239258,0.0,0.0,0.0,0.2897351086139679,-2.923520088195801,5.119040012359619,-52.44263458251953,0
1952.603000000001,6.501941970782354e-05,-3.358463436597958e-05,-0.00018367166921962053,0.0,0.0,0.0,0.0,-0.0009579133475199342,0.004028589464724064,-0.0028131911531090736,1.000681757926941,0.0,0.0,0.0,0.29674333333969116,-2.935333728790283,5.12433385848999,-53.71113586425781,0
1962.5169999999998,-3.9446538721676916e-05,-0.00010486019891686738,-0.00014050632307771593,0.0,0.0,0.0,0.0,0.0011875525815412402,0.003245260799303651,0.0007640343974344432,0.9996607303619385,0.0,0.0,0.0,0.2959054410457611,-2.931579828262329,5.108142375946045,-53.559471130371094,0
1972.424000000001,-8.310169505421072e-06,-3.81778554583434e-05,-9.968211816158146e-05,0.0,0.0,0.0,0.0,-0.001697838306427002,-0.007668121252208948,0.0004886317765340209,1.0011296272277832,0.0,0.0,0.0,0.30473628640174866,-2.930020570755005,5.112954616546631,-55.157875061035156,0
1982.3379999999997,-8.131448703352362e-05,-8.848334255162627e-05,-8.530485501978546e-05,0.0,0.0,0.0,0.0,0.0014906629221513867,0.004112363792955875,0.0022636624053120613,1.0010783672332764,0.0,0.0,0.0,0.30566826462745667,-2.9299631118774414,5.114981651306152,-55.32656478881836,0
1992.246000000001,-8.117622201098129e-05,-2.436537397443317e-05,-5.5037678976077586e-05,0.0,0.0,0.0,0.0,0.00011541030835360289,-0.0008899975218810141,-0.0005507755558937788,0.9999939799308777,0.0,0.0,0.0,0.31139591336250305,-2.926614284515381,5.105515480041504,-56.363277435302734,0
2002.1620000000003,-0.00011939507385250181,-5.179586878512055e-06,-5.074050204711966e-05,0.0,0.0,0.0,0.0,-0.0008441091049462557,-0.0047671180218458176,0.0034914365969598293,1.0013689994812012,0.0,0.0,0.0,0.31077975034713745,-2.9216740131378174,5.099974155426025,-56.25175094604492,0
2012.0740000000005,-0.00015171350969467312,3.251104863011278e-05,-3.969350291299634e-05,0.0,0.0,0.0,0.0,-0.0014485279098153114,0.0014812424778938293,-0.0004600172978825867,1.0008660554885864,0.0,0.0,0.0,0.3119608759880066,-2.922384262084961,5.104390621185303,-56.465538024902344,0
2021.982,-0.0001415097212884575,6.193699664436281e-05,-8.383860404137522e-05,0.0,0.0,0.0,0.0,-0.0009161438792943954,-0.0008490339387208223,-3.441400622250512e-05,1.0007187128067017,0.0,0.0,0.0,0.3114542067050934,-2.9188265800476074,5.091166019439697,-56.37382888793945,0
2031.893,-0.00014379245112650096,6.681662489427254e-05,-7.782869943184778e-05,0.0,0.0,0.0,0.0,-0.00013623891572933644,-0.0005217695143073797,-0.0016278211260214448,1.001502275466919,0.0,0.0,0.0,0.31171736121177673,-2.9157450199127197,5.093313694000244,-56.42145919799805,0
2041.8029999999999,-0.000187036202987656,6.330921314656734e-05,-8.538323891116306e-05,0.0,0.0,0.0,0.0,-0.0006831105565652251,0.001507587032392621,0.0021221963688731194,0.9989184737205505,0.0,0.0,0.0,0.3115156888961792,-2.9100444316864014,5.0924553871154785,-56.38496017456055,0
2051.715,-0.0001751880772644654,0.00011091558553744107,-5.174418038222939e-05,0.0,0.0,0.0,0.0,0.00012305096606723964,-0.0015857781982049346,0.0014691319083794951,0.9985899329185486,0.0,0.0,0.0,0.3118705749511719,-2.9053940773010254,5.084569931030273,-56.44919967651367,0
2061.626,-0.00018754633492790163,0.00011575516691664234,-0.00010268765618093312,0.0,0.0,0.0,0.0,0.0012243418022990227,0.0017243922920897603,-0.00010305694013368338,0.9992979764938354,0.0,0.0,0.0,0.3019171357154846,-2.908010244369507,5.088757038116455,-54.64760208129883,0
2071.5390000000007,-0.00015393932699225843,9.76993324002251e-05,-9.66125080594793e-05,0.0,0.0,0.0,0.0,-0.002233141101896763,0.002350206719711423,0.0026607951149344444,1.0019934177398682,0.0,0.0,0.0,0.3017730116844177,-2.904118061065674,5.0782928466796875,-54.621517181396484,0
2081.4500000000007,-0.00017411579028703272,9.925388440024108e-05,-0.00014150537026580423,0.0,0.0,0.0,0.0,-0.0030740934889763594,0.0008038821397349238,0.002809698460623622,0.9996515512466431,0.0,0.0,0.0,0.301896870136261,-2.9054291248321533,5.071415901184082,-54.6439323425293,0
2091.366,-0.00014252096298150718,7.950658618938178e-05,-0.000139154217322357,0.0,0.0,0.0,0.0,0.0017480788519605994,0.002358765574172139,-0.0008724283543415368,0.9986652731895447,0.0,0.0,0.0,0.30142250657081604,-2.9002442359924316,5.059149265289307,-54.558074951171875,0
2101.2740000000013,-0.00017239275621250272,8.255771535914391e-05,-0.00017950846813619137,0.0,0.0,0.0,0.0,0.0013571865856647491,-0.0006135863368399441,-0.001242071739397943,1.0007697343826294,0.0,0.0,0.0,0.3005489706993103,-2.9005496501922607,5.047128677368164,-54.39996337890625,0
