timestamp,stateEstimate.x,stateEstimate.y,stateEstimate.z,controller.cmd_thrust,controller.cmd_roll,controller.cmd_pitch,controller.cmd_yaw,controller.r_roll,controller.r_pitch,controller.r_yaw,controller.accelz,controller.actuatorThrust,controller.roll,controller.pitch,controller.yaw,controller.rollRate,controller.pitchRate,controller.yawRate,controller.ctr_yaw
0.0,-0.012603632174432278,0.0012301370734348893,-0.0006380396662279963,0.0,0.0,0.0,0.0,0.0030785659328103065,0.0024144244380295277,0.000923479616176337,0.9998504519462585,0.0,0.0,0.0,11.646520614624023,-3.710899829864502,6.161482334136963,-2108.04345703125,0
9.902000000000044,-0.012557035312056541,0.00126569252461195,-0.0005908212624490261,0.0,0.0,0.0,0.0,-0.001470807590521872,0.0013727970654144883,0.0012119560269638896,1.0006332397460938,0.0,0.0,0.0,11.646222114562988,-3.7094547748565674,6.168466091156006,-2107.9892578125,0
19.820999999999913,-0.012637656182050705,0.0011744461953639984,-0.0006002873415127397,0.0,0.0,0.0,0.0,0.0008673472912050784,0.0017494551138952374,0.002083812840282917,0.9984497427940369,0.0,0.0,0.0,11.641878128051758,-3.717501401901245,6.155121326446533,-2107.203125,0
29.719999999999345,-0.012578463181853294,0.0012054367689415812,-0.0005423297989182174,0.0,0.0,0.0,0.0,8.682910265633836e-05,-0.00045315042370930314,-0.004313803277909756,0.998691737651825,0.0,0.0,0.0,11.640850067138672,-3.708498477935791,6.163890838623047,-2107.01708984375,0
39.63500000000022,-0.012637866660952568,0.0011329005938023329,-0.0005678935558535159,0.0,0.0,0.0,0.0,-0.001238674740307033,0.0005678446614183486,-3.6861591070191935e-05,0.9996398091316223,0.0,0.0,0.0,11.64096450805664,-3.712371587753296,6.153303146362305,-2107.03759765625,0
49.54099999999926,-0.012673888355493546,0.0012156693264842033,-0.0005274933646433055,0.0,0.0,0.0,0.0,-0.0008776154718361795,0.0011301918420940638,-5.206315472605638e-05,0.9991210699081421,0.0,0.0,0.0,11.642169952392578,-3.6947104930877686,6.153738021850586,-2107.255615234375,0
59.461999999999534,-0.012690871022641659,0.001170516130514443,-0.0005878204246982932,0.0,0.0,0.0,0.0,-0.002180891577154398,0.0006805220036767423,-0.0004801015602424741,0.9978135824203491,0.0,0.0,0.0,11.640969276428223,-3.6909444332122803,6.152622222900391,-2107.03857421875,0
69.36499999999978,-0.012594691477715969,0.0012007664190605283,-0.0005159746506251395,0.0,0.0,0.0,0.0,0.001445304718799889,0.0017976128729060292,0.0012305374257266521,1.0005698204040527,0.0,0.0,0.0,11.638652801513672,-3.685044527053833,6.162158012390137,-2106.619384765625,0
79.28199999999924,-0.012657993473112583,0.0011317558819428086,-0.0005228943191468716,0.0,0.0,0.0,0.0,0.0011973713990300894,0.006700547412037849,-0.002247307449579239,0.9999926686286926,0.0,0.0,0.0,11.638774871826172,-3.699921131134033,6.149669647216797,-2106.641357421875,0
89.19000000000051,-0.012651724740862846,0.0011759056942537427,-0.00047998945228755474,0.0,0.0,0.0,0.0,-1.9878581952070817e-05,-0.0017096817027777433,0.003339954651892185,0.9989765882492065,0.0,0.0,0.0,11.636602401733398,-3.697725296020508,6.137141704559326,-2106.248046875,0
99.10599999999977,-0.012669785879552364,0.001141513348557055,-0.000528395758010447,0.0,0.0,0.0,0.0,0.0005116768297739327,0.0015314397169277072,0.003992943558841944,0.9988036155700684,0.0,0.0,0.0,11.637687683105469,-3.700300931930542,6.147432804107666,-2106.444580078125,0
109.01000000000022,-0.012679492123425007,0.0012022837763652205,-0.000487026380142197,0.0,0.0,0.0,0.0,0.002246905118227005,0.00034892407711595297,0.00228729285299778,0.9971587657928467,0.0,0.0,0.0,11.637442588806152,-3.6888179779052734,6.144404888153076,-2106.400146484375,0
118.93199999999888,-0.01270047016441822,0.0011694499989971519,-0.0005382033996284008,0.0,0.0,0.0,0.0,-0.0009247898124158382,-0.00032063070102594793,-0.0018943191971629858,0.9967193603515625,0.0,0.0,0.0,11.637187004089355,-3.6924192905426025,6.140730381011963,-2106.353759765625,0
128.83799999999974,-0.012693449854850769,0.0012419670820236206,-0.00048551696818321943,0.0,0.0,0.0,0.0,0.0004258827248122543,0.00022019569587428123,-0.0017670516390353441,0.9967957735061646,0.0,0.0,0.0,11.633086204528809,-3.6753897666931152,6.1416802406311035,-2105.61181640625,0
138.7530000000006,-0.012670522555708885,0.0012455908581614494,-0.0005811641458421946,0.0,0.0,0.0,0.0,-0.00028822454623878,0.004578458610922098,-0.0006808890611864626,0.9979749321937561,0.0,0.0,0.0,11.63273811340332,-3.671076774597168,6.148270130157471,-2105.548583984375,0
148.67200000000048,-0.012582936324179173,0.0012435552198439837,-0.0005350246210582554,0.0,0.0,0.0,0.0,-0.000903751642908901,-0.0015221291687339544,0.0008413646719418466,1.0022339820861816,0.0,0.0,0.0,11.631242752075195,-3.6732122898101807,6.150694847106934,-2105.278076171875,0
158.5679999999993,-0.012591241858899593,0.0012187828542664647,-0.000607520982157439,0.0,0.0,0.0,0.0,0.0015939094591885805,0.0005850642919540405,-0.0017488754820078611,1.002016305923462,0.0,0.0,0.0,11.629753112792969,-3.6726272106170654,6.153077602386475,-2105.008544921875,0
168.4969999999994,-0.012609675526618958,0.001219056430272758,-0.0006084452616050839,0.0,0.0,0.0,0.0,0.0027602524496614933,0.005768190138041973,-0.0018214284209534526,0.999521017074585,0.0,0.0,0.0,11.629585266113281,-3.670559883117676,6.1536946296691895,-2104.97802734375,0
178.39500000000044,-0.012661373242735863,0.0011574348900467157,-0.000646364176645875,0.0,0.0,0.0,0.0,-0.005724783055484295,-0.00031214047339744866,0.00031232627225108445,1.0006407499313354,0.0,0.0,0.0,11.628588676452637,-3.6826541423797607,6.129580974578857,-2104.797607421875,0
188.3130000000001,-0.012584502808749676,0.001221644226461649,-0.0005702389171347022,0.0,0.0,0.0,0.0,-0.0003502186737023294,-0.0028240422252565622,0.0010220706462860107,1.000775694847107,0.0,0.0,0.0,11.626688957214355,-3.664714813232422,6.141173839569092,-2104.453857421875,0
198.22400000000016,-0.012668030336499214,0.0011518020182847977,-0.0005672050756402314,0.0,0.0,0.0,0.0,0.002450027735903859,-0.001415922655723989,-4.6944776840973645e-05,1.000985026359558,0.0,0.0,0.0,11.625020980834961,-3.668766498565674,6.1373419761657715,-2104.15185546875,0
208.137999999999,-0.012657341547310352,0.0011573070660233498,-0.0005401735543273389,0.0,0.0,0.0,0.0,-0.0007743533351458609,0.003706481773406267,-0.002226264914497733,0.9998574256896973,0.0,0.0,0.0,11.622943878173828,-3.6696200370788574,6.145558834075928,-2103.77587890625,0
218.04799999999886,-0.012709179893136024,0.0011231829412281513,-0.0005550262285396457,0.0,0.0,0.0,0.0,0.001687083044089377,0.003868913510814309,0.0018113243859261274,0.9992417693138123,0.0,0.0,0.0,11.626636505126953,-3.666602373123169,6.130514144897461,-2104.4443359375,0
227.95800000000054,-0.012624377384781837,0.0011678424198180437,-0.00047117710346356034,0.0,0.0,0.0,0.0,-1.9573248209781013e-05,0.0016084788367152214,-0.0027649595867842436,0.9986932277679443,0.0,0.0,0.0,11.623750686645508,-3.6610398292541504,6.137009620666504,-2103.921875,0
237.8729999999996,-0.01267706323415041,0.0011194637045264244,-0.0004858508473262191,0.0,0.0,0.0,0.0,0.0022430927492678165,0.008023026399314404,-0.0018778688972815871,0.998151421546936,0.0,0.0,0.0,11.63003158569336,-3.6658918857574463,6.123274803161621,-2105.058837890625,0
247.78499999999985,-0.012649900279939175,0.0012235521571710706,-0.00039849174208939075,0.0,0.0,0.0,0.0,-5.853014226886444e-05,-0.00020181076251901686,-0.0015030493959784508,0.9996377825737,0.0,0.0,0.0,11.627328872680664,-3.6534931659698486,6.1125407218933105,-2104.569580078125,0
257.6949999999997,-0.012651863507926464,0.0011899872915819287,-0.0004691107023973018,0.0,0.0,0.0,0.0,0.0007794091943651438,-0.0013945788377895951,0.003820580430328846,1.0010641813278198,0.0,0.0,0.0,11.628568649291992,-3.656994581222534,6.118029594421387,-2104.7939453125,0
267.60699999999997,-0.012658624909818172,0.001231417991220951,-0.00043351983185857534,0.0,0.0,0.0,0.0,-0.0016858165618032217,-0.001689556404016912,-0.00309966504573822,1.0011265277862549,0.0,0.0,0.0,11.627090454101562,-3.644260883331299,6.122025966644287,-2104.5263671875,0
277.52100000000064,-0.012627806514501572,0.001211483613587916,-0.0005443328409455717,0.0,0.0,0.0,0.0,-0.001448076218366623,-0.0002355898031964898,-0.0006669763242825866,0.9996565580368042,0.0,0.0,0.0,11.630093574523926,-3.6438894271850586,6.126682281494141,-2105.070068359375,0
287.4279999999999,-0.012661313638091087,0.0012979692546650767,-0.000502997892908752,0.0,0.0,0.0,0.0,0.0012839074479416013,-0.0006823120056651533,-0.0009201740613207221,0.9977262616157532,0.0,0.0,0.0,11.627561569213867,-3.6237590312957764,6.127404689788818,-2104.611572265625,0
297.34200000000055,-0.012608973309397697,0.0013453325955197215,-0.0006160932243801653,0.0,0.0,0.0,0.0,-0.0022905133664608,-0.0036091217771172523,-0.0013837034348398447,0.9982846975326538,0.0,0.0,0.0,11.631487846374512,-3.6217517852783203,6.1347503662109375,-2105.322265625,0
307.2510000000002,-0.012588964775204659,0.0013784122420474887,-0.0005825759144499898,0.0,0.0,0.0,0.0,-0.0003190724237356335,-0.0038417172618210316,0.0019864316564053297,0.9984233379364014,0.0,0.0,0.0,11.620573043823242,-3.6153404712677,6.135589599609375,-2103.3466796875,0
317.1710000000003,-0.012571780942380428,0.0013427785597741604,-0.000694804999511689,0.0,0.0,0.0,0.0,-0.0010611395118758082,0.0021827530581504107,-0.0029286695644259453,1.0011285543441772,0.0,0.0,0.0,11.609955787658691,-3.6076395511627197,6.1346025466918945,-2101.425048828125,0
327.08699999999953,-0.01259929034858942,0.0013672938803210855,-0.0006969327223487198,0.0,0.0,0.0,0.0,-0.00024844458675943315,-0.001520928693935275,0.0006314492202363908,1.0018088817596436,0.0,0.0,0.0,11.607527732849121,-3.603315830230713,6.130028247833252,-2100.985595703125,0
336.98699999999917,-0.012635947205126286,0.0013148855650797486,-0.0007524073589593172,0.0,0.0,0.0,0.0,0.0021680875215679407,0.0005493757780641317,-0.0021527346689254045,1.0002937316894531,0.0,0.0,0.0,11.61091423034668,-3.6019420623779297,6.122461318969727,-2101.5986328125,0
346.89899999999943,-0.012530751526355743,0.0013259677216410637,-0.0006962411571294069,0.0,0.0,0.0,0.0,-0.00034085303195752203,0.0012058644788339734,-1.0476906027179211e-05,0.9976738095283508,0.0,0.0,0.0,11.61083984375,-3.607478141784668,6.142176151275635,-2101.5849609375,0
356.8140000000003,-0.012594301253557205,0.001251337700523436,-0.0007242836290970445,0.0,0.0,0.0,0.0,0.00030267040710896254,0.002281660446897149,-0.00452968617901206,1.0000654458999634,0.0,0.0,0.0,11.61294174194336,-3.6178767681121826,6.118241310119629,-2101.965576171875,0
366.72199999999975,-0.012571013532578945,0.0013237808598205447,-0.0006742849946022034,0.0,0.0,0.0,0.0,-0.005333418026566505,-0.0011358329793438315,0.000658127071801573,1.0013577938079834,0.0,0.0,0.0,11.6110200881958,-3.604069471359253,6.120744228363037,-2101.61767578125,0
376.6309999999994,-0.01266563218086958,0.0012152419658377767,-0.0006815640954300761,0.0,0.0,0.0,0.0,0.0009675594046711922,-0.0019505936652421951,0.002252859529107809,1.0006712675094604,0.0,0.0,0.0,11.611572265625,-3.614860773086548,6.106834411621094,-2101.717529296875,0
386.54799999999886,-0.012627491727471352,0.0012159481411799788,-0.0006509070517495275,0.0,0.0,0.0,0.0,0.002121671801432967,-0.008587971329689026,0.0011204435722902417,0.9991875886917114,0.0,0.0,0.0,11.612120628356934,-3.6198315620422363,6.119787693023682,-2101.81689453125,0
396.46399999999994,-0.012685245834290981,0.0011597368866205215,-0.0006782463169656694,0.0,0.0,0.0,0.0,0.0013939766213297844,0.001325093093328178,-0.00039444497087970376,1.0018855333328247,0.0,0.0,0.0,11.616254806518555,-3.6296722888946533,6.132265567779541,-2102.565185546875,0
406.3690000000006,-0.01261177659034729,0.0012154593132436275,-0.0006011286750435829,0.0,0.0,0.0,0.0,-0.001332622254267335,-0.0026454427279531956,0.0023127750027924776,1.000216007232666,0.0,0.0,0.0,11.618807792663574,-3.623868465423584,6.150136470794678,-2103.02734375,0
416.27800000000025,-0.012665004469454288,0.0012138707097619772,-0.000599002290982753,0.0,0.0,0.0,0.0,-0.00024125733762048185,0.0005457719671539962,0.004883307032287121,1.00174880027771,0.0,0.0,0.0,11.608076095581055,-3.6199471950531006,6.147141933441162,-2101.084716796875,0
426.2009999999991,-0.012577330693602562,0.0012508169747889042,-0.0005486922455020249,0.0,0.0,0.0,0.0,0.004366476088762283,0.000468231737613678,-9.489398507867008e-05,1.0010666847229004,0.0,0.0,0.0,11.607616424560547,-3.617504596710205,6.1644206047058105,-2101.001708984375,0
436.10699999999997,-0.012655841186642647,0.0011767529649659991,-0.0005481739062815905,0.0,0.0,0.0,0.0,-0.0014851337764412165,0.0024904615711420774,-0.001101431087590754,1.0000869035720825,0.0,0.0,0.0,11.60981273651123,-3.641993999481201,6.152853488922119,-2101.399169921875,0
446.0159999999996,-0.012669555842876434,0.0012243433156982064,-0.0004995872150175273,0.0,0.0,0.0,0.0,3.0447978133452125e-05,-0.003516359021887183,0.0004034029261674732,1.0018060207366943,0.0,0.0,0.0,11.611242294311523,-3.6270153522491455,6.152838230133057,-2101.657958984375,0
455.9310000000005,-0.012704124674201012,0.0011772061698138714,-0.0005469358875416219,0.0,0.0,0.0,0.0,-0.0024466742761433125,-0.0016149320872500539,-0.003332091961055994,1.0006482601165771,0.0,0.0,0.0,11.612584114074707,-3.632079839706421,6.1515045166015625,-2101.90087890625,0
465.84499999999935,-0.012695539742708206,0.0012334854109212756,-0.00048099522246047854,0.0,0.0,0.0,0.0,0.0020460973028093576,0.0025445790961384773,-0.0013665965525433421,1.000924825668335,0.0,0.0,0.0,11.611161231994629,-3.6235268115997314,6.160727024078369,-2101.643310546875,0
475.7549999999992,-0.012784902937710285,0.0011680573225021362,-0.000458538910606876,0.0,0.0,0.0,0.0,0.0011639887234196067,-0.002336301375180483,0.002405561273917556,1.0009613037109375,0.0,0.0,0.0,11.618019104003906,-3.635631561279297,6.1432600021362305,-2102.884521484375,0
485.66599999999926,-0.01271080132573843,0.0012175398878753185,-0.00035503096296451986,0.0,0.0,0.0,0.0,-0.0017938311211764812,0.0014846953563392162,-0.0007910207496024668,1.0003541707992554,0.0,0.0,0.0,11.61538028717041,-3.627739191055298,6.167245388031006,-2102.406982421875,0
495.5799999999999,-0.012701074592769146,0.0012064712354913354,-0.00042566595948301256,0.0,0.0,0.0,0.0,0.0047834403812885284,0.0013668250758200884,0.0026043502148240805,0.998898446559906,0.0,0.0,0.0,11.616560935974121,-3.6328060626983643,6.161049842834473,-2102.62060546875,0
505.4940000000006,-0.012757653370499611,0.001273149042390287,-0.0003838993434328586,0.0,0.0,0.0,0.0,-0.0023132003843784332,-0.003907474689185619,0.0014233223628252745,0.9968401193618774,0.0,0.0,0.0,11.616969108581543,-3.621814489364624,6.1576457023620605,-2102.694580078125,0
515.4009999999998,-0.012752620503306389,0.0012514232657849789,-0.00046396328252740204,0.0,0.0,0.0,0.0,-0.0006012061494402587,0.0013255503727123141,0.0004604611895047128,0.9997633695602417,0.0,0.0,0.0,11.616233825683594,-3.616227149963379,6.178836822509766,-2102.5615234375,0
525.3199999999997,-0.012758936733007431,0.0012949423398822546,-0.0004191931220702827,0.0,0.0,0.0,0.0,0.0016462599160149693,0.0006325029535219073,-0.001038994174450636,1.0006099939346313,0.0,0.0,0.0,11.614907264709473,-3.6092798709869385,6.170856475830078,-2102.321044921875,0
535.2260000000006,-0.0127794798463583,0.0012502161553129554,-0.0004878780455328524,0.0,0.0,0.0,0.0,-0.003435748163610697,0.0015620598569512367,0.0029331259429454803,1.0010813474655151,0.0,0.0,0.0,11.61916446685791,-3.6227238178253174,6.165196418762207,-2103.091796875,0
545.1309999999994,-0.012617184780538082,0.0012335989158600569,-0.0003947722725570202,0.0,0.0,0.0,0.0,0.0036694370210170746,0.001600175048224628,0.0026753528509289026,0.9996887445449829,0.0,0.0,0.0,11.619264602661133,-3.6284289360046387,6.185349941253662,-2103.10986328125,0
555.0509999999995,-0.012576401233673096,0.0012630891287699342,-0.0004920613719150424,0.0,0.0,0.0,0.0,0.0028703371062874794,0.0028559579513967037,-0.0027520563453435898,1.0015593767166138,0.0,0.0,0.0,11.625188827514648,-3.6302459239959717,6.181356430053711,-2104.182373046875,0
564.9589999999989,-0.01262553408741951,0.0013134933542460203,-0.0004704415041487664,0.0,0.0,0.0,0.0,-0.002242123708128929,0.0003453879908192903,0.0017008444992825389,0.9996854662895203,0.0,0.0,0.0,11.627270698547363,-3.628710985183716,6.172510147094727,-2104.55908203125,0
574.8680000000004,-0.0126088447868824,0.0013111423468217254,-0.000560071668587625,0.0,0.0,0.0,0.0,-0.0007170630269683897,-0.0013504766393452883,0.0008624432957731187,0.9985556602478027,0.0,0.0,0.0,11.63094711303711,-3.6295924186706543,6.179174900054932,-2105.224365234375,0
584.7749999999996,-0.012541132979094982,0.0013044652296230197,-0.0005189857329241931,0.0,0.0,0.0,0.0,0.0011310931295156479,0.0020661777816712856,0.0030560533050447702,1.001300573348999,0.0,0.0,0.0,11.62978458404541,-3.6329054832458496,6.188726425170898,-2105.01416015625,0
594.6990000000005,-0.012557676993310452,0.0012848436599597335,-0.0005746568785980344,0.0,0.0,0.0,0.0,-0.0035962252877652645,-0.0036596055142581463,0.0006912013050168753,0.9991807341575623,0.0,0.0,0.0,11.633524894714355,-3.642035722732544,6.185779094696045,-2105.691162109375,0
604.5969999999998,-0.012568085454404354,0.0012797752860933542,-0.0005725004593841732,0.0,0.0,0.0,0.0,-0.0013450487749651074,0.00782348494976759,0.00012502922618295997,0.9983238577842712,0.0,0.0,0.0,11.633537292480469,-3.6462647914886475,6.18558931350708,-2105.693359375,0
614.5200000000004,-0.01262703537940979,0.001217784476466477,-0.0006002262234687805,0.0,0.0,0.0,0.0,-0.0006737736403010786,0.00030327009153552353,-0.0008204078185372055,0.9972054362297058,0.0,0.0,0.0,11.635298728942871,-3.651585817337036,6.162827491760254,-2106.01220703125,0
624.4169999999995,-0.012611445970833302,0.0012293506879359484,-0.0005771066644228995,0.0,0.0,0.0,0.0,-0.001462640124373138,-1.7949254242921597e-06,0.0007372075924649835,0.9976023435592651,0.0,0.0,0.0,11.635517120361328,-3.6486172676086426,6.153229236602783,-2106.051513671875,0
634.3439999999991,-0.012700761668384075,0.0011643966427072883,-0.0005736374296247959,0.0,0.0,0.0,0.0,6.17992045590654e-05,-0.0001487167173763737,0.0005094971274957061,0.999669075012207,0.0,0.0,0.0,11.638636589050293,-3.655608892440796,6.143983840942383,-2106.6162109375,0
644.2479999999996,-0.012705894187092781,0.0012782247504219413,-0.0005084792501293123,0.0,0.0,0.0,0.0,0.0014152462827041745,-0.005364150274544954,1.753560354700312e-05,1.0012826919555664,0.0,0.0,0.0,11.638191223144531,-3.6373424530029297,6.150934219360352,-2106.53564453125,0
654.1620000000003,-0.012773428112268448,0.0012247980339452624,-0.0005287862149998546,0.0,0.0,0.0,0.0,0.0015828171744942665,0.005099072121083736,-0.001825688872486353,1.0012632608413696,0.0,0.0,0.0,11.640789031982422,-3.6435739994049072,6.154400825500488,-2107.005859375,0
664.0630000000001,-0.012737455777823925,0.0013018996687605977,-0.0004574817430693656,0.0,0.0,0.0,0.0,-0.0010303647723048925,-0.002185758203268051,-1.1421213457651902e-05,0.9987934827804565,0.0,0.0,0.0,11.64014720916748,-3.632228136062622,6.163012504577637,-2106.8896484375,0
673.9740000000002,-0.012756573036313057,0.0012526713544502854,-0.000532893929630518,0.0,0.0,0.0,0.0,-0.0016511565772816539,-0.00617962097749114,0.0006091147661209106,1.0021892786026,0.0,0.0,0.0,11.64004898071289,-3.637716054916382,6.164631366729736,-2106.8720703125,0
683.887999999999,-0.012637418694794178,0.0012533380649983883,-0.0004583075933624059,0.0,0.0,0.0,0.0,0.00041322066681459546,0.003537524491548538,-0.001810684916563332,1.0013471841812134,0.0,0.0,0.0,11.636221885681152,-3.631164312362671,6.2017741203308105,-2106.17919921875,0
693.8050000000003,-0.01266179047524929,0.0012121086474508047,-0.0005109136109240353,0.0,0.0,0.0,0.0,-0.000628930632956326,0.0010868810350075364,0.002694071503356099,0.9993744492530823,0.0,0.0,0.0,11.635467529296875,-3.642868995666504,6.196301460266113,-2106.042724609375,0
703.7080000000005,-0.012613403610885143,0.0012818074319511652,-0.0004330370866227895,0.0,0.0,0.0,0.0,0.0015040632570162416,0.004166960250586271,0.000657502852845937,0.9998015761375427,0.0,0.0,0.0,11.631221771240234,-3.632620096206665,6.201930999755859,-2105.274169921875,0
713.6209999999992,-0.01261221431195736,0.00123239413369447,-0.000521121546626091,0.0,0.0,0.0,0.0,0.002084834035485983,-0.0022659015376120806,7.13885310688056e-05,0.999191403388977,0.0,0.0,0.0,11.633049964904785,-3.642327070236206,6.197640895843506,-2105.605224609375,0
723.5319999999992,-0.012605907395482063,0.001266162027604878,-0.00048454274656251073,0.0,0.0,0.0,0.0,-0.00028524306253530085,-0.0010016791056841612,-4.99426168971695e-05,1.0015119314193726,0.0,0.0,0.0,11.632083892822266,-3.646251678466797,6.192311763763428,-2105.43017578125,0
733.4509999999991,-0.012587245553731918,0.0012761704856529832,-0.0005684231873601675,0.0,0.0,0.0,0.0,-0.0004972119349986315,0.0017951664049178362,-0.0019787130877375603,1.0001035928726196,0.0,0.0,0.0,11.636645317077637,-3.6433937549591064,6.194674015045166,-2106.255859375,0
743.3580000000002,-0.012620808556675911,0.0013575888006016612,-0.0005333879962563515,0.0,0.0,0.0,0.0,0.0002059961116174236,0.004383175168186426,-0.000943425518926233,0.9987106323242188,0.0,0.0,0.0,11.633020401000977,-3.6245062351226807,6.192119121551514,-2105.599853515625,0
753.2800000000007,-0.012624583207070827,0.0013353187823668122,-0.0006123859202489257,0.0,0.0,0.0,0.0,0.00036967519554309547,-0.0012680792715400457,0.00713305315002799,1.0003809928894043,0.0,0.0,0.0,11.633309364318848,-3.633073091506958,6.185956001281738,-2105.652099609375,0
763.1759999999995,-0.012628475204110146,0.0013633021153509617,-0.0005929806502535939,0.0,0.0,0.0,0.0,0.0007997151697054505,-0.0019842071924358606,0.0023678189609199762,1.000523328781128,0.0,0.0,0.0,11.634834289550781,-3.6234772205352783,6.190972328186035,-2105.92822265625,0
773.0929999999989,-0.012704026885330677,0.0013016083976253867,-0.0006079821614548564,0.0,0.0,0.0,0.0,0.001638842630200088,0.005443049129098654,-0.00306801893748343,0.9999702572822571,0.0,0.0,0.0,11.638689994812012,-3.632446527481079,6.188052177429199,-2106.6259765625,0
783.0010000000002,-0.012657638639211655,0.0013156856875866652,-0.0005692148115485907,0.0,0.0,0.0,0.0,0.0010818720329552889,0.0018271055305376649,0.0033073255326598883,0.9993180632591248,0.0,0.0,0.0,11.63577938079834,-3.6317665576934814,6.185617923736572,-2106.09912109375,0
792.9110000000001,-0.012711885385215282,0.0012479530414566398,-0.0006115533178672194,0.0,0.0,0.0,0.0,0.002004836453124881,0.0011949400650337338,-0.0023335579317063093,1.0022917985916138,0.0,0.0,0.0,11.63730239868164,-3.644009590148926,6.175197124481201,-2106.374755859375,0
802.8289999999997,-0.012606756761670113,0.001184882945381105,-0.0005568003398366272,0.0,0.0,0.0,0.0,-0.0027748318389058113,-0.0001394092832924798,-0.0012109822127968073,0.9989631175994873,0.0,0.0,0.0,11.643779754638672,-3.6689696311950684,6.189384460449219,-2107.54736328125,0
812.741,-0.012654903344810009,0.0011912439949810505,-0.0005550727364607155,0.0,0.0,0.0,0.0,-0.0012401309795677662,-0.0014843301614746451,0.0005209085065871477,0.999332845211029,0.0,0.0,0.0,11.632296562194824,-3.6690356731414795,6.173824787139893,-2105.46875,0
822.6669999999995,-0.01265829335898161,0.0012098046718165278,-0.0005436850478872657,0.0,0.0,0.0,0.0,0.0006305456045083702,0.0015434141969308257,-0.0010135084157809615,0.9989808201789856,0.0,0.0,0.0,11.646194458007812,-3.6652088165283203,6.185420513153076,-2107.984375,0
832.5579999999991,-0.012708489783108234,0.0012154602445662022,-0.0005420575034804642,0.0,0.0,0.0,0.0,0.0020926701836287975,0.001619830378331244,0.001118836342357099,1.0016587972640991,0.0,0.0,0.0,11.635723114013672,-3.6619396209716797,6.178169250488281,-2106.089111328125,0
842.4719999999998,-0.012590974569320679,0.0012021722504869103,-0.0006047141505405307,0.0,0.0,0.0,0.0,0.0008464592974632978,-0.0013720443239435554,0.002835725899785757,0.999998927116394,0.0,0.0,0.0,11.653327941894531,-3.671023368835449,6.189690589904785,-2109.275390625,0
852.3829999999998,-0.012638808228075504,0.00120851572137326,-0.000608501024544239,0.0,0.0,0.0,0.0,-0.00045964447781443596,0.00638094637542963,-0.0007005987572483718,0.9984933733940125,0.0,0.0,0.0,11.64240837097168,-3.6647543907165527,6.186070442199707,-2107.299072265625,0
862.2960000000003,-0.012634990736842155,0.0011536398669704795,-0.0006066526984795928,0.0,0.0,0.0,0.0,-0.0017233776161447167,9.619769843993708e-05,-0.001071531674824655,0.9969813823699951,0.0,0.0,0.0,11.655340194702148,-3.67527174949646,6.174793243408203,-2109.6396484375,0
872.2060000000001,-0.012689575552940369,0.0011565906461328268,-0.000612339936196804,0.0,0.0,0.0,0.0,-0.003447732189670205,-0.002057779347524047,0.0011326412204653025,1.0006271600723267,0.0,0.0,0.0,11.64330005645752,-3.6664021015167236,6.171964168548584,-2107.46044921875,0
882.1229999999996,-0.012672088108956814,0.0011798469349741936,-0.0005905248108319938,0.0,0.0,0.0,0.0,0.0005240751779638231,-0.003517516888678074,0.001939578796736896,0.9987804889678955,0.0,0.0,0.0,11.654932975769043,-3.658818483352661,6.1742730140686035,-2109.56591796875,0
892.0290000000005,-0.012724244967103004,0.00118354894220829,-0.000595936318859458,0.0,0.0,0.0,0.0,-0.0015712465392425656,0.002861263696104288,0.0010699498234316707,0.9997215270996094,0.0,0.0,0.0,11.642666816711426,-3.6565654277801514,6.179651737213135,-2107.345703125,0
901.9499999999989,-0.012708858586847782,0.001182126929052174,-0.0005567243206314743,0.0,0.0,0.0,0.0,0.0015152161940932274,0.003292644862085581,0.002624864922836423,0.999114453792572,0.0,0.0,0.0,11.656795501708984,-3.652867317199707,6.188344955444336,-2109.903076171875,0
911.860999999999,-0.012761315330862999,0.0011880897218361497,-0.0005600749864242971,0.0,0.0,0.0,0.0,-0.0007967703277245164,0.0015602121129631996,-0.002452705055475235,0.9987453818321228,0.0,0.0,0.0,11.646377563476562,-3.653411626815796,6.170738220214844,-2108.017333984375,0
921.771999999999,-0.01270836591720581,0.0011902285041287541,-0.0005164528265595436,0.0,0.0,0.0,0.0,0.0005196121637709439,0.0013244785368442535,-0.0010790765518322587,0.9979164004325867,0.0,0.0,0.0,11.660027503967285,-3.6577467918395996,6.183983325958252,-2110.48828125,0
931.6829999999991,-0.012758726254105568,0.0011962986318394542,-0.0005176581325940788,0.0,0.0,0.0,0.0,0.0020696453284472227,0.0009990637190639973,0.00040888439980335534,0.9983621835708618,0.0,0.0,0.0,11.647311210632324,-3.6474902629852295,6.1771368980407715,-2108.186279296875,0
941.5959999999995,-0.012615610845386982,0.0012572200503200293,-0.0005773972370661795,0.0,0.0,0.0,0.0,-0.002353003481402993,-0.003008410567417741,0.0019004003843292594,0.9990350008010864,0.0,0.0,0.0,11.660138130187988,-3.6484081745147705,6.20196533203125,-2110.50830078125,0
951.4979999999996,-0.012662377208471298,0.001263380516320467,-0.0005866396822966635,0.0,0.0,0.0,0.0,0.001247443724423647,-0.0016297559486702085,0.0033903520088642836,1.000247597694397,0.0,0.0,0.0,11.648926734924316,-3.6417930126190186,6.206643581390381,-2108.478759765625,0
961.414999999999,-0.012608187273144722,0.0013022745260968804,-0.0006308465381152928,0.0,0.0,0.0,0.0,-0.0037988522090017796,-0.00012385954323690385,0.0003013138484675437,0.9999668598175049,0.0,0.0,0.0,11.66111946105957,-3.640131950378418,6.214127063751221,-2110.68603515625,0
971.3230000000003,-0.012656896375119686,0.001307765836827457,-0.00064361363183707,0.0,0.0,0.0,0.0,-0.00010558745998423547,-0.00039107195334509015,-0.0020137098617851734,0.9982339143753052,0.0,0.0,0.0,11.650121688842773,-3.6342897415161133,6.201985836029053,-2108.695068359375,0
981.2399999999998,-0.012603276409208775,0.0013093678280711174,-0.0006788825849071145,0.0,0.0,0.0,0.0,-0.00027150657842867076,-0.0020610333885997534,-0.001214433810673654,0.9976626634597778,0.0,0.0,0.0,11.665040969848633,-3.641421318054199,6.20922327041626,-2111.395751953125,0
991.1450000000004,-0.012649869546294212,0.0013139869552105665,-0.0006951367249712348,0.0,0.0,0.0,0.0,0.000493860337883234,-0.0016756750410422683,-0.0008712037233635783,0.9993799328804016,0.0,0.0,0.0,11.65355110168457,-3.6259939670562744,6.208042621612549,-2109.31591796875,0
1001.0650000000005,-0.012665696442127228,0.0012991694966331124,-0.0006702395039610565,0.0,0.0,0.0,0.0,0.0010611108737066388,-0.0004595572827383876,0.002078221645206213,1.0008275508880615,0.0,0.0,0.0,11.6582670211792,-3.6284737586975098,6.2083659172058105,-2110.169677734375,0
1010.9689999999991,-0.012715714983642101,0.0013032839633524418,-0.0006852386286482215,0.0,0.0,0.0,0.0,-0.0025646057911217213,0.006945338565856218,0.001044867793098092,1.001145839691162,0.0,0.0,0.0,11.649182319641113,-3.6183526515960693,6.208773612976074,-2108.525146484375,0
1020.887999999999,-0.012677122838795185,0.0012524673948064446,-0.0006252683233469725,0.0,0.0,0.0,0.0,0.0046233744360506535,-0.0025926893576979637,0.0011112296488136053,0.999790370464325,0.0,0.0,0.0,11.649154663085938,-3.631147623062134,6.178957462310791,-2108.52001953125,0
1030.7999999999993,-0.012727390974760056,0.0012575648725032806,-0.0006328411982394755,0.0,0.0,0.0,0.0,-0.0009028461063280702,0.002004999201744795,-0.005709863733500242,1.0005545616149902,0.0,0.0,0.0,11.639300346374512,-3.631273031234741,6.168141841888428,-2106.736328125,0
1040.705,-0.012609370052814484,0.0013048751279711723,-0.0006387077155523002,0.0,0.0,0.0,0.0,0.000867941475007683,-0.005823803599923849,-0.0006475108675658703,1.0029457807540894,0.0,0.0,0.0,11.648755073547363,-3.634843349456787,6.190764427185059,-2108.44775390625,0
1050.6139999999996,-0.012655633501708508,0.0013129449216648936,-0.0006450151558965445,0.0,0.0,0.0,0.0,-1.9311610230943188e-05,0.0042098029516637325,0.0014734569704160094,1.0027973651885986,0.0,0.0,0.0,11.63656234741211,-3.629239082336426,6.194492340087891,-2106.24072265625,0
1060.5349999999999,-0.012693476863205433,0.0012662392109632492,-0.0005961516289971769,0.0,0.0,0.0,0.0,0.0018894035601988435,0.0022327625192701817,-0.002664075465872884,1.0005592107772827,0.0,0.0,0.0,11.649698257446289,-3.6422080993652344,6.171419143676758,-2108.618408203125,0
1070.4400000000005,-0.01264182012528181,0.0013397103175520897,-0.0005264563951641321,0.0,0.0,0.0,0.0,-0.0007248879410326481,0.0019887499511241913,0.0029939503874629736,0.9996061325073242,0.0,0.0,0.0,11.646232604980469,-3.6364734172821045,6.16921854019165,-2107.9912109375,0
1080.3619999999992,-0.012696413323283195,0.0012683166423812509,-0.0005518491379916668,0.0,0.0,0.0,0.0,0.0018102150643244386,0.00406772131100297,-0.0007755080005154014,1.000355839729309,0.0,0.0,0.0,11.647137641906738,-3.647772789001465,6.1553215980529785,-2108.155029296875,0
1090.2610000000004,-0.012743868865072727,0.0012750113382935524,-0.0005456717335619032,0.0,0.0,0.0,0.0,-0.0023453310132026672,9.892121306620538e-05,0.00014717337035108358,0.9987382888793945,0.0,0.0,0.0,11.635641098022461,-3.648653507232666,6.15641975402832,-2106.073974609375,0
1100.173999999999,-0.012644815258681774,0.0011520356638357043,-0.00047559267841279507,0.0,0.0,0.0,0.0,-0.0011671730317175388,0.0012360122054815292,0.0004669723566621542,0.9992789626121521,0.0,0.0,0.0,11.644298553466797,-3.669750928878784,6.167550086975098,-2107.64111328125,0
1110.0849999999991,-0.012562823481857777,0.001173557247966528,-0.0004050503484904766,0.0,0.0,0.0,0.0,-0.0006315088830888271,0.0019669579342007637,-7.366894715232775e-05,0.9983316659927368,0.0,0.0,0.0,11.641936302185059,-3.670503616333008,6.176424980163574,-2107.213623046875,0
1120.0010000000002,-0.012562794610857964,0.001153992605395615,-0.00045842252438887954,0.0,0.0,0.0,0.0,0.0007285792380571365,0.0017080740071833134,-0.002189302584156394,0.9995352625846863,0.0,0.0,0.0,11.645373344421387,-3.679079532623291,6.179065227508545,-2107.835693359375,0
1129.9099999999999,-0.012538671493530273,0.0011964193545281887,-0.0004081021179445088,0.0,0.0,0.0,0.0,0.0022865980863571167,-0.002251134254038334,0.0009065766353160143,0.99960857629776,0.0,0.0,0.0,11.646581649780273,-3.6711766719818115,6.18118953704834,-2108.05419921875,0
1139.8199999999997,-0.012565940618515015,0.0011612419039011002,-0.000438989867689088,0.0,0.0,0.0,0.0,-0.0006291123572736979,-0.003964139614254236,0.0006225074175745249,0.998297393321991,0.0,0.0,0.0,11.64256763458252,-3.686440944671631,6.1734185218811035,-2107.327880859375,0
1149.7340000000004,-0.01259594690054655,0.001249780529178679,-0.00039069633930921555,0.0,0.0,0.0,0.0,-0.00035083535476587713,0.005475411657243967,0.0027622368652373552,0.9992673993110657,0.0,0.0,0.0,11.64203929901123,-3.666214942932129,6.182433605194092,-2107.232177734375,0
1159.6419999999998,-0.012641078792512417,0.0012566617224365473,-0.000380867684725672,0.0,0.0,0.0,0.0,-0.0007752508972771466,-0.0017433490138500929,0.0011483723064884543,0.9999106526374817,0.0,0.0,0.0,11.629585266113281,-3.6593785285949707,6.160605430603027,-2104.97802734375,0
1169.5560000000005,-0.012615001760423183,0.0012818245450034738,-0.00034862756729125977,0.0,0.0,0.0,0.0,0.001435496611520648,0.0054233805276453495,-0.0018241900252178311,1.0000711679458618,0.0,0.0,0.0,11.62774658203125,-3.66084623336792,6.170058727264404,-2104.645263671875,0
1179.4660000000003,-0.01266166940331459,0.0012248732382431626,-0.0003831234644167125,0.0,0.0,0.0,0.0,-0.0025853917468339205,0.0019518916960805655,-0.0011348980478942394,0.9987286925315857,0.0,0.0,0.0,11.639447212219238,-3.6778206825256348,6.156860828399658,-2106.762939453125,0
1189.3799999999992,-0.012650427408516407,0.001284361002035439,-0.0003242498205509037,0.0,0.0,0.0,0.0,0.001581082702614367,1.9169950974173844e-05,0.0004204330616630614,1.0016095638275146,0.0,0.0,0.0,11.636245727539062,-3.6670515537261963,6.147136688232422,-2106.18359375,0
1199.289999999999,-0.012668885290622711,0.0012388603063300252,-0.0003913160180673003,0.0,0.0,0.0,0.0,0.0011432544561102986,-0.0008839758229441941,0.0009362323326058686,1.0028573274612427,0.0,0.0,0.0,11.638216972351074,-3.671255111694336,6.14583683013916,-2106.540283203125,0
1209.2019999999993,-0.01264024619013071,0.001235906034708023,-0.00035311232204549015,0.0,0.0,0.0,0.0,0.0010511629516258836,0.0009080742602236569,-0.002747506834566593,1.0010367631912231,0.0,0.0,0.0,11.635416984558105,-3.6758861541748047,6.156274795532227,-2106.033447265625,0
1219.1180000000004,-0.012583180330693722,0.0012744998093694448,-0.0004696289252024144,0.0,0.0,0.0,0.0,-0.0025688663590699434,-0.0018150192918255925,0.00019511423306539655,0.9978296160697937,0.0,0.0,0.0,11.638925552368164,-3.671905994415283,6.163563251495361,-2106.66845703125,0
1229.0290000000005,-0.01256954949349165,0.0012379189720377326,-0.00046838526031933725,0.0,0.0,0.0,0.0,-0.0012349564349278808,0.003914868924766779,0.007339581847190857,0.9980717897415161,0.0,0.0,0.0,11.639799118041992,-3.6817805767059326,6.150172233581543,-2106.82666015625,0
1238.9429999999993,-0.012617562897503376,0.001179288374260068,-0.0005052443011663854,0.0,0.0,0.0,0.0,-3.0481938665616326e-05,-0.0009332347544841468,-0.0014401867520064116,0.9997653961181641,0.0,0.0,0.0,11.643749237060547,-3.6926944255828857,6.143841743469238,-2107.541748046875,0
1248.851999999999,-0.0126225296407938,0.0012270663864910603,-0.0004749291983898729,0.0,0.0,0.0,0.0,-0.001240826677531004,-0.0036643603816628456,0.0020196058321744204,1.0008832216262817,0.0,0.0,0.0,11.642485618591309,-3.6855170726776123,6.136291027069092,-2107.31298828125,0
1258.7710000000006,-0.012652523815631866,0.0011936540249735117,-0.0005223937332630157,0.0,0.0,0.0,0.0,-0.0006515426794067025,-7.235006250994047e-06,0.002915122779086232,0.9985887408256531,0.0,0.0,0.0,11.63965129852295,-3.687317371368408,6.146096706390381,-2106.800048828125,0
1268.6729999999989,-0.012639462016522884,0.0012518959119915962,-0.00047726707998663187,0.0,0.0,0.0,0.0,0.0027846721932291985,0.002253021812066436,-0.0023619108833372593,0.9994097948074341,0.0,0.0,0.0,11.643157005310059,-3.6837732791900635,6.143122673034668,-2107.4345703125,0
1278.5910000000003,-0.012631193734705448,0.0012477878481149673,-0.0005561547004617751,0.0,0.0,0.0,0.0,-0.0017331779235973954,0.002266660099849105,0.0025587454438209534,0.9985342621803284,0.0,0.0,0.0,11.645740509033203,-3.68892240524292,6.146017074584961,-2107.902099609375,0
1288.494999999999,-0.012594204396009445,0.0012420188868418336,-0.0005359156057238579,0.0,0.0,0.0,0.0,-0.0021499639842659235,0.0028333913069218397,0.0031008475925773382,1.001086711883545,0.0,0.0,0.0,11.647257804870605,-3.6878268718719482,6.15621280670166,-2108.176513671875,0
1298.411,-0.012602909468114376,0.0012242570519447327,-0.0006032038363628089,0.0,0.0,0.0,0.0,0.0001339945592917502,0.002130144042894244,-0.001030723680742085,1.0003670454025269,0.0,0.0,0.0,11.651330947875977,-3.68805193901062,6.1523284912109375,-2108.9140625,0
1308.3199999999997,-0.012530671432614326,0.0012566916411742568,-0.0005508164176717401,0.0,0.0,0.0,0.0,0.002046348061412573,0.005837979260832071,-0.0015920832520350814,0.9986613392829895,0.0,0.0,0.0,11.646002769470215,-3.6830759048461914,6.17021369934082,-2107.949462890625,0
1318.2389999999996,-0.012549731880426407,0.001236095791682601,-0.000599993159994483,0.0,0.0,0.0,0.0,-0.0020609390921890736,0.0035015703178942204,0.0011302371276542544,0.9995619654655457,0.0,0.0,0.0,11.647699356079102,-3.685865879058838,6.1595540046691895,-2108.256591796875,0
1328.146999999999,-0.012570192106068134,0.0012836804380640388,-0.0005844951374456286,0.0,0.0,0.0,0.0,-0.002437648829072714,0.001416101586073637,-0.0032041380181908607,1.0005079507827759,0.0,0.0,0.0,11.645585060119629,-3.671905994415283,6.14927864074707,-2107.8740234375,0
1338.0560000000005,-0.012640696950256824,0.0012088234070688486,-0.0006022012676112354,0.0,0.0,0.0,0.0,0.0032732828985899687,-0.0048775337636470795,8.89277089299867e-06,1.0015002489089966,0.0,0.0,0.0,11.643638610839844,-3.6816539764404297,6.144940376281738,-2107.521728515625,0
1347.9650000000001,-0.012557202950119972,0.001231763162650168,-0.000548102892935276,0.0,0.0,0.0,0.0,0.004083140753209591,0.005250358954071999,0.0014970583142712712,1.0043610334396362,0.0,0.0,0.0,11.64304256439209,-3.685811996459961,6.156298637390137,-2107.413818359375,0
1357.878999999999,-0.012611893005669117,0.0011692197294905782,-0.0005692333215847611,0.0,0.0,0.0,0.0,-0.00027186668012291193,-0.0004712056543212384,0.00445555942133069,1.0019903182983398,0.0,0.0,0.0,11.642223358154297,-3.702517509460449,6.146958827972412,-2107.265380859375,0
1367.7939999999999,-0.012558822520077229,0.0012061957968398929,-0.0005116790416650474,0.0,0.0,0.0,0.0,-0.00038789137033745646,0.0050657689571380615,-0.0017203888855874538,1.0004891157150269,0.0,0.0,0.0,11.642401695251465,-3.7002248764038086,6.152772426605225,-2107.2978515625,0
1377.714,-0.01262196060270071,0.0011497183004394174,-0.0005090733175165951,0.0,0.0,0.0,0.0,0.0021244531963020563,-0.0005326950922608376,0.002986232517287135,0.9983866214752197,0.0,0.0,0.0,11.645398139953613,-3.7061243057250977,6.1288652420043945,-2107.840087890625,0
1387.6119999999992,-0.012625456787645817,0.0012054434046149254,-0.00046286886208690703,0.0,0.0,0.0,0.0,0.0019437952432781458,-0.0017637537093833089,0.0033603289630264044,0.9992712736129761,0.0,0.0,0.0,11.644975662231445,-3.698064088821411,6.122401237487793,-2107.763671875,0
1397.5319999999992,-0.012643146328628063,0.001172392861917615,-0.0005048964521847665,0.0,0.0,0.0,0.0,0.003800041740760207,-0.002088424051180482,-0.00037532090209424496,0.9999853372573853,0.0,0.0,0.0,11.646474838256836,-3.701868772506714,6.118961334228516,-2108.03515625,0
1407.4429999999993,-0.012637760490179062,0.0012160115875303745,-0.0004617006052285433,0.0,0.0,0.0,0.0,0.0011027251603081822,0.0013719514245167375,0.001681197783909738,0.9986981153488159,0.0,0.0,0.0,11.64407730102539,-3.6976523399353027,6.126306056976318,-2107.60107421875,0
1417.3639999999996,-0.01266390923410654,0.001171377021819353,-0.0005030796164646745,0.0,0.0,0.0,0.0,0.001865783822722733,0.006380783393979073,0.002541865222156048,0.9991986155509949,0.0,0.0,0.0,11.643614768981934,-3.7045376300811768,6.124829292297363,-2107.517333984375,0
1427.2579999999998,-0.01266372762620449,0.001272557070478797,-0.00044070888543501496,0.0,0.0,0.0,0.0,-0.00021206091332715005,-0.0007238498656079173,0.0027787266299128532,1.0004620552062988,0.0,0.0,0.0,11.644979476928711,-3.6869723796844482,6.116446495056152,-2107.764404296875,0
1437.179,-0.01266553159803152,0.0012659511994570494,-0.0004948406713083386,0.0,0.0,0.0,0.0,-0.0029099325183779,-0.002105677267536521,-0.0005637204740196466,0.9998859763145447,0.0,0.0,0.0,11.648090362548828,-3.684502601623535,6.110909938812256,-2108.327392578125,0
1447.08,-0.01264301035553217,0.0013246621238067746,-0.00044325925409793854,0.0,0.0,0.0,0.0,-0.0010353446705266833,-0.0008195063564926386,0.0026416294276714325,0.9977996349334717,0.0,0.0,0.0,11.647663116455078,-3.6740903854370117,6.109086990356445,-2108.25,0
1457.0079999999998,-0.012681582942605019,0.0012607361422851682,-0.0004827576922252774,0.0,0.0,0.0,0.0,-0.0009519531740806997,0.0009079974261112511,0.0004433688591234386,1.0012760162353516,0.0,0.0,0.0,11.648524284362793,-3.683351516723633,6.113250732421875,-2108.406005859375,0
1466.9040000000005,-0.012706727720797062,0.0013151537859812379,-0.00045626386418007314,0.0,0.0,0.0,0.0,0.0011191273806616664,-0.0001171754120150581,0.0004914499586448073,1.000531554222107,0.0,0.0,0.0,11.647985458374023,-3.678751230239868,6.101802825927734,-2108.30859375,0
1476.8269999999993,-0.012691794894635677,0.001329193590208888,-0.0005276219453662634,0.0,0.0,0.0,0.0,-0.0010074111633002758,-0.0011771164136007428,0.002776145236566663,0.9996541142463684,0.0,0.0,0.0,11.65198040008545,-3.674121141433716,6.109402179718018,-2109.031494140625,0
1486.7260000000006,-0.012578167952597141,0.001347435056231916,-0.00045555774704553187,0.0,0.0,0.0,0.0,-0.0018296666676178575,-0.0026283881161361933,-0.00040373136289417744,1.000730276107788,0.0,0.0,0.0,11.649918556213379,-3.6782636642456055,6.130179405212402,-2108.658203125,0
1496.6499999999996,-0.012619747780263424,0.0012684505200013518,-0.0004993573529645801,0.0,0.0,0.0,0.0,-0.00011913035268662497,0.0023865248076617718,0.002495167776942253,0.9992004632949829,0.0,0.0,0.0,11.648330688476562,-3.6876578330993652,6.115257263183594,-2108.370849609375,0
1506.548999999999,-0.012599525973200798,0.0012741493992507458,-0.00047200568951666355,0.0,0.0,0.0,0.0,0.0018811776535585523,-0.001141062704846263,0.0019107878906652331,0.9987304210662842,0.0,0.0,0.0,11.647916793823242,-3.688478469848633,6.120567798614502,-2108.2958984375,0
1516.4699999999993,-0.012570833787322044,0.001283156918361783,-0.0005619380972348154,0.0,0.0,0.0,0.0,-0.0016288678161799908,0.0010948983253911138,-0.0027239075861871243,1.0004856586456299,0.0,0.0,0.0,11.652545928955078,-3.691901922225952,6.123539447784424,-2109.1337890625,0
1526.3739999999998,-0.012498592957854271,0.0012893924722447991,-0.000518768560141325,0.0,0.0,0.0,0.0,0.0031413498800247908,0.0020369512494653463,-0.002988615306094289,1.002163052558899,0.0,0.0,0.0,11.652721405029297,-3.6948089599609375,6.141030311584473,-2109.16552734375,0
1536.298999999999,-0.01250556018203497,0.0012654355959966779,-0.0005836275522597134,0.0,0.0,0.0,0.0,0.0005465773865580559,-0.0016613315092399716,0.000300413288641721,1.0010323524475098,0.0,0.0,0.0,11.65526294708252,-3.7047438621520996,6.137535095214844,-2109.625732421875,0
1546.196,-0.01256227120757103,0.0013132282765582204,-0.0005784924142062664,0.0,0.0,0.0,0.0,-0.000978056457825005,-0.0013557540951296687,0.0017868319991976023,1.000282883644104,0.0,0.0,0.0,11.654848098754883,-3.6945855617523193,6.127426624298096,-2109.550537109375,0
1556.119999999999,-0.012588050216436386,0.0012875322718173265,-0.0006369305192492902,0.0,0.0,0.0,0.0,0.002571787917986512,0.004352985415607691,0.00015897833509370685,1.0015002489089966,0.0,0.0,0.0,11.653643608093262,-3.6993649005889893,6.129307270050049,-2109.33251953125,0
1566.0249999999996,-0.01244291290640831,0.0012411539210006595,-0.0005853199400007725,0.0,0.0,0.0,0.0,-8.573712875659112e-06,0.0013543408131226897,0.002650577574968338,1.001246452331543,0.0,0.0,0.0,11.658495903015137,-3.7151169776916504,6.1443772315979,-2110.2109375,0
1575.9449999999997,-0.012448986992239952,0.0012126322835683823,-0.0006521003670059144,0.0,0.0,0.0,0.0,0.0021124992053955793,0.00179360865149647,0.0002562815498095006,0.9985762238502502,0.0,0.0,0.0,11.657506942749023,-3.716851234436035,6.142220497131348,-2110.031982421875,0
1585.8510000000006,-0.012523867189884186,0.0012429162161424756,-0.0006629233248531818,0.0,0.0,0.0,0.0,-0.0027580398600548506,-0.0016398553270846605,0.00041559175588190556,1.001024842262268,0.0,0.0,0.0,11.656220436096191,-3.7108724117279053,6.1400909423828125,-2109.798828125,0
1595.7710000000006,-0.012541567906737328,0.0012341898400336504,-0.0007124837720766664,0.0,0.0,0.0,0.0,-0.0005769151612184942,0.0014241448370739818,0.0010366742499172688,1.0011886358261108,0.0,0.0,0.0,11.658315658569336,-3.708327293395996,6.137579441070557,-2110.178466796875,0
1605.6669999999995,-0.012542280368506908,0.0012621164787560701,-0.0006957132718525827,0.0,0.0,0.0,0.0,0.0025039745960384607,-0.006459236145019531,0.0020105326548218727,1.0004609823226929,0.0,0.0,0.0,11.656952857971191,-3.7007036209106445,6.139882564544678,-2109.931396484375,0
1615.592999999999,-0.012618753127753735,0.001181790605187416,-0.0007093590684235096,0.0,0.0,0.0,0.0,0.000871519441716373,-0.002294383244588971,0.0030033632647246122,0.9995445013046265,0.0,0.0,0.0,11.658185005187988,-3.714918613433838,6.138830661773682,-2110.15478515625,0
1625.4899999999998,-0.012604566290974617,0.001216623466461897,-0.0006763046840205789,0.0,0.0,0.0,0.0,-0.0014548628823831677,-0.0033959713764488697,0.00318199978210032,0.9995030760765076,0.0,0.0,0.0,11.656842231750488,-3.7089645862579346,6.1460113525390625,-2109.91162109375,0
1635.4099999999999,-0.012675758451223373,0.001164099550805986,-0.0006848810007795691,0.0,0.0,0.0,0.0,0.00048080264241434634,0.002704707207158208,0.004029483534395695,0.9988949298858643,0.0,0.0,0.0,11.658387184143066,-3.7128102779388428,6.137046813964844,-2110.19140625,0
1645.3220000000001,-0.012573686428368092,0.0012027919292449951,-0.0006059210863895714,0.0,0.0,0.0,0.0,-0.002669120905920863,0.0030740415677428246,-0.0021198901813477278,1.0006473064422607,0.0,0.0,0.0,11.656160354614258,-3.7038869857788086,6.150397777557373,-2109.7880859375,0
1655.232,-0.012632038444280624,0.0011475298088043928,-0.0006233077147044241,0.0,0.0,0.0,0.0,-0.0016426469665020704,0.004703356418758631,0.0028273400384932756,0.9998201131820679,0.0,0.0,0.0,11.656831741333008,-3.710332155227661,6.129990577697754,-2109.90966796875,0
1665.137999999999,-0.0126252556219697,0.001209147390909493,-0.0005708786193281412,0.0,0.0,0.0,0.0,-0.0010024324292317033,0.00012601101479958743,-0.0004077356425113976,0.999902606010437,0.0,0.0,0.0,11.6550931930542,-3.700355052947998,6.121453285217285,-2109.594970703125,0
1675.0499999999993,-0.012733190320432186,0.001099039101973176,-0.0005496425437740982,0.0,0.0,0.0,0.0,-0.0005928429891355336,-0.0005893140332773328,-0.000676062423735857,1.0000048875808716,0.0,0.0,0.0,11.658467292785645,-3.7096195220947266,6.09722900390625,-2110.2060546875,0
1684.958999999999,-0.012651179917156696,0.0012024323223158717,-0.000435719673987478,0.0,0.0,0.0,0.0,0.0017865478293970227,0.0042927442118525505,-0.0008514836663380265,1.0010480880737305,0.0,0.0,0.0,11.646716117858887,-3.703902244567871,6.098591327667236,-2108.078857421875,0
1694.8760000000002,-0.01266368106007576,0.001179643557406962,-0.0004761168092954904,0.0,0.0,0.0,0.0,-0.0011233502300456166,0.0013754023239016533,0.002793895546346903,0.9985628128051758,0.0,0.0,0.0,11.645697593688965,-3.708249568939209,6.079808235168457,-2107.894287109375,0
1704.7890000000007,-0.012637936510145664,0.0011959875700995326,-0.00042664367356337607,0.0,0.0,0.0,0.0,-0.0006046008784323931,-0.007471967954188585,7.415581785608083e-05,1.000334620475769,0.0,0.0,0.0,11.644612312316895,-3.70478892326355,6.080023765563965,-2107.697998046875,0
1714.6970000000001,-0.012638440355658531,0.001196424593217671,-0.00046893570106476545,0.0,0.0,0.0,0.0,-0.0011785136302933097,-0.0004142486141063273,-0.00256332173012197,1.001338005065918,0.0,0.0,0.0,11.645453453063965,-3.6975433826446533,6.099112510681152,-2107.85009765625,0
1724.610999999999,-0.012645702809095383,0.0012823916040360928,-0.00040492365951649845,0.0,0.0,0.0,0.0,0.0006364960572682321,0.0003544635546859354,-0.0007582769030705094,0.9970421195030212,0.0,0.0,0.0,11.643571853637695,-3.6775386333465576,6.102248668670654,-2107.509521484375,0
1734.5169999999998,-0.012652352452278137,0.0012336899526417255,-0.00046598081826232374,0.0,0.0,0.0,0.0,0.0007232133648358285,-0.0009267588029615581,0.003955153748393059,0.9978823661804199,0.0,0.0,0.0,11.64531135559082,-3.679307222366333,6.106769561767578,-2107.824462890625,0
1744.429,-0.012626860290765762,0.001239149714820087,-0.00042746245162561536,0.0,0.0,0.0,0.0,0.0028285998851060867,-0.0018109643133357167,0.002414720831438899,0.9998044371604919,0.0,0.0,0.0,11.645355224609375,-3.673867702484131,6.106901168823242,-2107.832275390625,0
1754.3490000000002,-0.012582139112055302,0.001258978620171547,-0.0005212556570768356,0.0,0.0,0.0,0.0,0.006445665843784809,0.005646585952490568,-0.0019950733985751867,0.9979860186576843,0.0,0.0,0.0,11.649237632751465,-3.6804087162017822,6.113929748535156,-2108.53515625,0
1764.2530000000006,-0.012597224675118923,0.0012938595609739423,-0.0004979638615623116,0.0,0.0,0.0,0.0,0.0018778456142172217,-0.00045004402636550367,0.0013718728441745043,0.9982883930206299,0.0,0.0,0.0,11.645825386047363,-3.6772685050964355,6.103255748748779,-2107.91748046875,0
1774.1640000000007,-0.012607327662408352,0.0012668150011450052,-0.0005601919256150723,0.0,0.0,0.0,0.0,-0.0035955843050032854,-0.0015945789637044072,-0.0007093755411915481,1.00112783908844,0.0,0.0,0.0,11.650052070617676,-3.6865696907043457,6.097651481628418,-2108.6826171875,0
1784.074999999999,-0.012617348693311214,0.0013336039846763015,-0.0005264779319986701,0.0,0.0,0.0,0.0,0.0007582707912661135,0.002632527844980359,-0.0028356220573186874,1.0000691413879395,0.0,0.0,0.0,11.647012710571289,-3.6677303314208984,6.09616231918335,-2108.13232421875,0
1793.9869999999992,-0.012661135755479336,0.0012628512922674417,-0.0005743269575759768,0.0,0.0,0.0,0.0,-0.0009113445994444191,-0.0030521077569574118,0.00047608718159608543,0.9984608888626099,0.0,0.0,0.0,11.645025253295898,-3.676882743835449,6.087018013000488,-2107.772705078125,0
1803.9009999999998,-0.012681986205279827,0.0013324839528650045,-0.0005431651952676475,0.0,0.0,0.0,0.0,0.0012603366049006581,0.005124755669385195,-0.000927724177017808,1.0021625757217407,0.0,0.0,0.0,11.645788192749023,-3.6669180393218994,6.0852131843566895,-2107.910888671875,0
1813.8099999999995,-0.012732288800179958,0.0013390160165727139,-0.000545585120562464,0.0,0.0,0.0,0.0,-0.007090323138982058,-0.0025568020064383745,0.003310874104499817,1.000603199005127,0.0,0.0,0.0,11.633085250854492,-3.6705074310302734,6.068411350250244,-2105.611572265625,0
1823.723,-0.012770471163094044,0.0013138862559571862,-0.0005891791079193354,0.0,0.0,0.0,0.0,0.0007564399274997413,0.004569944925606251,0.0018833959475159645,1.0003069639205933,0.0,0.0,0.0,11.634081840515137,-3.6639137268066406,6.061873435974121,-2105.791748046875,0
1833.6360000000004,-0.012825354933738708,0.0013203963171690702,-0.0005926900776103139,0.0,0.0,0.0,0.0,0.0017584660090506077,0.0001881878124549985,-0.0018576874863356352,0.998286783695221,0.0,0.0,0.0,11.621999740600586,-3.654393196105957,6.053625106811523,-2103.60498046875,0
1843.545,-0.012859314680099487,0.0012616431340575218,-0.0006553573766723275,0.0,0.0,0.0,0.0,-0.0003628213016781956,0.0037208390422165394,-0.0013863573549315333,1.0003396272659302,0.0,0.0,0.0,11.62250804901123,-3.667285919189453,6.050457000732422,-2103.697021484375,0
1853.4580000000005,-0.012915890663862228,0.001264928956516087,-0.0006645835237577558,0.0,0.0,0.0,0.0,-0.002866133814677596,-0.002036476507782936,0.00200194725766778,1.000280737876892,0.0,0.0,0.0,11.610611915588379,-3.6666369438171387,6.045147895812988,-2101.543701171875,0
1863.3719999999994,-0.012950029224157333,0.0012263903627172112,-0.0007209184695966542,0.0,0.0,0.0,0.0,0.00039628197555430233,0.003437340259552002,0.0020469489973038435,0.9985518455505371,0.0,0.0,0.0,11.61291790008545,-3.6755526065826416,6.041887283325195,-2101.961181640625,0
1873.2839999999997,-0.013007042929530144,0.0012275200570002198,-0.000733081775251776,0.0,0.0,0.0,0.0,-0.0010775732807815075,0.007189325522631407,-0.00015533494297415018,0.9976484179496765,0.0,0.0,0.0,11.602097511291504,-3.6711676120758057,6.028574466705322,-2100.002685546875,0
1883.1929999999993,-0.01299301814287901,0.0012304001720622182,-0.0008313854923471808,0.0,0.0,0.0,0.0,-0.003442969173192978,0.004492119885981083,-0.0012363080168142915,0.9996287822723389,0.0,0.0,0.0,11.601617813110352,-3.6728575229644775,6.05114221572876,-2099.915771484375,0
1893.1049999999996,-0.013049866072833538,0.0012367161689326167,-0.0008553530205972493,0.0,0.0,0.0,0.0,0.0011331370333209634,-0.0002629893715493381,-0.0026681332383304834,1.0018879175186157,0.0,0.0,0.0,11.590052604675293,-3.6638293266296387,6.034117698669434,-2097.822509765625,0
1903.0239999999994,-0.013012539595365524,0.0012603738578036427,-0.0009656483307480812,0.0,0.0,0.0,0.0,-0.0013607064029201865,-0.0007500583305954933,-0.002133839065209031,1.0000113248825073,0.0,0.0,0.0,11.597442626953125,-3.65547513961792,6.0705413818359375,-2099.16015625,0
1912.9300000000003,-0.012985867448151112,0.0012842690339311957,-0.0010572632309049368,0.0,0.0,0.0,0.0,0.0021097632125020027,-0.0006735998322255909,-0.0005608209175989032,1.0000343322753906,0.0,0.0,0.0,11.602752685546875,-3.6465916633605957,6.099021911621094,-2100.121337890625,0
1922.8420000000006,-0.013025580905377865,0.0012976351426914334,-0.001090371748432517,0.0,0.0,0.0,0.0,-0.0007825699867680669,-0.00016244716243818402,0.0024439406115561724,0.9995768070220947,0.0,0.0,0.0,11.591439247131348,-3.6429941654205322,6.092862606048584,-2098.073486328125,0
1932.7559999999994,-0.013067291118204594,0.001312130130827427,-0.0011234624544158578,0.0,0.0,0.0,0.0,-0.0011689133243635297,-0.002114862436428666,0.0021259463392198086,1.0000889301300049,0.0,0.0,0.0,11.580334663391113,-3.6383817195892334,6.085735321044922,-2096.063720703125,0
1942.6679999999997,-0.013112572953104973,0.0013281271094456315,-0.001156530575826764,0.0,0.0,0.0,0.0,-0.0007985134143382311,-0.0021388670429587364,0.0017688670195639133,0.9984092712402344,0.0,0.0,0.0,11.569828033447266,-3.639047145843506,6.091336250305176,-2094.161865234375,0
1952.5810000000001,-0.01314554363489151,0.0013087867991998792,-0.0012208729749545455,0.0,0.0,0.0,0.0,-0.001706375041976571,-0.006610356271266937,-0.0005675373831763864,0.9990954399108887,0.0,0.0,0.0,11.577857971191406,-3.6529464721679688,6.090388298034668,-2095.615234375,0
1962.4869999999992,-0.013196530751883984,0.001324213924817741,-0.0012573073618113995,0.0,0.0,0.0,0.0,-0.0008254394051618874,0.0008553241495974362,-0.002723194193094969,0.9987141489982605,0.0,0.0,0.0,11.56704044342041,-3.639782190322876,6.093782901763916,-2093.657470703125,0
1972.3989999999994,-0.01325741596519947,0.0013354599941521883,-0.0012911214726045728,0.0,0.0,0.0,0.0,-0.0014360114000737667,-1.4822743651166093e-05,-0.0008812001324258745,1.0002660751342773,0.0,0.0,0.0,11.56987476348877,-3.6390621662139893,6.083059787750244,-2094.17041015625,0
1982.307999999999,-0.013314517214894295,0.00135034357663244,-0.0013285481836646795,0.0,0.0,0.0,0.0,0.002467281185090542,0.0031824475154280663,0.0020167685579508543,0.9993575811386108,0.0,0.0,0.0,11.558189392089844,-3.624218463897705,6.079713344573975,-2092.055419921875,0
1992.2209999999995,-0.013284556567668915,0.0013906650710850954,-0.0014191315276548266,0.0,0.0,0.0,0.0,-0.0004757212882395834,0.0010600039968267083,0.0025906681548804045,0.999728798866272,0.0,0.0,0.0,11.565622329711914,-3.6176252365112305,6.095598220825195,-2093.40087890625,0
2002.1399999999994,-0.013338498771190643,0.0014086819719523191,-0.0014619848225265741,0.0,0.0,0.0,0.0,0.00011263380292803049,-0.00021331777679733932,0.0030596114229410887,1.0021530389785767,0.0,0.0,0.0,11.554487228393555,-3.6114449501037598,6.089265823364258,-2091.38525390625,0
2012.0479999999989,-0.013395292684435844,0.0014276016736403108,-0.0015042431186884642,0.0,0.0,0.0,0.0,-0.0002603103930596262,0.003306852886453271,0.0013803988695144653,1.00027334690094,0.0,0.0,0.0,11.5436429977417,-3.607872247695923,6.072535514831543,-2089.422607421875,0
2021.9689999999991,-0.013454673811793327,0.0014472808688879013,-0.0015447225887328386,0.0,0.0,0.0,0.0,0.002746853046119213,0.0061436910182237625,0.0023901283275336027,0.9979290962219238,0.0,0.0,0.0,11.532639503479004,-3.603595733642578,6.066263675689697,-2087.4306640625,0
2031.8670000000002,-0.013516303151845932,0.001467092428356409,-0.0015849696937948465,0.0,0.0,0.0,0.0,-0.0011697078589349985,-0.0016280172858387232,0.004142418969422579,0.9993986487388611,0.0,0.0,0.0,11.521641731262207,-3.6032185554504395,6.047836780548096,-2085.43994140625,0
2041.7870000000003,-0.013580216094851494,0.00148736871778965,-0.0016264833975583315,0.0,0.0,0.0,0.0,0.0006697550415992737,0.0032772417180240154,-0.0034733484499156475,1.0010555982589722,0.0,0.0,0.0,11.510571479797363,-3.5931315422058105,6.043871879577637,-2083.436279296875,0
2051.6900000000005,-0.013646225444972515,0.0015091896057128906,-0.0016680257394909859,0.0,0.0,0.0,0.0,-0.00277679692953825,-0.0015270202420651913,-0.0027751964516937733,0.9987677335739136,0.0,0.0,0.0,11.49869155883789,-3.5882790088653564,6.02987813949585,-2081.2861328125,0
2061.6139999999996,-0.012644581496715546,0.0011993645457550883,-0.0006318241357803345,0.0,0.0,0.0,0.0,0.0003175452002324164,0.0048523652367293835,-2.4030390704865567e-05,1.0019049644470215,0.0,0.0,0.0,11.506678581237793,-3.649846315383911,6.174549102783203,-2082.731689453125,0
2071.517,-0.012669006362557411,0.0012133991112932563,-0.0006305145216174424,0.0,0.0,0.0,0.0,0.0007376815192401409,-0.000923407671507448,-0.001422830973751843,0.9998981356620789,0.0,0.0,0.0,11.496129989624023,-3.64103364944458,6.161574840545654,-2080.822509765625,0
2081.438,-0.012612272053956985,0.0012141251936554909,-0.0005798152415081859,0.0,0.0,0.0,0.0,0.0009698090725578368,0.0015516366111114621,-0.0004828470991924405,0.9998012781143188,0.0,0.0,0.0,11.506290435791016,-3.643223524093628,6.175317287445068,-2082.661376953125,0
2091.34,-0.012638075277209282,0.0012263287790119648,-0.0005752287688665092,0.0,0.0,0.0,0.0,-5.395507832872681e-05,0.003709149546921253,-0.0006079464219510555,0.9996007084846497,0.0,0.0,0.0,11.494182586669922,-3.6434149742126465,6.1623148918151855,-2080.469970703125,0
2101.2690000000002,-0.012543002143502235,0.0012574904831126332,-0.0005121779977343976,0.0,0.0,0.0,0.0,-0.00026641206932254136,0.0006775637739337981,0.0032931221649050713,0.9978922605514526,0.0,0.0,0.0,11.504323959350586,-3.637338161468506,6.166329860687256,-2082.305419921875,0
2111.1640000000007,-0.012568105012178421,0.0012711259769275784,-0.0005046151927672327,0.0,0.0,0.0,0.0,0.002488805679604411,-0.00017198413843289018,0.0003689989389386028,0.997931182384491,0.0,0.0,0.0,11.493699073791504,-3.6274971961975098,6.157412528991699,-2080.38232421875,0
2121.089,-0.012570139020681381,0.0012717035133391619,-0.0005077582900412381,0.0,0.0,0.0,0.0,0.0007801444735378027,0.0009771815966814756,-0.00013487250544130802,0.9982486963272095,0.0,0.0,0.0,11.506364822387695,-3.6408231258392334,6.1539177894592285,-2082.6748046875,0
2130.992,-0.012598835863173008,0.0012842713622376323,-0.0005040524993091822,0.0,0.0,0.0,0.0,-0.0010618963278830051,0.0049686795100569725,0.004893902223557234,1.0003184080123901,0.0,0.0,0.0,11.496468544006348,-3.6373932361602783,6.144043922424316,-2080.883544921875,0
2140.9079999999994,-0.012540648691356182,0.0013018199242651463,-0.0004895060556009412,0.0,0.0,0.0,0.0,0.0005716835148632526,0.00036841549444943666,-0.0002424187259748578,1.000425934791565,0.0,0.0,0.0,11.506083488464355,-3.6390604972839355,6.151675701141357,-2082.6240234375,0
