timestamp,stateEstimate.x,stateEstimate.y,stateEstimate.z,controller.cmd_thrust,controller.cmd_roll,controller.cmd_pitch,controller.cmd_yaw,controller.r_roll,controller.r_pitch,controller.r_yaw,controller.accelz,controller.actuatorThrust,controller.roll,controller.pitch,controller.yaw,controller.rollRate,controller.pitchRate,controller.yawRate,controller.ctr_yaw
0.0,0.0019197975052520633,0.024376986548304558,-0.00053509755525738,0.0,0.0,0.0,0.0,-0.0017241842579096556,0.0012343772687017918,0.0013965381076559424,0.9980050921440125,0.0,0.0,0.0,-10.635858535766602,0.3401730954647064,4.947087287902832,1925.111572265625,0
9.903000000000247,0.0019220017129555345,0.0244399756193161,-0.0006119705503806472,0.0,0.0,0.0,0.0,-0.000735343957785517,0.0026539291720837355,-0.0017066466389223933,1.0001870393753052,0.0,0.0,0.0,-10.639226913452148,0.3768707811832428,4.9548211097717285,1925.72119140625,0
19.820000000001528,0.0018862272845581174,0.024435462430119514,-0.0006314492784440517,0.0,0.0,0.0,0.0,0.002026396570727229,0.0011685711797326803,0.0014579506823793054,0.9986468553543091,0.0,0.0,0.0,-10.630027770996094,0.37873926758766174,4.949755668640137,1924.05615234375,0
29.726000000000568,0.0018544250633567572,0.024436526000499725,-0.0006666179979220033,0.0,0.0,0.0,0.0,0.0022079937625676394,0.0026782394852489233,-0.0011236960999667645,0.9982544779777527,0.0,0.0,0.0,-10.648451805114746,0.3779737949371338,4.940743446350098,1927.390869140625,0
39.650000000001455,0.0021424023434519768,0.024409620091319084,-0.0002751040447037667,0.0,0.0,0.0,0.0,-0.0012583278585225344,-0.00041162141133099794,0.0012432638322934508,0.9990214109420776,0.0,0.0,0.0,-10.657751083374023,0.39203786849975586,5.001523017883301,1929.0743408203125,0
49.54900000000089,0.002125668805092573,0.024385729804635048,-0.0003100334433838725,0.0,0.0,0.0,0.0,-0.0003406178147997707,0.004240554757416248,0.0050627076998353004,0.9981303215026855,0.0,0.0,0.0,-10.660666465759277,0.39472338557243347,4.994659900665283,1929.6019287109375,0
59.46700000000055,0.0022038633469492197,0.02445553056895733,-0.00018024106975644827,0.0,0.0,0.0,0.0,-0.003545870305970311,-0.006338783074170351,0.0012675480684265494,0.9968878030776978,0.0,0.0,0.0,-10.667325019836426,0.410610169172287,4.989219665527344,1930.8070068359375,0
69.37200000000121,0.002176243346184492,0.02441202849149704,-0.000208902099984698,0.0,0.0,0.0,0.0,0.0005206021596677601,-0.0018165729707106948,0.001282369252294302,0.9983355402946472,0.0,0.0,0.0,-10.677735328674316,0.4184029698371887,5.000510215759277,1932.6912841796875,0
79.29399999999987,0.0021512771490961313,0.024406012147665024,-0.00021295675833243877,0.0,0.0,0.0,0.0,-0.001081044552847743,-0.0005712889833375812,-1.4076656952966005e-05,0.9998539686203003,0.0,0.0,0.0,-10.6663818359375,0.4181678593158722,5.000358581542969,1930.63623046875,0
89.19700000000012,0.0021593214478343725,0.024376163259148598,-0.00028825047775171697,0.0,0.0,0.0,0.0,0.000612100528087467,-0.0021593559067696333,-0.0017226248746737838,0.9997072219848633,0.0,0.0,0.0,-10.67634105682373,0.42492008209228516,5.007084369659424,1932.4390869140625,0
99.12300000000141,0.002134300535544753,0.024371188133955002,-0.00029850538703612983,0.0,0.0,0.0,0.0,0.0005579382996074855,-0.002829004777595401,0.00036788350553251803,0.9996338486671448,0.0,0.0,0.0,-10.665656089782715,0.42401745915412903,5.007442951202393,1930.5048828125,0
109.01900000000023,0.0021217274479568005,0.02435595728456974,-0.0003410014614928514,0.0,0.0,0.0,0.0,0.001294572837650776,0.00193456606939435,-0.0003118067979812622,1.000277042388916,0.0,0.0,0.0,-10.669098854064941,0.42183035612106323,5.009525775909424,1931.1282958984375,0
118.94200000000092,0.002096437616273761,0.024352185428142548,-0.0003538669552654028,0.0,0.0,0.0,0.0,-0.002351765986531973,-0.003909986466169357,-0.0027299693319946527,0.9986526966094971,0.0,0.0,0.0,-10.658147811889648,0.41794145107269287,4.995236873626709,1929.14599609375,0
128.84400000000096,0.0021020807325839996,0.024357708171010017,-0.00044125111890025437,0.0,0.0,0.0,0.0,0.0015167768578976393,-0.0044613550417125225,0.003428335301578045,0.9999335408210754,0.0,0.0,0.0,-10.670400619506836,0.43256932497024536,5.009774684906006,1931.3638916015625,0
138.76100000000042,0.002076721517369151,0.024355972185730934,-0.0004606550792232156,0.0,0.0,0.0,0.0,0.0008399903890676796,0.0029903100803494453,-0.0031960236374288797,1.000420331954956,0.0,0.0,0.0,-10.658737182617188,0.4293409585952759,5.0136494636535645,1929.2525634765625,0
148.66500000000087,0.002053770236670971,0.02436155267059803,-0.0004905016394332051,0.0,0.0,0.0,0.0,-0.0008936923695728183,0.005093744024634361,-0.004446947015821934,0.997418999671936,0.0,0.0,0.0,-10.672521591186523,0.43423140048980713,5.010173797607422,1931.747802734375,0
158.59400000000096,0.00202585244551301,0.024359742179512978,-0.0005116075044497848,0.0,0.0,0.0,0.0,-0.0016080045606940985,-0.0027674997691065073,0.00044056170736439526,0.999414324760437,0.0,0.0,0.0,-10.662237167358398,0.43205639719963074,5.001481056213379,1929.8861083984375,0
168.496000000001,0.002003030152991414,0.024392714723944664,-0.000531692523509264,0.0,0.0,0.0,0.0,-0.001582904253154993,0.001856886432506144,0.0019157478818669915,0.9993176460266113,0.0,0.0,0.0,-10.662786483764648,0.44780877232551575,5.009576320648193,1929.985595703125,0
178.41100000000006,0.0019707020837813616,0.024391986429691315,-0.0005571517394855618,0.0,0.0,0.0,0.0,-0.0014858911745250225,1.4647863281425089e-05,-0.002638907404616475,0.9990315437316895,0.0,0.0,0.0,-10.651474952697754,0.44881728291511536,5.006084442138672,1927.938232421875,0
188.3150000000005,0.0019388176733627915,0.02435048297047615,-0.0006099382298998535,0.0,0.0,0.0,0.0,0.0016605983255431056,0.002176521811634302,2.066019078483805e-05,0.9995455741882324,0.0,0.0,0.0,-10.661535263061523,0.4371631145477295,5.010706901550293,1929.75927734375,0
198.2360000000008,0.0019075004383921623,0.02434719167649746,-0.0006360488478094339,0.0,0.0,0.0,0.0,-0.0022326260805130005,0.0018093179678544402,-0.001862944453023374,1.002078890800476,0.0,0.0,0.0,-10.650918960571289,0.43533748388290405,5.004692554473877,1927.8375244140625,0
208.13700000000063,0.0018820181721821427,0.024374274536967278,-0.0006624909001402557,0.0,0.0,0.0,0.0,0.003317673923447728,0.0014026782009750605,-0.002478674752637744,1.0019323825836182,0.0,0.0,0.0,-10.665420532226562,0.4508216381072998,5.003085136413574,1930.46240234375,0
218.0560000000005,0.0018487886991351843,0.024374844506382942,-0.0006855938700027764,0.0,0.0,0.0,0.0,0.004316022619605064,-0.0013763275928795338,0.004135102033615112,1.000727891921997,0.0,0.0,0.0,-10.655552864074707,0.4454108476638794,4.99761438369751,1928.6763916015625,0
227.96100000000115,0.0018204619409516454,0.02439972572028637,-0.0007101421942934394,0.0,0.0,0.0,0.0,0.00030074294772930443,0.002275174017995596,-0.003080330789089203,0.9997719526290894,0.0,0.0,0.0,-10.669380187988281,0.4498398005962372,4.997353553771973,1931.1790771484375,0
237.88900000000103,0.0017850655131042004,0.024404650554060936,-0.0007317963754758239,0.0,0.0,0.0,0.0,0.0018577087903395295,-0.000979535048827529,-0.005772743374109268,0.9984297752380371,0.0,0.0,0.0,-10.659208297729492,0.44896000623703003,4.989745140075684,1929.337890625,0
247.78300000000127,0.0017610759241506457,0.024445293471217155,-0.0007612017798237503,0.0,0.0,0.0,0.0,-0.002230356214568019,-0.0009504166664555669,0.0012840423732995987,1.0007752180099487,0.0,0.0,0.0,-10.670106887817383,0.4675601124763489,4.991676330566406,1931.310546875,0
257.70200000000114,0.0017233022954314947,0.024452324956655502,-0.0007842866471037269,0.0,0.0,0.0,0.0,0.0002745409437920898,-0.0016413588309660554,-0.0018049628706648946,1.000569462776184,0.0,0.0,0.0,-10.659041404724121,0.47214609384536743,4.9918694496154785,1929.3077392578125,0
267.6080000000002,0.0016906396485865116,0.024448378011584282,-0.0008356886683031917,0.0,0.0,0.0,0.0,-0.0013293921947479248,0.0008912607445381582,0.0013694351073354483,0.9984822869300842,0.0,0.0,0.0,-10.659481048583984,0.4675358533859253,4.9952778816223145,1929.3873291015625,0
277.53000000000065,0.001648609177209437,0.024455120787024498,-0.0008602738380432129,0.0,0.0,0.0,0.0,-0.00024453489459119737,6.428811320802197e-05,0.0027200595941394567,1.0002444982528687,0.0,0.0,0.0,-10.648743629455566,0.468440979719162,4.993545055389404,1927.4437255859375,0
287.4290000000001,0.001620186842046678,0.024488050490617752,-0.0009016403928399086,0.0,0.0,0.0,0.0,0.0006069867522455752,0.0011374960886314511,-0.00031622033566236496,1.0009244680404663,0.0,0.0,0.0,-10.666523933410645,0.47970080375671387,4.9929518699646,1930.662109375,0
297.3550000000014,0.0015775354113429785,0.024497177451848984,-0.0009272799361497164,0.0,0.0,0.0,0.0,0.0019224543357267976,0.0014159787679091096,0.0021448670886456966,0.9974862933158875,0.0,0.0,0.0,-10.656676292419434,0.4800715148448944,4.989981651306152,1928.879638671875,0
307.255000000001,0.0015795461367815733,0.0245350431650877,-0.0010072722798213363,0.0,0.0,0.0,0.0,-0.0023054073099046946,-0.0017127718310803175,-0.0015936116687953472,1.0010111331939697,0.0,0.0,0.0,-10.667051315307617,0.49779611825942993,5.0077056884765625,1930.757568359375,0
317.1750000000011,0.0015412509674206376,0.024547038599848747,-0.0010380945168435574,0.0,0.0,0.0,0.0,-0.0009954794077202678,0.007993112318217754,-0.0009475506958551705,1.0002554655075073,0.0,0.0,0.0,-10.656715393066406,0.4992675185203552,5.006419658660889,1928.88671875,0
327.07700000000114,0.0015351797919720411,0.02457929030060768,-0.001111737685278058,0.0,0.0,0.0,0.0,-0.003420660039409995,-0.0022679492831230164,0.002883565379306674,0.9969015717506409,0.0,0.0,0.0,-10.671932220458984,0.511870801448822,4.9993438720703125,1931.6409912109375,0
336.9980000000014,0.0015001286519691348,0.024596495553851128,-0.0011468814918771386,0.0,0.0,0.0,0.0,-0.0020116958767175674,-0.0013996874913573265,-0.003623773343861103,0.9962400197982788,0.0,0.0,0.0,-10.659791946411133,0.5142532587051392,5.005215167999268,1929.4434814453125,0
346.90000000000146,0.0015069235814735293,0.024663027375936508,-0.001212742761708796,0.0,0.0,0.0,0.0,-0.0034155857283622026,0.0001574575580889359,0.0012332898331806064,0.9976724982261658,0.0,0.0,0.0,-10.659660339355469,0.5414353013038635,5.019488334655762,1929.419921875,0
356.8220000000001,0.0014737744349986315,0.024687260389328003,-0.001256641699001193,0.0,0.0,0.0,0.0,0.0001734695106279105,-0.0037158604245632887,0.0018111607059836388,0.9989188313484192,0.0,0.0,0.0,-10.648494720458984,0.5458554625511169,5.017693996429443,1927.398681640625,0
366.72400000000016,0.0014815230388194323,0.024735085666179657,-0.0013478427426889539,0.0,0.0,0.0,0.0,0.0022106135729700327,-0.004079143982380629,0.0010570372687652707,1.0020074844360352,0.0,0.0,0.0,-10.660604476928711,0.560448944568634,5.038640975952148,1929.590576171875,0
376.65400000000045,0.0014481404796242714,0.024761134758591652,-0.001396487234160304,0.0,0.0,0.0,0.0,0.002697812858968973,-0.0027228796388953924,-0.0017288523958995938,1.000653624534607,0.0,0.0,0.0,-10.649341583251953,0.5544532537460327,5.040330410003662,1927.5518798828125,0
386.5460000000003,0.0014084330759942532,0.024806715548038483,-0.0014425762929022312,0.0,0.0,0.0,0.0,-8.785440513747744e-06,0.0007102804956957698,-0.000508190190885216,0.9993240833282471,0.0,0.0,0.0,-10.658026695251465,0.5540916323661804,5.03084659576416,1929.1240234375,0
396.46500000000015,0.0013736679684370756,0.02483336627483368,-0.0014891033060848713,0.0,0.0,0.0,0.0,0.00022425135830417275,-0.001999543746933341,0.0051315841265022755,1.000909447669983,0.0,0.0,0.0,-10.646954536437988,0.5563436150550842,5.021962642669678,1927.119873046875,0
406.3730000000014,0.0013305757893249393,0.024871792644262314,-0.0015380571130663157,0.0,0.0,0.0,0.0,0.001457075122743845,0.0012925172923132777,0.0036510841455310583,1.0006433725357056,0.0,0.0,0.0,-10.650398254394531,0.5635672211647034,5.020737171173096,1927.7431640625,0
416.2900000000009,0.0012946153292432427,0.02489950694143772,-0.0015833533834666014,0.0,0.0,0.0,0.0,0.001072768704034388,0.0007235377561300993,0.0010885734809562564,1.000638723373413,0.0,0.0,0.0,-10.639532089233398,0.5604880452156067,5.0112738609313965,1925.7763671875,0
426.1930000000011,0.0012407153844833374,0.024937013164162636,-0.0016295063542202115,0.0,0.0,0.0,0.0,-0.00301129138097167,0.0035181292332708836,-0.004693497903645039,1.0017750263214111,0.0,0.0,0.0,-10.643580436706543,0.5568970441818237,4.996236801147461,1926.5091552734375,0
436.1140000000014,0.0012010715436190367,0.024967478588223457,-0.001672591082751751,0.0,0.0,0.0,0.0,0.0004821715410798788,-0.0006657042540609837,0.0003901346935890615,0.9991031885147095,0.0,0.0,0.0,-10.634880065917969,0.5595067143440247,4.97629451751709,1924.9345703125,0
446.01600000000144,0.0010886647505685687,0.024973221123218536,-0.0016994411125779152,0.0,0.0,0.0,0.0,-0.00030214834259822965,-0.0001051487706718035,-0.0010088051203638315,0.9983599185943604,0.0,0.0,0.0,-10.636014938354492,0.5353061556816101,4.959526538848877,1925.1397705078125,0
455.9369999999999,0.00104248384013772,0.025003941729664803,-0.0017400775104761124,0.0,0.0,0.0,0.0,0.0005582501762546599,-0.00061116146389395,-0.00044828071258962154,0.9987169504165649,0.0,0.0,0.0,-10.625359535217285,0.533702552318573,4.955540180206299,1923.2113037109375,0
465.84600000000137,0.0009446081821806729,0.02502507157623768,-0.0017754759173840284,0.0,0.0,0.0,0.0,0.0017547162715345621,-0.007117180619388819,0.0019087718101218343,1.0002634525299072,0.0,0.0,0.0,-10.62387466430664,0.518621027469635,4.940578460693359,1922.9425048828125,0
475.76500000000124,0.000894374621566385,0.02505362406373024,-0.001815191237255931,0.0,0.0,0.0,0.0,-0.0029185840394347906,-0.0023273341357707977,-0.001528355642221868,1.0010212659835815,0.0,0.0,0.0,-10.612213134765625,0.5111914873123169,4.951854705810547,1920.831787109375,0
485.6660000000011,0.0007960497750900686,0.025027597323060036,-0.0018725268309935927,0.0,0.0,0.0,0.0,0.002471186453476548,-0.0009059752337634563,0.0015568723902106285,1.000585913658142,0.0,0.0,0.0,-10.619195938110352,0.4888238310813904,4.943082809448242,1922.0955810546875,0
495.58899999999994,0.0007419033790938556,0.02505251206457615,-0.0019102372461929917,0.0,0.0,0.0,0.0,0.0010973818134516478,-0.0006192459841258824,0.0020474873017519712,1.0020612478256226,0.0,0.0,0.0,-10.60843276977539,0.4833036959171295,4.939457893371582,1920.1475830078125,0
505.4880000000012,0.0006596723687835038,0.025080803781747818,-0.001951803918927908,0.0,0.0,0.0,0.0,0.003641683841124177,-0.002674203598871827,0.0006822401192039251,1.000444769859314,0.0,0.0,0.0,-10.611705780029297,0.48044028878211975,4.929111957550049,1920.7398681640625,0
515.4090000000015,0.0006031102384440601,0.025106921792030334,-0.001986082410439849,0.0,0.0,0.0,0.0,-0.002528257668018341,-0.003980571869760752,0.0001223662547999993,0.9978827238082886,0.0,0.0,0.0,-10.600430488586426,0.47488144040107727,4.930848598480225,1918.698974609375,0
525.3130000000001,0.0005196296842768788,0.025081316009163857,-0.0020527830347418785,0.0,0.0,0.0,0.0,0.0007579484954476357,0.0027855574153363705,0.0006017880514264107,0.9994829297065735,0.0,0.0,0.0,-10.60476303100586,0.46028056740760803,4.93217134475708,1919.4832763671875,0
535.232,0.0004578116349875927,0.025102203711867332,-0.00208994559943676,0.0,0.0,0.0,0.0,0.0007944541284814477,0.001929864869453013,-0.0016542477533221245,0.9992436170578003,0.0,0.0,0.0,-10.593462944030762,0.4581414759159088,4.9216742515563965,1917.43798828125,0
545.1380000000008,0.00038731080712750554,0.02513260953128338,-0.002147671300917864,0.0,0.0,0.0,0.0,0.0020476586651057005,0.0017377326730638742,-0.002215666463598609,1.0004913806915283,0.0,0.0,0.0,-10.60004997253418,0.45827651023864746,4.913317680358887,1918.6302490234375,0
555.0650000000005,0.0003211858856957406,0.025155751034617424,-0.0021861388813704252,0.0,0.0,0.0,0.0,-0.0012061198940500617,-0.0018268325366079807,0.005664660595357418,1.0008649826049805,0.0,0.0,0.0,-10.589664459228516,0.4536742568016052,4.9053826332092285,1916.7503662109375,0
564.9570000000003,0.00021706477855332196,0.02515474148094654,-0.0022459374740719795,0.0,0.0,0.0,0.0,-0.00019711435015778989,-0.0014270938700065017,0.003591479966416955,0.998817503452301,0.0,0.0,0.0,-10.597728729248047,0.44027042388916016,4.899746894836426,1918.2100830078125,0
574.8790000000008,0.00014332079445011914,0.025177350267767906,-0.0022838665172457695,0.0,0.0,0.0,0.0,-0.0001434228615835309,0.001608111895620823,0.0018431275384500623,0.9992620944976807,0.0,0.0,0.0,-10.586291313171387,0.4452674388885498,4.898400783538818,1916.1397705078125,0
584.7820000000011,9.972474072128534e-05,0.02517201378941536,-0.002364552114158869,0.0,0.0,0.0,0.0,0.005706232972443104,-0.0008398884674534202,-0.0009363486897200346,0.999237060546875,0.0,0.0,0.0,-10.590950012207031,0.4391051232814789,4.895043849945068,1916.9830322265625,0
594.7010000000009,2.461548865539953e-05,0.025192800909280777,-0.0024080551229417324,0.0,0.0,0.0,0.0,-0.0008056923979893327,-0.001170576550066471,0.001139087020419538,0.9995540976524353,0.0,0.0,0.0,-10.580599784851074,0.4243927597999573,4.890140533447266,1915.109619140625,0
604.6050000000014,-6.754366040695459e-06,0.02523869276046753,-0.0024812049232423306,0.0,0.0,0.0,0.0,0.0013837965670973063,0.0028598334174603224,0.0008690450340509415,1.0009194612503052,0.0,0.0,0.0,-10.587470054626465,0.4411790072917938,4.906826496124268,1916.35302734375,0
614.5250000000015,-8.024789713090286e-05,0.025261232629418373,-0.0025279060937464237,0.0,0.0,0.0,0.0,-0.001948028802871704,-0.0027210903353989124,0.0022250530309975147,0.9985222816467285,0.0,0.0,0.0,-10.577032089233398,0.43620631098747253,4.899904251098633,1914.4637451171875,0
624.4260000000013,-0.00012615983723662794,0.025308318436145782,-0.002605996560305357,0.0,0.0,0.0,0.0,-0.001404434209689498,0.004284102935343981,-0.0013041321653872728,0.9978909492492676,0.0,0.0,0.0,-10.57956600189209,0.4520457088947296,4.909414291381836,1914.9224853515625,0
634.3470000000016,-0.00019990555301774293,0.02533353492617607,-0.002657159697264433,0.0,0.0,0.0,0.0,-0.0008757211617194116,-0.00019930854614358395,-0.001894574612379074,0.9988548755645752,0.0,0.0,0.0,-10.569580078125,0.45614662766456604,4.893686771392822,1913.1148681640625,0
644.25,-0.00025873887352645397,0.025380467996001244,-0.0027370136231184006,0.0,0.0,0.0,0.0,-0.003061087103560567,-0.0046220035292208195,0.0006821382557973266,1.0001932382583618,0.0,0.0,0.0,-10.576385498046875,0.4696296155452728,4.897365093231201,1914.3468017578125,0
654.1720000000005,-0.0003311008622404188,0.025407183915376663,-0.0027926191687583923,0.0,0.0,0.0,0.0,0.002499290741980076,0.003047753358259797,-0.0032025789842009544,0.9990046620368958,0.0,0.0,0.0,-10.566367149353027,0.4790883958339691,4.910353183746338,1912.5333251953125,0
664.0770000000011,-0.00037677958607673645,0.02539980597794056,-0.002886675763875246,0.0,0.0,0.0,0.0,0.001105831703171134,-0.00035717853461392224,0.0007710473728366196,0.9998806715011597,0.0,0.0,0.0,-10.573634147644043,0.46803227066993713,4.910317897796631,1913.8487548828125,0
673.996000000001,-0.00045038078678771853,0.025424007326364517,-0.0029467083513736725,0.0,0.0,0.0,0.0,0.0019898386672139168,-1.7372576621710323e-06,-0.0040463609620928764,1.000439167022705,0.0,0.0,0.0,-10.562188148498535,0.4615360200405121,4.901371955871582,1911.777099609375,0
683.9090000000015,-0.0005523647414520383,0.025441350415349007,-0.003039462259039283,0.0,0.0,0.0,0.0,0.0030275918543338776,0.0012453581439331174,0.0001497782504884526,0.9979740977287292,0.0,0.0,0.0,-10.574748039245605,0.45051339268684387,4.894146919250488,1914.05029296875,0
693.8260000000009,-0.0006280109519138932,0.025465629994869232,-0.003100715111941099,0.0,0.0,0.0,0.0,-0.0033671122509986162,0.0019007932860404253,0.00039716344326734543,0.9991461634635925,0.0,0.0,0.0,-10.563875198364258,0.4400155544281006,4.887375354766846,1912.08251953125,0
703.7310000000016,-0.0006922578322701156,0.025525791570544243,-0.0032067259307950735,0.0,0.0,0.0,0.0,0.0020723554771393538,-0.0006616527680307627,0.0005051698535680771,0.9996862411499023,0.0,0.0,0.0,-10.578397750854492,0.460825651884079,4.896510601043701,1914.7109375,0
713.643,-0.0007695020758546889,0.025555981323122978,-0.0032726821955293417,0.0,0.0,0.0,0.0,0.0006402582512237132,0.0006772425840608776,0.0007148556760512292,1.0001754760742188,0.0,0.0,0.0,-10.567754745483398,0.4544600248336792,4.896232604980469,1912.7845458984375,0
723.5540000000001,-0.0007582823745906353,0.025586776435375214,-0.003381960326805711,0.0,0.0,0.0,0.0,-0.0005173078388907015,-0.0021446545142680407,-0.0005888047744520009,0.9985297322273254,0.0,0.0,0.0,-10.58540153503418,0.46581408381462097,4.913751125335693,1915.978759765625,0
733.469000000001,-0.000830748351290822,0.025618206709623337,-0.003454204648733139,0.0,0.0,0.0,0.0,-0.0019340731669217348,-0.0031839616131037474,0.005718695931136608,1.000980019569397,0.0,0.0,0.0,-10.57434368133545,0.46733906865119934,4.916395664215088,1913.9771728515625,0
743.3739999999998,-0.0008973176009021699,0.025713272392749786,-0.003547064494341612,0.0,0.0,0.0,0.0,0.00162566511426121,0.0027605837676674128,5.6148404837585986e-05,1.0024182796478271,0.0,0.0,0.0,-10.581480979919434,0.4910360872745514,4.926572322845459,1915.26904296875,0
753.2910000000011,-0.0009702021488919854,0.02575017884373665,-0.0036190932150930166,0.0,0.0,0.0,0.0,-0.0004235201340634376,-0.0006950552342459559,0.0009603727958165109,0.9987496733665466,0.0,0.0,0.0,-10.571925163269043,0.4898017942905426,4.912593841552734,1913.5394287109375,0
763.2020000000011,-0.0010070166317746043,0.0257775466889143,-0.0037380089052021503,0.0,0.0,0.0,0.0,0.0018569177482277155,0.0036109609063714743,-0.0028584622777998447,0.9979407787322998,0.0,0.0,0.0,-10.588504791259766,0.491299569606781,4.922774791717529,1916.540283203125,0
773.116,0.0022105302195996046,0.024472519755363464,-0.00031209562439471483,0.0,0.0,0.0,0.0,-0.0020457846112549305,0.0007785619818605483,0.0009135515429079533,0.9986897706985474,0.0,0.0,0.0,-10.602949142456055,0.4684452712535858,5.113767623901367,1919.15478515625,0
783.0340000000015,0.002226512413471937,0.02448333613574505,-0.00036841456312686205,0.0,0.0,0.0,0.0,-0.0024445627350360155,0.0024575041607022285,-0.0011582564329728484,0.9993911981582642,0.0,0.0,0.0,-10.606708526611328,0.4747178554534912,5.111179351806641,1919.8353271484375,0
792.9420000000009,0.0022952549625188112,0.024557041004300117,-0.0002722503268159926,0.0,0.0,0.0,0.0,-0.002218974055722356,-0.003389455610886216,0.0003187161055393517,1.0003477334976196,0.0,0.0,0.0,-10.616257667541504,0.49012067914009094,5.105060577392578,1921.563720703125,0
802.8450000000012,0.0022450617980211973,0.024478618055582047,-0.00027147625223733485,0.0,0.0,0.0,0.0,-8.988990884972736e-07,0.0027220575138926506,-0.00030816945945844054,0.999487042427063,0.0,0.0,0.0,-10.618966102600098,0.485024631023407,5.10814905166626,1922.053955078125,0
812.7610000000004,0.002243627794086933,0.024491017684340477,-0.0002772267034742981,0.0,0.0,0.0,0.0,0.0016276149544864893,-0.0012095493730157614,-0.0032378241885453463,1.0003855228424072,0.0,0.0,0.0,-10.60885238647461,0.48612770438194275,5.098336696624756,1920.2232666015625,0
822.6680000000015,0.0022265983279794455,0.024447262287139893,-0.0002856832288671285,0.0,0.0,0.0,0.0,-0.0024504531174898148,0.0033251524437218904,-0.0008127844776026905,1.0003395080566406,0.0,0.0,0.0,-10.607782363891602,0.47596505284309387,5.096693515777588,1920.02978515625,0
832.5820000000003,0.002225120086222887,0.024457603693008423,-0.00029132215422578156,0.0,0.0,0.0,0.0,-0.0017590700881555676,-6.764358840882778e-05,0.0033536998089402914,0.9996923208236694,0.0,0.0,0.0,-10.596447944641113,0.4831562042236328,5.085761547088623,1917.978271484375,0
842.5020000000004,0.0022359886206686497,0.024421393871307373,-0.00035059190122410655,0.0,0.0,0.0,0.0,0.000520810135640204,0.0015166676603257656,-0.00043611633009277284,1.0014097690582275,0.0,0.0,0.0,-10.61225414276123,0.4801790118217468,5.087479591369629,1920.839111328125,0
852.4110000000001,0.0022340298164635897,0.02442947030067444,-0.00035937127540819347,0.0,0.0,0.0,0.0,-0.0004861657216679305,-0.0002498844114597887,0.0021506536286324263,0.9988323450088501,0.0,0.0,0.0,-10.602051734924316,0.481234073638916,5.079809665679932,1918.992431640625,0
862.3180000000011,0.0022515172604471445,0.024439508095383644,-0.0004159431264270097,0.0,0.0,0.0,0.0,-0.0008925960282795131,-0.0001629305916139856,0.0014438212383538485,0.9970808029174805,0.0,0.0,0.0,-10.605644226074219,0.48726457357406616,5.085423469543457,1919.6427001953125,0
872.232,0.0022508075926452875,0.024446725845336914,-0.0004294539976399392,0.0,0.0,0.0,0.0,-0.0034217429347336292,-0.0011592530645430088,0.0023842493537813425,0.9970648288726807,0.0,0.0,0.0,-10.595314025878906,0.4920808672904968,5.078131198883057,1917.77294921875,0
882.1370000000006,0.002227412536740303,0.024418778717517853,-0.00041634179069660604,0.0,0.0,0.0,0.0,0.0005181204178370535,0.0017094905488193035,-0.000626028748229146,0.9973099827766418,0.0,0.0,0.0,-10.610147476196289,0.48805245757102966,5.066627025604248,1920.457763671875,0
892.0540000000001,0.002221707720309496,0.024423379451036453,-0.00043291901238262653,0.0,0.0,0.0,0.0,1.4733283933310304e-05,0.004284316673874855,0.0025181921664625406,1.0014309883117676,0.0,0.0,0.0,-10.599623680114746,0.48789164423942566,5.055331707000732,1918.552978515625,0
901.9700000000012,0.002226075856015086,0.024447692558169365,-0.00046848622150719166,0.0,0.0,0.0,0.0,-0.0018631404964253306,-0.006775174755603075,-0.000848738884087652,1.0012221336364746,0.0,0.0,0.0,-10.602867126464844,0.49362239241600037,5.050732612609863,1919.1400146484375,0
911.8790000000008,0.002220083959400654,0.024453500285744667,-0.00048624869668856263,0.0,0.0,0.0,0.0,-0.0037303611170500517,-2.9633867598022334e-05,-0.0018405434675514698,0.9997330904006958,0.0,0.0,0.0,-10.592872619628906,0.4936513304710388,5.0586371421813965,1917.3310546875,0
921.7849999999999,0.0022201177198439837,0.02446926198899746,-0.000517127919010818,0.0,0.0,0.0,0.0,-0.003763136686757207,0.00015063773025758564,-0.0025210916064679623,1.0003451108932495,0.0,0.0,0.0,-10.60097599029541,0.5033448934555054,5.060204982757568,1918.7977294921875,0
931.7020000000011,0.002212528372183442,0.024474533274769783,-0.0005348199629224837,0.0,0.0,0.0,0.0,-0.0022981190122663975,1.617938141862396e-05,-0.0015920326113700867,1.0006096363067627,0.0,0.0,0.0,-10.590816497802734,0.5060291886329651,5.0556745529174805,1916.958984375,0
941.6200000000008,0.0021902865264564753,0.024438345804810524,-0.0005700757028535008,0.0,0.0,0.0,0.0,0.0013058085460215807,0.0042067524045705795,-0.0021488694474101067,1.0002994537353516,0.0,0.0,0.0,-10.609524726867676,0.4947319030761719,5.047634601593018,1920.3450927734375,0
951.5259999999998,0.0021781513933092356,0.024441028013825417,-0.0005874621565453708,0.0,0.0,0.0,0.0,-0.0017945744330063462,-0.0027303367387503386,0.0014277014415711164,0.999723494052887,0.0,0.0,0.0,-10.59887409210205,0.49377602338790894,5.035451889038086,1918.41748046875,0
961.4310000000005,0.0021239444613456726,0.024419205263257027,-0.0005587617633864284,0.0,0.0,0.0,0.0,0.0005234801210463047,-0.0012357814703136683,0.001355473999865353,1.0011050701141357,0.0,0.0,0.0,-10.614703178405762,0.48467859625816345,5.016589164733887,1921.282470703125,0
971.3490000000002,0.002104654675349593,0.024416720494627953,-0.0005717641906812787,0.0,0.0,0.0,0.0,0.0005423548282124102,-0.0025832834653556347,0.00427058944478631,1.000633955001831,0.0,0.0,0.0,-10.60504150390625,0.48347240686416626,5.01430082321167,1919.53369140625,0
981.2630000000008,0.0020618534181267023,0.024404529482126236,-0.0005657575093209743,0.0,0.0,0.0,0.0,-0.0011204573092982173,0.001629922422580421,0.0016214000061154366,1.0006178617477417,0.0,0.0,0.0,-10.619586944580078,0.4799199104309082,5.005600452423096,1922.16650390625,0
991.1680000000015,0.0020391978323459625,0.024400746449828148,-0.0005753226578235626,0.0,0.0,0.0,0.0,-0.0002819277870003134,-0.001154506579041481,0.0008586496114730835,1.0008867979049683,0.0,0.0,0.0,-10.608857154846191,0.4865880310535431,4.996504783630371,1920.2242431640625,0
1001.0780000000013,0.0020313209388405085,0.024398786947131157,-0.0006199192721396685,0.0,0.0,0.0,0.0,0.00025271091726608574,-0.0009823122527450323,-0.0013983234530314803,0.9981487393379211,0.0,0.0,0.0,-10.627043724060059,0.4910851716995239,5.006147861480713,1923.5159912109375,0
1010.9989999999998,0.0020071794278919697,0.024396097287535667,-0.0006312669720500708,0.0,0.0,0.0,0.0,-0.0002822190581355244,0.0020257786381989717,0.0007665366283617914,0.999485969543457,0.0,0.0,0.0,-10.616997718811035,0.4853571951389313,5.0029520988464355,1921.69775390625,0
1020.9050000000007,0.0019318400882184505,0.024367276579141617,-0.0006101554608903825,0.0,0.0,0.0,0.0,0.0011471352772787213,-0.0012669347925111651,0.0014686414506286383,0.9991495013237,0.0,0.0,0.0,-10.623321533203125,0.4652290940284729,4.981074810028076,1922.84228515625,0
1030.8180000000011,0.0019011999247595668,0.02436235547065735,-0.0006199535564519465,0.0,0.0,0.0,0.0,-8.730166882742196e-05,0.0010418753372505307,-0.0031176891643553972,0.9986357092857361,0.0,0.0,0.0,-10.613551139831543,0.46486350893974304,4.973783493041992,1921.0738525390625,0
1040.7350000000006,0.001839730772189796,0.02435140311717987,-0.0006180787459015846,0.0,0.0,0.0,0.0,0.0013620145618915558,0.0007783473120070994,-7.707178156124428e-05,0.9998776316642761,0.0,0.0,0.0,-10.62801456451416,0.4610419273376465,4.956971645355225,1923.691650390625,0
1050.648000000001,0.001805132138542831,0.024344811215996742,-0.0006279538501985371,0.0,0.0,0.0,0.0,0.0013034914154559374,-0.0046230643056333065,-0.0033921003341674805,0.997669517993927,0.0,0.0,0.0,-10.617423057556152,0.4600733518600464,4.9478960037231445,1921.7747802734375,0
1060.5520000000015,0.001792344730347395,0.02433725818991661,-0.0006736938375979662,0.0,0.0,0.0,0.0,-0.000894644355867058,0.0031158656347543,-0.002077023033052683,0.9987947344779968,0.0,0.0,0.0,-10.626314163208008,0.46097153425216675,4.9570698738098145,1923.384033203125,0
1070.4580000000005,0.0017574559897184372,0.024329766631126404,-0.0006886277114972472,0.0,0.0,0.0,0.0,0.0019511788850650191,0.0015188084216788411,-0.003323991782963276,1.0007236003875732,0.0,0.0,0.0,-10.61649227142334,0.4591502249240875,4.940834999084473,1921.6063232421875,0
1080.3739999999998,0.0017805850366130471,0.024352680891752243,-0.0007535235490649939,0.0,0.0,0.0,0.0,0.0005043816636316478,-0.005230775102972984,-0.0003472826210781932,0.9988530874252319,0.0,0.0,0.0,-10.634710311889648,0.4731338620185852,4.950686931610107,1924.9036865234375,0
1090.282000000001,0.0017483709380030632,0.024346914142370224,-0.0007736155530437827,0.0,0.0,0.0,0.0,-0.002538909437134862,0.002635714365169406,0.0011987697798758745,0.9998919367790222,0.0,0.0,0.0,-10.62390422821045,0.4727368652820587,4.954669952392578,1922.94775390625,0
1100.201000000001,0.0017385374521836638,0.024392353370785713,-0.0007965535623952746,0.0,0.0,0.0,0.0,0.0011919117532670498,-0.004530258011072874,-0.0004921915824525058,1.000382423400879,0.0,0.0,0.0,-10.625702857971191,0.4960361123085022,4.94685173034668,1923.2733154296875,0
1110.1020000000008,0.0017064777202904224,0.024387771263718605,-0.0008179928408935666,0.0,0.0,0.0,0.0,-0.001018496579490602,0.00013861928891856223,-0.0012579521862789989,0.9993981122970581,0.0,0.0,0.0,-10.615468978881836,0.4973832070827484,4.951283931732178,1921.421142578125,0
1120.0169999999998,0.001740722102113068,0.024443304166197777,-0.0008665273780934513,0.0,0.0,0.0,0.0,-5.825332846143283e-05,-0.000826487026643008,-0.0015074149705469608,0.9994551539421082,0.0,0.0,0.0,-10.618902206420898,0.5344514846801758,4.970185279846191,1922.0423583984375,0
1129.9320000000007,0.0017107537714764476,0.024444589391350746,-0.0008923676214180887,0.0,0.0,0.0,0.0,-0.0032113767229020596,0.002363587496802211,-0.002894566860049963,1.003063678741455,0.0,0.0,0.0,-10.60798454284668,0.5333403944969177,4.964072227478027,1920.06640625,0
1139.848,0.001712522003799677,0.02446701191365719,-0.0009519578889012337,0.0,0.0,0.0,0.0,-0.0008070514304563403,-0.0012194198789075017,0.003090024460107088,1.0030092000961304,0.0,0.0,0.0,-10.628409385681152,0.5491805076599121,4.963923454284668,1923.7633056640625,0
1149.7470000000012,0.00221597240306437,0.024399982765316963,-0.0002791249135043472,0.0,0.0,0.0,0.0,0.0017396248877048492,-0.0033063464798033237,-0.0013007319066673517,1.001705288887024,0.0,0.0,0.0,-10.636651039123535,0.5733200907707214,5.023947715759277,1925.2550048828125,0
1159.666000000001,0.002197857014834881,0.02438437193632126,-0.00028831037343479693,0.0,0.0,0.0,0.0,0.0010786348721012473,0.0021472361404448748,-0.0006165498052723706,1.0002007484436035,0.0,0.0,0.0,-10.640884399414062,0.5667094588279724,5.023149013519287,1926.021240234375,0
1169.5720000000001,0.0021812443155795336,0.024389980360865593,-0.00028340789140202105,0.0,0.0,0.0,0.0,-0.0012411330826580524,0.004517844878137112,-3.504358392092399e-05,1.0029138326644897,0.0,0.0,0.0,-10.630633354187012,0.5631812214851379,5.009766578674316,1924.165771484375,0
1179.4930000000004,0.002167276106774807,0.0243741013109684,-0.00029131179326213896,0.0,0.0,0.0,0.0,0.0031000871676951647,-0.0032816575840115547,0.0035067391581833363,1.001399278640747,0.0,0.0,0.0,-10.643206596374512,0.5687704682350159,4.99446964263916,1926.4415283203125,0
1189.4060000000009,0.002154866000637412,0.024378284811973572,-0.00028442134498618543,0.0,0.0,0.0,0.0,-0.0016759579302743077,1.776039607648272e-05,0.0003272393369115889,0.999485969543457,0.0,0.0,0.0,-10.6321382522583,0.5608356595039368,4.991479873657227,1924.4381103515625,0
1199.3200000000015,0.0021438372787088156,0.02438322827219963,-0.0002767368860077113,0.0,0.0,0.0,0.0,0.0007181688561104238,-0.0008119609556160867,-0.0007006703526712954,0.9990107417106628,0.0,0.0,0.0,-10.621476173400879,0.561928391456604,4.986093044281006,1922.50830078125,0
1209.2170000000006,0.002129895845428109,0.024332502856850624,-0.00031689793104305863,0.0,0.0,0.0,0.0,-0.0023390441201627254,0.0014978030230849981,-0.0013037445023655891,0.9989185333251953,0.0,0.0,0.0,-10.625598907470703,0.5482330918312073,4.987985134124756,1923.2545166015625,0
1219.1370000000006,0.002116356510668993,0.024336548522114754,-0.0003136203158646822,0.0,0.0,0.0,0.0,-0.0003048732178285718,-0.0011157867265865207,-0.0002153626410290599,1.0008054971694946,0.0,0.0,0.0,-10.615580558776855,0.5503752827644348,4.980627059936523,1921.441162109375,0
1229.0439999999999,0.002103069331496954,0.024302205070853233,-0.00036082943552173674,0.0,0.0,0.0,0.0,-0.0019870195537805557,-0.0007401594193652272,-0.0015815456863492727,0.999751627445221,0.0,0.0,0.0,-10.629928588867188,0.5435912013053894,4.976421356201172,1924.0380859375,0
1238.9630000000016,0.002085380954667926,0.02430460974574089,-0.00036077320692129433,0.0,0.0,0.0,0.0,-0.0009049111977219582,0.0008627320639789104,-0.00020376047177705914,0.9980166554450989,0.0,0.0,0.0,-10.619114875793457,0.5472247004508972,4.973986625671387,1922.0809326171875,0
1248.8630000000012,0.002072357339784503,0.024287935346364975,-0.0004027734394185245,0.0,0.0,0.0,0.0,0.000854471349157393,-0.0025612672325223684,0.0011615637922659516,1.0000596046447754,0.0,0.0,0.0,-10.624253273010254,0.5442943572998047,4.976539611816406,1923.010986328125,0
1258.7830000000013,0.0020549793262034655,0.02429102547466755,-0.00040721436380408704,0.0,0.0,0.0,0.0,-0.0008346089161932468,0.004291364457458258,-0.0036045892629772425,1.0008397102355957,0.0,0.0,0.0,-10.613945960998535,0.5409318208694458,4.973837852478027,1921.1453857421875,0
1268.687,0.002037397585809231,0.024293622002005577,-0.00041124963900074363,0.0,0.0,0.0,0.0,0.0006577245076186955,-5.628585859085433e-05,0.003296100301668048,1.0011953115463257,0.0,0.0,0.0,-10.605106353759766,0.5437273383140564,4.964594841003418,1919.5452880859375,0
1278.6100000000006,0.002019665902480483,0.024295009672641754,-0.0004143579280935228,0.0,0.0,0.0,0.0,0.0007265610620379448,-0.002794332569465041,-0.00182729447260499,1.0001112222671509,0.0,0.0,0.0,-10.592907905578613,0.5458258390426636,4.967250347137451,1917.3375244140625,0
1288.514000000001,0.0020615370012819767,0.024388138204813004,-0.0004994492628611624,0.0,0.0,0.0,0.0,0.0010558610083535314,0.0022293953225016594,0.0026672666426748037,0.999222993850708,0.0,0.0,0.0,-10.597159385681152,0.5838039517402649,4.993242263793945,1918.1070556640625,0
1298.429,0.002047989284619689,0.024393314495682716,-0.000508245313540101,0.0,0.0,0.0,0.0,-0.0017240314045920968,0.005016895942389965,0.0016259565018117428,0.9997243285179138,0.0,0.0,0.0,-10.585589408874512,0.5799641609191895,4.982126235961914,1916.0126953125,0
1308.3430000000008,0.002026802860200405,0.024392496794462204,-0.0005148693453520536,0.0,0.0,0.0,0.0,0.0007771399687044322,-8.384733519051224e-05,0.0008238876471295953,1.0000542402267456,0.0,0.0,0.0,-10.608490943908691,0.582453191280365,4.966635227203369,1920.157958984375,0
1318.2540000000008,0.0020108188036829233,0.02439553663134575,-0.000523514929227531,0.0,0.0,0.0,0.0,0.0007606431609019637,-0.002443696139380336,-0.0023575755767524242,1.0015829801559448,0.0,0.0,0.0,-10.599190711975098,0.5793036818504333,4.955963611602783,1918.474609375,0
1328.1580000000013,0.0020098211243748665,0.024457678198814392,-0.000513094593770802,0.0,0.0,0.0,0.0,0.000153564105858095,-0.0002648800436872989,0.0009864807361736894,1.0014287233352661,0.0,0.0,0.0,-10.601140022277832,0.5952678322792053,4.961565017700195,1918.8275146484375,0
1338.085000000001,0.0019931027200073004,0.024465736001729965,-0.0005181549931876361,0.0,0.0,0.0,0.0,0.00030108727514743805,-0.0005946116289123893,-0.00624806759878993,1.0009387731552124,0.0,0.0,0.0,-10.588895797729492,0.592337965965271,4.9547271728515625,1916.611083984375,0
1347.9810000000016,0.00197180756367743,0.02446717955172062,-0.0005343421944417059,0.0,0.0,0.0,0.0,-0.00032128969905897975,-0.0003605836536735296,-0.00042561511509120464,1.000415563583374,0.0,0.0,0.0,-10.604591369628906,0.5908427834510803,4.948644161224365,1919.4521484375,0
1357.916000000001,0.001951925689354539,0.024474915117025375,-0.0005380419315770268,0.0,0.0,0.0,0.0,0.0016539093339815736,4.162831828580238e-05,-0.0029334675054997206,1.002314805984497,0.0,0.0,0.0,-10.593155860900879,0.5915718674659729,4.93975830078125,1917.38232421875,0
1367.804,0.0019345164764672518,0.024486389011144638,-0.000555332750082016,0.0,0.0,0.0,0.0,0.00029743160121142864,0.0008343941881321371,-0.0006009287899360061,0.9989738464355469,0.0,0.0,0.0,-10.597402572631836,0.5919294357299805,4.939606189727783,1918.151123046875,0
1377.7250000000004,0.0019113608868792653,0.024495666846632957,-0.0005581856239587069,0.0,0.0,0.0,0.0,0.003908438142389059,0.0027522908058017492,-0.0017799556953832507,1.000774621963501,0.0,0.0,0.0,-10.58646297454834,0.5938163995742798,4.936511039733887,1916.1708984375,0
1387.630000000001,0.001884236466139555,0.024499498307704926,-0.0005779543425887823,0.0,0.0,0.0,0.0,0.0005601480370387435,0.0017865810077637434,0.0009861013386398554,1.002233624458313,0.0,0.0,0.0,-10.607748031616211,0.5897752642631531,4.920508861541748,1920.0234375,0
1397.5480000000007,0.0018591310363262892,0.02450941875576973,-0.0005807562847621739,0.0,0.0,0.0,0.0,-0.0006779838586226106,5.124548260937445e-05,-0.0029784394428133965,1.0007319450378418,0.0,0.0,0.0,-10.59595775604248,0.5911999344825745,4.909323215484619,1917.889404296875,0
1407.4500000000007,0.0018630462000146508,0.024499572813510895,-0.0006529852980747819,0.0,0.0,0.0,0.0,-0.0016397669678553939,-0.0015600785845890641,-0.0006144793005660176,0.9994459748268127,0.0,0.0,0.0,-10.61540699005127,0.5911207795143127,4.9156670570373535,1921.40966796875,0
1417.3690000000006,0.0018387094605714083,0.02451133541762829,-0.0006588810356333852,0.0,0.0,0.0,0.0,0.002241886220872402,-0.0008570983191020787,-0.0008138482226058841,1.0006860494613647,0.0,0.0,0.0,-10.604540824890137,0.5947871804237366,4.910465717315674,1919.44287109375,0
1427.2740000000013,0.001812339061871171,0.02452544867992401,-0.000664530205540359,0.0,0.0,0.0,0.0,-0.00012611557031050324,0.0002482743584550917,0.0007929056300781667,1.0015857219696045,0.0,0.0,0.0,-10.593962669372559,0.5942994952201843,4.912212371826172,1917.5283203125,0
1437.1950000000015,0.0017844467656686902,0.024540435522794724,-0.0006688941502943635,0.0,0.0,0.0,0.0,0.00042707909597083926,0.0023717896547168493,-0.00029761556652374566,0.998388946056366,0.0,0.0,0.0,-10.582972526550293,0.5972598791122437,4.908938407897949,1915.5389404296875,0
1447.0970000000016,0.0017551934579387307,0.024555590003728867,-0.0006728277658112347,0.0,0.0,0.0,0.0,0.000949275039602071,-0.0016218386590480804,0.0028704910073429346,1.000452995300293,0.0,0.0,0.0,-10.572319984436035,0.594312846660614,4.903548240661621,1913.6109619140625,0
1457.0160000000014,0.0017238191794604063,0.024571731686592102,-0.0006770218024030328,0.0,0.0,0.0,0.0,-0.0027083088643848896,0.004660438280552626,-0.0001422474451828748,1.00083327293396,0.0,0.0,0.0,-10.561012268066406,0.58794766664505,4.905052185058594,1911.564208984375,0
1466.924000000001,0.0016902995994314551,0.02458864264190197,-0.0006806278834119439,0.0,0.0,0.0,0.0,-0.0032344835344702005,-0.00020608438353519887,0.0005912986234761775,0.9997929930686951,0.0,0.0,0.0,-10.550370216369629,0.5909122228622437,4.895981788635254,1909.6380615234375,0
1476.8430000000008,0.001654361025430262,0.024605752900242805,-0.0006837676046416163,0.0,0.0,0.0,0.0,-0.0032099259551614523,-0.004897605627775192,-0.0007965303375385702,0.999331533908844,0.0,0.0,0.0,-10.539188385009766,0.5905208587646484,4.8941650390625,1907.614013671875,0
1486.7430000000004,0.0016167705180123448,0.02462317794561386,-0.0006870155921205878,0.0,0.0,0.0,0.0,-0.003295287024229765,-0.0025876257568597794,0.00020622028387151659,1.0012127161026,0.0,0.0,0.0,-10.527990341186523,0.5939183831214905,4.9005656242370605,1905.5872802734375,0
1496.666000000001,0.0015786081785336137,0.02464090846478939,-0.0006897681159898639,0.0,0.0,0.0,0.0,0.0012997299199923873,-0.004854876082390547,4.687313412432559e-05,0.9988740682601929,0.0,0.0,0.0,-10.517438888549805,0.6002248525619507,4.894834995269775,1903.6773681640625,0
1506.571,0.0015361896948888898,0.024660442024469376,-0.0006922489264979959,0.0,0.0,0.0,0.0,0.0008402521489188075,0.00038284077891148627,-0.0003563639475032687,1.0005658864974976,0.0,0.0,0.0,-10.50646686553955,0.6035546660423279,4.898732662200928,1901.6915283203125,0
1516.5,0.0014971054624766111,0.024677949026226997,-0.0006945079658180475,0.0,0.0,0.0,0.0,0.0010762077290564775,-0.0005069728358648717,0.002592379692941904,1.0010600090026855,0.0,0.0,0.0,-10.4959077835083,0.6057246327400208,4.896965503692627,1899.7801513671875,0
1526.4030000000002,0.0014566899044439197,0.024695228785276413,-0.0006960935425013304,0.0,0.0,0.0,0.0,-0.0007984823314473033,0.0016672287601977587,-0.00025374695542268455,1.0020197629928589,0.0,0.0,0.0,-10.48460578918457,0.6065840125083923,4.894134521484375,1897.7344970703125,0
1536.317000000001,0.001414444181136787,0.02471218816936016,-0.0006963133346289396,0.0,0.0,0.0,0.0,0.0014555341331288218,0.0014614223036915064,-0.0005423077382147312,0.9992867112159729,0.0,0.0,0.0,-10.474536895751953,0.6087351441383362,4.885417461395264,1895.9119873046875,0
1546.219000000001,0.001371033606119454,0.02472854219377041,-0.0006958846934139729,0.0,0.0,0.0,0.0,0.00047011120477691293,-0.004646908957511187,-0.004080079961568117,0.9981505870819092,0.0,0.0,0.0,-10.464367866516113,0.6044296026229858,4.8841471672058105,1894.0714111328125,0
1556.143,0.0013269117334857583,0.024744713678956032,-0.0006963997730053961,0.0,0.0,0.0,0.0,-0.0029327869415283203,0.0006901964661665261,0.0012040953151881695,1.0015722513198853,0.0,0.0,0.0,-10.454634666442871,0.6021516919136047,4.89333438873291,1892.3095703125,0
1566.0370000000003,0.0012820165138691664,0.02476186491549015,-0.000697112234774977,0.0,0.0,0.0,0.0,-0.003557599149644375,0.0006400538259185851,0.0003512876864988357,1.0005630254745483,0.0,0.0,0.0,-10.443735122680664,0.6076200008392334,4.887706756591797,1890.336669921875,0
1575.964,0.0012366011505946517,0.024780435487627983,-0.0006968514062464237,0.0,0.0,0.0,0.0,-0.0017429584404453635,-0.0024196074809879065,0.0016680593835189939,1.0001274347305298,0.0,0.0,0.0,-10.434019088745117,0.6113713383674622,4.881855487823486,1888.5782470703125,0
1585.862000000001,0.0011903065023943782,0.02479909360408783,-0.0006960532045923173,0.0,0.0,0.0,0.0,0.001295402878895402,-0.002840609522536397,-0.0019531454890966415,0.9998692870140076,0.0,0.0,0.0,-10.422933578491211,0.6116920709609985,4.881927490234375,1886.5716552734375,0
1595.786,0.0011422059033066034,0.024817751720547676,-0.0006949699018150568,0.0,0.0,0.0,0.0,-0.0008081954438239336,-1.533401336928364e-05,-0.0010390232782810926,1.0008015632629395,0.0,0.0,0.0,-10.412991523742676,0.6113632321357727,4.879647731781006,1884.772216796875,0
1605.6860000000015,0.0010918737389147282,0.024837134405970573,-0.0006933393888175488,0.0,0.0,0.0,0.0,-0.00314515084028244,0.00032419359195046127,-0.0006254802574403584,0.9988498091697693,0.0,0.0,0.0,-10.401776313781738,0.6127750873565674,4.880160331726074,1882.7420654296875,0
1615.6050000000014,0.0010395010467618704,0.024856198579072952,-0.0006915302365086973,0.0,0.0,0.0,0.0,-0.0005901388940401375,-0.0012014973908662796,0.002085814718157053,0.9994337558746338,0.0,0.0,0.0,-10.390637397766113,0.6242820024490356,4.877229690551758,1880.72607421875,0
1625.5079999999998,0.000985134276561439,0.024875113740563393,-0.0006901592714712024,0.0,0.0,0.0,0.0,0.0029227756895124912,-0.0021025019232183695,0.0016097930492833257,1.001488447189331,0.0,0.0,0.0,-10.379557609558105,0.6208187937736511,4.87398624420166,1878.720458984375,0
1635.429,0.0009285061969421804,0.0248947162181139,-0.0006883345195092261,0.0,0.0,0.0,0.0,-0.000971705827396363,0.0005555539974011481,-0.0018310596933588386,0.9994432330131531,0.0,0.0,0.0,-10.369452476501465,0.6167541146278381,4.874433517456055,1876.8914794921875,0
1645.3360000000011,0.001328662852756679,0.024748723953962326,-0.001234670402482152,0.0,0.0,0.0,0.0,-2.1758454749942757e-05,-0.0005832744645886123,-0.004354285541921854,1.000446081161499,0.0,0.0,0.0,-10.417360305786133,0.6171362996101379,4.94928503036499,1885.5628662109375,0
1655.2530000000006,0.0012859036214649677,0.02476654201745987,-0.0012560472823679447,0.0,0.0,0.0,0.0,0.00018478046695236117,0.0012952479301020503,-0.0012634823797270656,1.0026410818099976,0.0,0.0,0.0,-10.408106803894043,0.6184119582176208,4.954065799713135,1883.8880615234375,0
1665.1550000000007,0.0012405029265210032,0.02478610724210739,-0.0012759796809405088,0.0,0.0,0.0,0.0,0.00217817141674459,0.003163456916809082,0.0022682929411530495,0.9994744062423706,0.0,0.0,0.0,-10.397990226745605,0.6167883276939392,4.941564559936523,1882.0567626953125,0
1675.0780000000013,0.0011923655401915312,0.024806415662169456,-0.0012946478091180325,0.0,0.0,0.0,0.0,-0.0022413479164242744,-0.006087201647460461,-0.0022306290920823812,1.0006269216537476,0.0,0.0,0.0,-10.387781143188477,0.6112256646156311,4.926597595214844,1880.208984375,0
1684.9810000000016,0.001253266236744821,0.02486645057797432,-0.0014101611450314522,0.0,0.0,0.0,0.0,-0.001611741608940065,0.002052359515801072,-0.0045660086907446384,1.0011745691299438,0.0,0.0,0.0,-10.413840293884277,0.6316595077514648,4.955260276794434,1884.9259033203125,0
1694.9009999999998,0.0012062805471941829,0.024889614433050156,-0.001433002296835184,0.0,0.0,0.0,0.0,0.0006835131789557636,-5.4440039093606174e-05,0.00528434943407774,0.9996689558029175,0.0,0.0,0.0,-10.404160499572754,0.6362721920013428,4.9505510330200195,1883.1737060546875,0
1704.800000000001,0.001158486818894744,0.024913424625992775,-0.0014551666099578142,0.0,0.0,0.0,0.0,-0.0034004151821136475,-0.0021382656414061785,0.0013742431765422225,0.9977808594703674,0.0,0.0,0.0,-10.392515182495117,0.6342768669128418,4.952506065368652,1881.06591796875,0
1714.7310000000016,0.001109969220124185,0.024939194321632385,-0.0014781102072447538,0.0,0.0,0.0,0.0,-0.0006744291167706251,0.0005692693521268666,-0.0031965929083526134,1.0014759302139282,0.0,0.0,0.0,-10.381624221801758,0.6354659199714661,4.949527263641357,1879.0947265625,0
1724.6320000000014,0.0010613176273182034,0.02496664598584175,-0.0015014747623354197,0.0,0.0,0.0,0.0,-0.0007094813627190888,-0.0012032322119921446,0.00024078153364825994,1.0002228021621704,0.0,0.0,0.0,-10.37125301361084,0.6339632272720337,4.942516326904297,1877.217529296875,0
1734.550000000001,0.0010123220272362232,0.024995137006044388,-0.0015241914661601186,0.0,0.0,0.0,0.0,-0.0038040217477828264,-0.003098586341366172,0.0023049924056977034,0.9998361468315125,0.0,0.0,0.0,-10.360712051391602,0.6337357759475708,4.9398016929626465,1875.3095703125,0
1744.4490000000005,0.0009612752473913133,0.02502422221004963,-0.0015467761550098658,0.0,0.0,0.0,0.0,-0.0027439529076218605,0.0021175513975322247,-0.0031278913374990225,1.0002386569976807,0.0,0.0,0.0,-10.350004196166992,0.6359731554985046,4.944699764251709,1873.371337890625,0
1754.3730000000014,0.0009073246619664133,0.02505282685160637,-0.0015693011227995157,0.0,0.0,0.0,0.0,-0.0011579020647332072,0.004661524668335915,-2.9185325729486067e-06,1.0030763149261475,0.0,0.0,0.0,-10.340400695800781,0.639724612236023,4.9386773109436035,1871.633056640625,0
1764.2759999999998,0.0008507069433107972,0.02508113719522953,-0.0015903741586953402,0.0,0.0,0.0,0.0,0.0008885922143235803,0.0015702459495514631,-0.0016699318075552583,1.0021761655807495,0.0,0.0,0.0,-10.329524993896484,0.6409159898757935,4.927582263946533,1869.66455078125,0
1774.2070000000003,0.000792071339674294,0.025110121816396713,-0.0016089621931314468,0.0,0.0,0.0,0.0,0.004252683836966753,0.004125493112951517,-0.0018544492777436972,0.9997058510780334,0.0,0.0,0.0,-10.320137977600098,0.640126645565033,4.920090675354004,1867.9654541015625,0
1784.1050000000014,0.0007312715169973671,0.025140024721622467,-0.0016262477729469538,0.0,0.0,0.0,0.0,0.0015972988912835717,0.002937939018011093,-0.0005149352946318686,0.9996997714042664,0.0,0.0,0.0,-10.309773445129395,0.6346644163131714,4.905841827392578,1866.089599609375,0
1794.0250000000015,0.0006679198704659939,0.025170642882585526,-0.0016434142598882318,0.0,0.0,0.0,0.0,2.3424547180184163e-05,0.003609577426686883,0.0016312254592776299,0.997929573059082,0.0,0.0,0.0,-10.299592018127441,0.6292799115180969,4.893563270568848,1864.246826171875,0
1803.925000000001,0.0006027764175087214,0.02520197629928589,-0.0016613109037280083,0.0,0.0,0.0,0.0,0.001166943577118218,0.0036579652223736048,-0.005454888101667166,1.000966191291809,0.0,0.0,0.0,-10.289475440979004,0.6285420060157776,4.878933429718018,1862.41552734375,0
1813.848,0.0005359147908166051,0.025234049186110497,-0.0016798560973256826,0.0,0.0,0.0,0.0,-0.0016467084642499685,0.004174630623310804,0.002553133061155677,0.999992311000824,0.0,0.0,0.0,-10.28072452545166,0.6274105906486511,4.866757392883301,1860.8314208984375,0
1823.7470000000012,0.000466917670564726,0.025266602635383606,-0.0016981257358565927,0.0,0.0,0.0,0.0,1.8889686543843709e-06,0.0038891767617315054,0.0012237783521413803,0.999615490436554,0.0,0.0,0.0,-10.269613265991211,0.6324198842048645,4.853428363800049,1858.8203125,0
1833.674000000001,0.0003890462394338101,0.025302838534116745,-0.0017180648865178227,0.0,0.0,0.0,0.0,-0.0006089689559303224,0.0046844263561069965,-0.0013558432692661881,0.9982394576072693,0.0,0.0,0.0,-10.259836196899414,0.6294538974761963,4.835249423980713,1857.05078125,0
1843.5780000000013,0.000317089055897668,0.025336848571896553,-0.001737088430672884,0.0,0.0,0.0,0.0,-0.006492443848401308,0.00039187169750221074,-0.0025059280451387167,0.9997181296348572,0.0,0.0,0.0,-10.249927520751953,0.6292684674263,4.829347610473633,1855.2572021484375,0
1853.4980000000014,0.0002446486323606223,0.025372019037604332,-0.0017570502823218703,0.0,0.0,0.0,0.0,0.0020783820655196905,-0.00364467641338706,-0.0004497331683523953,1.0005483627319336,0.0,0.0,0.0,-10.240808486938477,0.6390548348426819,4.822303295135498,1853.606689453125,0
1863.3919999999998,0.00017207133350893855,0.025407586246728897,-0.0017769534606486559,0.0,0.0,0.0,0.0,-0.0020826649852097034,0.0003996650339104235,-0.001202896237373352,1.0025991201400757,0.0,0.0,0.0,-10.230711936950684,0.6342145204544067,4.826627731323242,1851.779296875,0
1873.3110000000015,9.832095383899286e-05,0.025442713871598244,-0.0017955435905605555,0.0,0.0,0.0,0.0,0.0005386908887885511,-0.0021875991951674223,-0.0011274416465312243,1.000508427619934,0.0,0.0,0.0,-10.221504211425781,0.6342617869377136,4.8219733238220215,1850.112548828125,0
1883.2130000000016,2.1693689632229507e-05,0.025477545335888863,-0.0018125446513295174,0.0,0.0,0.0,0.0,0.0008913273341022432,-0.0016411413671448827,0.0031411745585501194,1.0008533000946045,0.0,0.0,0.0,-10.211015701293945,0.6336678862571716,4.826196193695068,1848.2142333984375,0
1893.1380000000008,-5.8029123465530574e-05,0.02551336959004402,-0.0018286471022292972,0.0,0.0,0.0,0.0,-0.001537526841275394,0.003360309172421694,0.0008228888036683202,0.9984927177429199,0.0,0.0,0.0,-10.200185775756836,0.6335389018058777,4.827203750610352,1846.2540283203125,0
1903.0400000000009,-0.00013952789595350623,0.025550926104187965,-0.0018446150934323668,0.0,0.0,0.0,0.0,0.0011246061185374856,-0.0035744663327932358,0.0025035354774445295,0.9987556338310242,0.0,0.0,0.0,-10.189790725708008,0.6384104490280151,4.816037178039551,1844.3724365234375,0
1912.960000000001,-0.0002219805319327861,0.025590049102902412,-0.0018613989232107997,0.0,0.0,0.0,0.0,-0.0034275148063898087,-0.005174468271434307,-0.0029125164728611708,0.9987112879753113,0.0,0.0,0.0,-10.178247451782227,0.6371986865997314,4.821427822113037,1842.2830810546875,0
1922.8600000000006,-0.0003055887937080115,0.025629429146647453,-0.0018793167546391487,0.0,0.0,0.0,0.0,-0.0019225733121857047,0.004070419352501631,-0.0015670153079554439,1.0007731914520264,0.0,0.0,0.0,-10.168776512145996,0.6424098610877991,4.8217644691467285,1840.5689697265625,0
1932.7790000000005,-0.00039091857615858316,0.025668032467365265,-0.0018975588027387857,0.0,0.0,0.0,0.0,-0.001542325015179813,0.0008266853401437402,-0.0016590432496741414,1.0000578165054321,0.0,0.0,0.0,-10.158838272094727,0.6442822813987732,4.808967113494873,1838.7698974609375,0
1942.688,-0.0004789849335793406,0.025706224143505096,-0.001915313652716577,0.0,0.0,0.0,0.0,-0.0013990901643410325,0.000973135931417346,-0.002622500527650118,0.9995449781417847,0.0,0.0,0.0,-10.148491859436035,0.6461459398269653,4.79814338684082,1836.897216796875,0
1952.5990000000002,-0.0005703880451619625,0.025744346901774406,-0.0019327837508171797,0.0,0.0,0.0,0.0,0.0030929744243621826,0.005187999922782183,-0.00043344145524315536,0.9995462894439697,0.0,0.0,0.0,-10.13907527923584,0.6486688852310181,4.794515609741211,1835.19287109375,0
1962.5120000000006,-0.0006643242086283863,0.025783110409975052,-0.0019502139184623957,0.0,0.0,0.0,0.0,0.0018518901197239757,-0.0026143458671867847,0.0016231623012572527,0.9994545578956604,0.0,0.0,0.0,-10.128687858581543,0.6403574347496033,4.7801737785339355,1833.3126220703125,0
1972.437,-0.0007600572425872087,0.025822797790169716,-0.0019681344274431467,0.0,0.0,0.0,0.0,0.002902335487306118,0.00038936600321903825,0.0020025481935590506,1.0005356073379517,0.0,0.0,0.0,-10.118104934692383,0.6336383819580078,4.775419235229492,1831.3970947265625,0
1982.3290000000015,-0.0008580483263358474,0.025861656293272972,-0.001986305695027113,0.0,0.0,0.0,0.0,-0.001476036966778338,-0.0017901011742651463,-0.0010060030035674572,1.00114107131958,0.0,0.0,0.0,-10.108023643493652,0.6250475645065308,4.768110752105713,1829.572509765625,0
1992.2399999999998,-8.612729288870469e-06,0.025356780737638474,-0.002476814202964306,0.0,0.0,0.0,0.0,0.0011632338864728808,-0.005475735757499933,0.0013304958119988441,1.001092553138733,0.0,0.0,0.0,-10.205291748046875,0.5978186726570129,4.8701958656311035,1847.1781005859375,0
2002.1599999999999,-8.68185015860945e-05,0.025382928550243378,-0.0025166880805045366,0.0,0.0,0.0,0.0,-0.00023310797405429184,-0.0032443292438983917,0.0015154374996200204,0.9981733560562134,0.0,0.0,0.0,-10.194623947143555,0.5916643738746643,4.874485492706299,1845.2470703125,0
2012.0640000000003,-6.699300865875557e-05,0.025351693853735924,-0.0027232258580625057,0.0,0.0,0.0,0.0,0.0016512676374986768,-0.001027001184411347,0.0026504762936383486,0.9979819655418396,0.0,0.0,0.0,-10.268637657165527,0.5959439277648926,4.890416622161865,1858.6436767578125,0
2021.9790000000012,-0.00014641709276475012,0.025380320847034454,-0.002771015278995037,0.0,0.0,0.0,0.0,-0.0007661019917577505,0.002038901671767235,0.00025438168086111546,0.9998582005500793,0.0,0.0,0.0,-10.25831413269043,0.5949020981788635,4.882726669311523,1856.7752685546875,0
2031.889000000001,-0.0002201548923039809,0.025406962260603905,-0.0029444389510899782,0.0,0.0,0.0,0.0,-0.0008406562265008688,0.0022029029205441475,-0.0032780917827039957,1.0007787942886353,0.0,0.0,0.0,-10.329017639160156,0.5993834733963013,4.882668972015381,1869.57275390625,0
2041.799000000001,0.00223298161290586,0.024430997669696808,-0.000232053454965353,0.0,0.0,0.0,0.0,0.00034234326449222863,-0.005635285750031471,0.0034786388278007507,0.9996458888053894,0.0,0.0,0.0,-10.381551742553711,0.6009169816970825,4.987005710601807,1879.0814208984375,0
2051.7170000000006,0.002209193306043744,0.024415474385023117,-0.0003280944365542382,0.0,0.0,0.0,0.0,0.000398521835450083,-0.0010364392073825002,0.00016590549785178155,0.9988952279090881,0.0,0.0,0.0,-10.428973197937012,0.6015884876251221,5.00233793258667,1887.6649169921875,0
2061.6280000000006,0.002168480306863785,0.024431409314274788,-0.00033977359998971224,0.0,0.0,0.0,0.0,-0.0016814077971503139,0.0007041787612251937,-0.0008347395341843367,0.999091386795044,0.0,0.0,0.0,-10.418558120727539,0.5948045253753662,5.001284599304199,1885.77978515625,0
2071.5330000000013,0.002159382216632366,0.024474287405610085,-0.000410259235650301,0.0,0.0,0.0,0.0,-0.002102229278534651,-0.0038300042506307364,-0.0003297144139651209,0.9996874332427979,0.0,0.0,0.0,-10.443440437316895,0.6068081259727478,5.003611087799072,1890.283447265625,0
2081.447,0.002120386343449354,0.024490905925631523,-0.000427118968218565,0.0,0.0,0.0,0.0,0.0011493307538330555,-0.0012031198712065816,-0.002251276047900319,1.0000319480895996,0.0,0.0,0.0,-10.432634353637695,0.6083692908287048,5.007562160491943,1888.32763671875,0
2091.3590000000004,0.0020750886760652065,0.02446584403514862,-0.00045889714965596795,0.0,0.0,0.0,0.0,0.0006380412960425019,-0.0019227927550673485,0.00029610388446599245,0.9998531341552734,0.0,0.0,0.0,-10.46045970916748,0.6022351980209351,5.010280609130859,1893.3638916015625,0
2101.2690000000002,0.0020342578645795584,0.02447987161576748,-0.0004764544137287885,0.0,0.0,0.0,0.0,-0.003033572342246771,0.00397470872849226,0.002347359899431467,1.001755952835083,0.0,0.0,0.0,-10.44990062713623,0.606345534324646,5.009847640991211,1891.4527587890625,0
2111.1820000000007,0.002011283300817013,0.024472007527947426,-0.0005639506853185594,0.0,0.0,0.0,0.0,0.0009227415430359542,-0.0042785233817994595,-0.0011382417287677526,1.0008201599121094,0.0,0.0,0.0,-10.484865188598633,0.6122422218322754,5.013056755065918,1897.7813720703125,0
2121.094000000001,0.001971173333004117,0.024483535438776016,-0.0005849043373018503,0.0,0.0,0.0,0.0,-0.0021418763790279627,-0.004825608339160681,0.001341848517768085,1.0011862516403198,0.0,0.0,0.0,-10.474421501159668,0.613111674785614,5.021420478820801,1895.8912353515625,0
2131.004000000001,0.0019422640325501561,0.024472467601299286,-0.0006592113059014082,0.0,0.0,0.0,0.0,0.002118489006534219,-0.00032169505720958114,-0.00199626456014812,0.9990628361701965,0.0,0.0,0.0,-10.51242446899414,0.6167435646057129,5.035684108734131,1902.769775390625,0
2140.916000000001,0.0019027923699468374,0.024484461173415184,-0.0006830681231804192,0.0,0.0,0.0,0.0,-0.0010954760946333408,-0.0002808209974318743,0.0005395199987106025,0.9993579387664795,0.0,0.0,0.0,-10.502594947814941,0.6155728101730347,5.03452730178833,1900.99072265625,0
