timestamp,stateEstimate.x,stateEstimate.y,stateEstimate.z,controller.cmd_thrust,controller.cmd_roll,controller.cmd_pitch,controller.cmd_yaw,controller.r_roll,controller.r_pitch,controller.r_yaw,controller.accelz,controller.actuatorThrust,controller.roll,controller.pitch,controller.yaw,controller.rollRate,controller.pitchRate,controller.yawRate,controller.ctr_yaw
0.0,0.0035287828650325537,-0.029896395280957222,0.0008257626905106008,0.0,0.0,0.0,0.0,4.2711879359558225e-05,0.00557336350902915,0.0006036557606421411,0.9986857771873474,0.0,0.0,0.0,-46.479644775390625,4.171801567077637,0.7592595219612122,8412.9072265625,0
9.885999999998603,0.003562402445822954,-0.02999490685760975,0.0007148660370148718,0.0,0.0,0.0,0.0,-0.0009818797698244452,0.00014484349230770022,-0.0016276604728773236,0.9981746077537537,0.0,0.0,0.0,-46.465911865234375,4.1639275550842285,0.7851278781890869,8410.4228515625,0
19.76599999999962,0.0035488822031766176,-0.02988746389746666,0.000812015263363719,0.0,0.0,0.0,0.0,-0.003522258484736085,0.0006431543151848018,-0.0014614986721426249,0.9994349479675293,0.0,0.0,0.0,-46.48456573486328,4.174781322479248,0.7675804495811462,8413.798828125,0
29.662000000000262,0.0035994325298815966,-0.029961753636598587,0.0006928183720447123,0.0,0.0,0.0,0.0,-0.0015266282716766,-0.0003886391641572118,0.0005742493667639792,1.001241683959961,0.0,0.0,0.0,-46.47163772583008,4.171199321746826,0.7731196284294128,8411.458984375,0
39.54099999999926,0.0035810370463877916,-0.029851503670215607,0.0007813611882738769,0.0,0.0,0.0,0.0,-0.0015638238983228803,0.0009457221603952348,-0.0023578444961458445,1.0004154443740845,0.0,0.0,0.0,-46.48856735229492,4.188509464263916,0.7572869658470154,8414.5234375,0
49.422999999998865,0.0036204825155436993,-0.02994053065776825,0.000660790188703686,0.0,0.0,0.0,0.0,0.0003035266126971692,-0.003614705754444003,0.0016914218431338668,1.0002144575119019,0.0,0.0,0.0,-46.471073150634766,4.179736614227295,0.7684149742126465,8411.3564453125,0
59.30899999999929,0.003642929717898369,-0.029832150787115097,0.0007726173498667777,0.0,0.0,0.0,0.0,0.0020910075400024652,-0.0011318345787003636,-0.003394156927242875,1.0010008811950684,0.0,0.0,0.0,-46.49100112915039,4.192142009735107,0.7559724450111389,8414.9638671875,0
69.19499999999971,0.0036621002946048975,-0.029945960268378258,0.0006721803219988942,0.0,0.0,0.0,0.0,-0.0026173945516347885,0.00044525167322717607,0.002589111216366291,0.9989550113677979,0.0,0.0,0.0,-46.4761848449707,4.169748306274414,0.7743144035339355,8412.2822265625,0
79.08499999999913,0.003616015426814556,-0.0298159159719944,0.0007548920693807304,0.0,0.0,0.0,0.0,0.0008543311269022524,-8.834811887936667e-05,-0.0009911861270666122,0.9990739822387695,0.0,0.0,0.0,-46.49858474731445,4.188072681427002,0.7534823417663574,8416.3359375,0
88.97299999999996,0.0036695057060569525,-0.029895639047026634,0.0006230538128875196,0.0,0.0,0.0,0.0,-0.0010651182383298874,0.0014683639165014029,-0.0015333208721131086,0.9981498718261719,0.0,0.0,0.0,-46.48102951049805,4.19044303894043,0.7609983086585999,8413.158203125,0
98.85999999999876,0.0036437739618122578,-0.029767172411084175,0.000712344131898135,0.0,0.0,0.0,0.0,0.0017287753289565444,0.0018229138804599643,0.0009829818736761808,1.001145601272583,0.0,0.0,0.0,-46.50083923339844,4.207093238830566,0.7378165125846863,8416.744140625,0
108.74699999999939,0.0036749362479895353,-0.029867297038435936,0.0005913329659961164,0.0,0.0,0.0,0.0,-0.001973553327843547,-0.001408194424584508,-0.0023934587370604277,0.9996781945228577,0.0,0.0,0.0,-46.48394775390625,4.187253952026367,0.7414222359657288,8413.6865234375,0
118.6369999999988,0.0037028389051556587,-0.029758062213659286,0.0007005230872891843,0.0,0.0,0.0,0.0,0.0006593841244466603,0.00341608258895576,-0.00022854232520330697,0.9991641640663147,0.0,0.0,0.0,-46.50848388671875,4.206457138061523,0.7293076515197754,8418.1279296875,0
128.51800000000003,0.0036979864817112684,-0.029918843880295753,0.0005824046675115824,0.0,0.0,0.0,0.0,0.002432239940389991,-0.0016084739472717047,0.0005508068716153502,1.0008442401885986,0.0,0.0,0.0,-46.49056625366211,4.180357933044434,0.743290364742279,8414.884765625,0
138.40599999999904,0.003657642286270857,-0.029777785763144493,0.0006649105926044285,0.0,0.0,0.0,0.0,0.0028677198570221663,0.004231095779687166,-0.0007556449854746461,1.0011407136917114,0.0,0.0,0.0,-46.5067024230957,4.189401149749756,0.7147358059883118,8417.8056640625,0
148.28299999999945,0.003631114261224866,-0.029955381527543068,0.0005624353070743382,0.0,0.0,0.0,0.0,0.0009612930589355528,0.000866808695718646,0.0011236750287935138,0.9996249675750732,0.0,0.0,0.0,-46.49276351928711,4.155662536621094,0.7210369110107422,8415.283203125,0
158.18199999999888,0.003600803203880787,-0.029815522953867912,0.0006550457328557968,0.0,0.0,0.0,0.0,-0.001517085824161768,-0.0010757166892290115,0.0014162760926410556,0.9989539384841919,0.0,0.0,0.0,-46.50895690917969,4.168683052062988,0.7028460502624512,8418.2138671875,0
168.05799999999908,0.0036147607024759054,-0.029919812455773354,0.0005609590443782508,0.0,0.0,0.0,0.0,-0.0005500264232978225,-0.004376212600618601,0.0023465778212994337,0.9977784156799316,0.0,0.0,0.0,-46.49497604370117,4.150026798248291,0.7011576294898987,8415.6826171875,0
177.9489999999987,0.003658644389361143,-0.029794853180646896,0.0006905826739966869,0.0,0.0,0.0,0.0,0.0010901183122768998,0.0017427244456484914,0.0005574741517193615,0.9994624853134155,0.0,0.0,0.0,-46.5101203918457,4.173934459686279,0.6991466283798218,8418.423828125,0
187.83399999999892,0.0036928870249539614,-0.029881447553634644,0.0005756234750151634,0.0,0.0,0.0,0.0,-0.0011299591278657317,0.0011041357647627592,0.000638338562566787,1.0004265308380127,0.0,0.0,0.0,-46.49215316772461,4.16177225112915,0.7154545187950134,8415.171875,0
197.71899999999914,0.0036496573593467474,-0.029754839837551117,0.0006423539598472416,0.0,0.0,0.0,0.0,0.0006287654396146536,-0.003754304489120841,0.0006492420798167586,0.9994226098060608,0.0,0.0,0.0,-46.5074577331543,4.171503067016602,0.7008469700813293,8417.9423828125,0
207.60000000000036,0.003601963398978114,-0.029928430914878845,0.0005719941109418869,0.0,0.0,0.0,0.0,0.002212790073826909,5.6902350479504094e-05,-0.003919051494449377,0.9999092221260071,0.0,0.0,0.0,-46.49501037597656,4.144748210906982,0.7238514423370361,8415.689453125,0
217.4930000000004,0.003652541898190975,-0.029812538996338844,0.0007025033701211214,0.0,0.0,0.0,0.0,-0.0013832816621288657,-0.003953896462917328,0.001874137087725103,1.0001089572906494,0.0,0.0,0.0,-46.514427185058594,4.160890579223633,0.7249596118927002,8419.2041015625,0
227.36899999999878,0.003627428086474538,-0.02996670827269554,0.0006218235939741135,0.0,0.0,0.0,0.0,-0.0018423516303300858,0.0007005339721217752,-0.0020149284973740578,0.9978227019309998,0.0,0.0,0.0,-46.500125885009766,4.13794469833374,0.7457830905914307,8416.615234375,0
237.2639999999992,0.0035947663709521294,-0.029831504449248314,0.0007122311508283019,0.0,0.0,0.0,0.0,-0.0005834577605128288,-0.00433080131188035,-0.0013526685070246458,0.999286413192749,0.0,0.0,0.0,-46.50971984863281,4.159792900085449,0.7379674911499023,8418.3515625,0
247.14199999999983,0.003547698725014925,-0.03001173958182335,0.0006442505982704461,0.0,0.0,0.0,0.0,-0.0016764599131420255,-0.0030925467144697905,0.00025149158318527043,1.0013651847839355,0.0,0.0,0.0,-46.49351119995117,4.124443531036377,0.7652641534805298,8415.41796875,0
257.03499999999985,0.0035512179601937532,-0.029888125136494637,0.0007557570352219045,0.0,0.0,0.0,0.0,0.0022728194016963243,0.0056188227608799934,0.00012018654524581507,1.0013985633850098,0.0,0.0,0.0,-46.50716781616211,4.146668434143066,0.7685297131538391,8417.8896484375,0
266.91200000000026,0.003601486561819911,-0.029972370713949203,0.000614881282672286,0.0,0.0,0.0,0.0,0.00028244542772881687,0.00013825527275912464,-1.6824340491439216e-05,1.0011199712753296,0.0,0.0,0.0,-46.4924430847168,4.137991428375244,0.7714582681655884,8415.224609375,0
276.8140000000003,0.003711611032485962,-0.029903143644332886,0.0007533841417171061,0.0,0.0,0.0,0.0,0.001859555603004992,0.004414376337081194,-5.732817226089537e-05,1.0007658004760742,0.0,0.0,0.0,-46.510459899902344,4.160355567932129,0.7830418944358826,8418.4853515625,0
286.6849999999995,0.0037335525266826153,-0.030025530606508255,0.0006396844401024282,0.0,0.0,0.0,0.0,-0.0003285716811660677,-0.0011733347782865167,-0.003930110018700361,0.9984666705131531,0.0,0.0,0.0,-46.49641036987305,4.141427516937256,0.779801607131958,8415.9423828125,0
296.5829999999987,0.0037047239020466805,-0.029912661761045456,0.0007181467371992767,0.0,0.0,0.0,0.0,0.001851097447797656,0.0017261853208765388,-0.000456567679066211,0.9998764991760254,0.0,0.0,0.0,-46.5118408203125,4.14813756942749,0.7587845325469971,8418.7353515625,0
306.46799999999894,0.003695339895784855,-0.03006850555539131,0.0006282214308157563,0.0,0.0,0.0,0.0,0.0011708351084962487,0.0028847495559602976,-0.0006738510564900935,1.0001895427703857,0.0,0.0,0.0,-46.494930267333984,4.115385055541992,0.7727261781692505,8415.6748046875,0
316.34499999999935,0.0036692041903734207,-0.02990175597369671,0.0007469842676073313,0.0,0.0,0.0,0.0,-0.0014441637322306633,0.007065101992338896,-0.0010899752378463745,1.000425934791565,0.0,0.0,0.0,-46.512325286865234,4.130876541137695,0.7476702332496643,8418.8232421875,0
326.23099999999977,0.003671162761747837,-0.03004457987844944,0.0006501526804640889,0.0,0.0,0.0,0.0,-0.0006295546190813184,-0.00253282580524683,0.000164554308867082,1.001866340637207,0.0,0.0,0.0,-46.49473190307617,4.105345249176025,0.7648575901985168,8415.638671875,0
336.1170000000002,0.003575581591576338,-0.02983570285141468,0.0007556537166237831,0.0,0.0,0.0,0.0,-0.0019940936472266912,0.0027425012085586786,-0.0010987056884914637,0.9984400868415833,0.0,0.0,0.0,-46.506736755371094,4.127264499664307,0.7143315672874451,8417.8115234375,0
345.9989999999998,0.003600332187488675,-0.029930390417575836,0.0006557185552082956,0.0,0.0,0.0,0.0,-0.0024215891025960445,-0.0050370898097753525,-0.001550686894915998,0.9971547722816467,0.0,0.0,0.0,-46.48796081542969,4.109923362731934,0.7227828502655029,8414.4130859375,0
355.8959999999988,0.0035551071632653475,-0.029771173372864723,0.0007582330727018416,0.0,0.0,0.0,0.0,0.0013629777822643518,0.00040439353324472904,-1.0927122275461443e-05,0.9975783228874207,0.0,0.0,0.0,-46.50275421142578,4.1305012702941895,0.691801905632019,8417.0908203125,0
365.77299999999923,0.003571363165974617,-0.02988419495522976,0.0006474905530922115,0.0,0.0,0.0,0.0,-9.789977775653824e-05,-0.004224294796586037,-0.0011296176817268133,0.9994409084320068,0.0,0.0,0.0,-46.48241424560547,4.113888740539551,0.7106873393058777,8413.4091796875,0
375.67399999999907,0.00355900707654655,-0.029741482809185982,0.0007499163621105254,0.0,0.0,0.0,0.0,-0.0006992682465352118,0.0016945766983553767,0.0018911458319053054,1.000285029411316,0.0,0.0,0.0,-46.49409866333008,4.134455680847168,0.6989202499389648,8415.5244140625,0
385.54299999999967,0.003517559263855219,-0.02992655523121357,0.0006617096369154751,0.0,0.0,0.0,0.0,-0.0003727589501067996,-0.0034522751811891794,-0.00011644040932878852,1.00078547000885,0.0,0.0,0.0,-46.47446823120117,4.0959086418151855,0.7181218266487122,8411.970703125,0
395.4449999999997,0.0035440309438854456,-0.02983185648918152,0.0007528003770858049,0.0,0.0,0.0,0.0,0.0005814168252982199,0.0045090047642588615,0.0009267220157198608,1.0024372339248657,0.0,0.0,0.0,-46.480613708496094,4.114112377166748,0.7184241414070129,8413.083984375,0
405.3149999999987,0.0035775501746684313,-0.029924901202321053,0.0006359718390740454,0.0,0.0,0.0,0.0,0.0017281577456742525,-0.0034102662466466427,-0.00010344870679546148,1.0002174377441406,0.0,0.0,0.0,-46.46120071411133,4.104104995727539,0.7415667772293091,8409.5703125,0
415.21999999999935,0.003575744805857539,-0.029812349006533623,0.0007229357142932713,0.0,0.0,0.0,0.0,0.0008855491760186851,-0.002998586744070053,0.003400652902200818,1.0012903213500977,0.0,0.0,0.0,-46.469024658203125,4.109914302825928,0.7325963973999023,8410.986328125,0
425.09000000000015,0.003567548468708992,-0.029950467869639397,0.000636171258520335,0.0,0.0,0.0,0.0,-0.0009024037863127887,0.003110756864771247,4.5385368139250204e-05,1.0031461715698242,0.0,0.0,0.0,-46.44945526123047,4.087419509887695,0.759708046913147,8407.443359375,0
434.991,0.003639485454186797,-0.029886934906244278,0.0007382755284197628,0.0,0.0,0.0,0.0,0.0011497128289192915,0.0008503813878633082,0.004401523154228926,0.9985571503639221,0.0,0.0,0.0,-46.45779800415039,4.107539176940918,0.7746171355247498,8408.9541015625,0
444.8580000000002,0.0036368928849697113,-0.03001830354332924,0.0006598994368687272,0.0,0.0,0.0,0.0,-0.002326014218851924,-0.000348064728314057,0.0010459152981638908,0.9989952445030212,0.0,0.0,0.0,-46.44023132324219,4.092130184173584,0.7843239307403564,8405.7744140625,0
454.7489999999998,0.003660369198769331,-0.029936619102954865,0.0007542654639109969,0.0,0.0,0.0,0.0,0.001772420946508646,0.0013854143908247352,0.003540928242728114,0.9993923902511597,0.0,0.0,0.0,-46.453426361083984,4.105982780456543,0.7722246646881104,8408.1630859375,0
464.6270000000004,0.0036494899541139603,-0.03008427657186985,0.0006688466528430581,0.0,0.0,0.0,0.0,-0.0008827708661556244,0.0013484919909387827,-0.0011195818660780787,0.9987998604774475,0.0,0.0,0.0,-46.43825912475586,4.0829668045043945,0.7896936535835266,8405.4169921875,0
474.54299999999967,0.0036511390935629606,-0.02998444437980652,0.0007645742734894156,0.0,0.0,0.0,0.0,0.0016988774295896292,-0.0019639458041638136,0.001000028569251299,0.9979976415634155,0.0,0.0,0.0,-46.453956604003906,4.0992751121521,0.7774763703346252,8408.2587890625,0
484.40399999999863,0.0036905622109770775,-0.030055491253733635,0.0006720052333548665,0.0,0.0,0.0,0.0,-0.0015576750738546252,0.0038458367343991995,-0.0020962839480489492,0.9987492561340332,0.0,0.0,0.0,-46.436588287353516,4.0899739265441895,0.7851561903953552,8405.1142578125,0
494.2960000000003,0.0036855372600257397,-0.029950324445962906,0.0007648058235645294,0.0,0.0,0.0,0.0,-0.001861324068158865,-0.003739265725016594,-0.00033454468939453363,0.9989946484565735,0.0,0.0,0.0,-46.45597839355469,4.106361389160156,0.7739227414131165,8408.625,0
504.1790000000001,0.0036819970700889826,-0.03009742870926857,0.0006664717802777886,0.0,0.0,0.0,0.0,-0.0006873966776765883,-0.000756899593397975,0.0034084366634488106,0.9999700784683228,0.0,0.0,0.0,-46.441707611083984,4.081853866577148,0.7880083918571472,8406.0419921875,0
514.0679999999993,0.0036610339302569628,-0.029975472018122673,0.0007590484456159174,0.0,0.0,0.0,0.0,0.0011572461808100343,-0.0032514967024326324,0.00041261734440922737,0.9999801516532898,0.0,0.0,0.0,-46.45658874511719,4.1035380363464355,0.7839561104774475,8408.734375,0
523.9419999999991,0.0036926770117133856,-0.030054030939936638,0.0006700566154904664,0.0,0.0,0.0,0.0,0.001691431854851544,0.006121368147432804,-0.004360203631222248,1.000942587852478,0.0,0.0,0.0,-46.44056701660156,4.092709541320801,0.78989177942276,8405.8349609375,0
533.8379999999997,0.003655321430414915,-0.029896043241024017,0.0007771486416459084,0.0,0.0,0.0,0.0,-0.0016677079256623983,0.0015752478502690792,-0.00025411066599190235,0.9991493821144104,0.0,0.0,0.0,-46.454341888427734,4.110911846160889,0.7672443985939026,8408.328125,0
543.7150000000001,0.0036742473021149635,-0.029996123164892197,0.000683625868987292,0.0,0.0,0.0,0.0,0.0028745904564857483,0.005039979238063097,-0.0018067356431856751,0.9989858269691467,0.0,0.0,0.0,-46.43739700317383,4.104625225067139,0.7798628211021423,8405.2607421875,0
553.619999999999,0.003581156488507986,-0.029818793758749962,0.0007681334391236305,0.0,0.0,0.0,0.0,-0.00315437326207757,-0.0031516284216195345,0.0027155212592333555,1.0017189979553223,0.0,0.0,0.0,-46.44959259033203,4.120205879211426,0.7372523546218872,8407.46875,0
563.4840000000004,0.0036400959361344576,-0.02990431897342205,0.0006145327351987362,0.0,0.0,0.0,0.0,-0.0031813266687095165,0.0006493713008239865,-0.0012219046475365758,0.9985378980636597,0.0,0.0,0.0,-46.42399597167969,4.11168098449707,0.7580271363258362,8402.8359375,0
573.3940000000002,0.0036122691817581654,-0.029792333021759987,0.0006839070119895041,0.0,0.0,0.0,0.0,-0.0009123864583671093,0.002444462850689888,0.0007720571011304855,0.9994946718215942,0.0,0.0,0.0,-46.43429946899414,4.132428169250488,0.7416598796844482,8404.7001953125,0
583.2559999999994,0.003611755557358265,-0.029914120212197304,0.0005913693457841873,0.0,0.0,0.0,0.0,0.001186937908641994,0.002871846081689,-0.0012592955026775599,1.0002224445343018,0.0,0.0,0.0,-46.417442321777344,4.1136651039123535,0.7339529991149902,8401.6494140625,0
593.152,0.0036445953883230686,-0.02980213798582554,0.0006976715521886945,0.0,0.0,0.0,0.0,-0.0034433940891176462,0.00436581764370203,-0.002369445515796542,0.9987719655036926,0.0,0.0,0.0,-46.429256439208984,4.133703708648682,0.7195236682891846,8403.787109375,0
603.0329999999994,0.003636186243966222,-0.029925083741545677,0.0006180149503052235,0.0,0.0,0.0,0.0,0.0026753293350338936,0.0037182301748543978,-0.002267590258270502,0.999422550201416,0.0,0.0,0.0,-46.415157318115234,4.115634918212891,0.7292953729629517,8401.236328125,0
612.9279999999999,0.0036093832459300756,-0.029802266508340836,0.0006957589648663998,0.0,0.0,0.0,0.0,0.0006414455710910261,0.002830146113410592,-0.0013955020112916827,0.9986940622329712,0.0,0.0,0.0,-46.42837905883789,4.134214878082275,0.725444495677948,8403.6279296875,0
622.8019999999997,0.0036085417959839106,-0.029914172366261482,0.0006080146413296461,0.0,0.0,0.0,0.0,-0.0015461528673768044,-0.003153270110487938,-0.0019175931811332703,1.0010874271392822,0.0,0.0,0.0,-46.41593933105469,4.113529682159424,0.7137284874916077,8401.3779296875,0
632.7009999999991,0.003636928042396903,-0.0298055037856102,0.0007123805698938668,0.0,0.0,0.0,0.0,-0.0022255529183894396,-0.0017064869171008468,0.004296875558793545,1.0013413429260254,0.0,0.0,0.0,-46.42914581298828,4.134845733642578,0.7067811489105225,8403.767578125,0
642.5789999999997,0.003671436570584774,-0.029890472069382668,0.0005978980916552246,0.0,0.0,0.0,0.0,-0.0033738960046321154,-0.003917927388101816,-5.256694203126244e-05,0.9996212124824524,0.0,0.0,0.0,-46.408023834228516,4.133421897888184,0.7322948575019836,8399.9443359375,0
652.4669999999987,0.003693440230563283,-0.02977704256772995,0.0007057877373881638,0.0,0.0,0.0,0.0,-0.0008917591767385602,0.002750897314399481,0.0016080258646979928,0.9995806813240051,0.0,0.0,0.0,-46.422428131103516,4.149960517883301,0.72878497838974,8402.5517578125,0
662.3490000000002,0.0036769104190170765,-0.0299276951700449,0.0006190103013068438,0.0,0.0,0.0,0.0,0.0015002089785411954,0.003402942791581154,0.0022611652966588736,1.000304937362671,0.0,0.0,0.0,-46.40547180175781,4.131865501403809,0.7548813223838806,8399.482421875,0
672.2520000000004,0.0036349063739180565,-0.029792631044983864,0.0007017872994765639,0.0,0.0,0.0,0.0,0.0017828253330662847,-0.001966518582776189,-0.001354964217171073,0.9987980723381042,0.0,0.0,0.0,-46.41618347167969,4.144845485687256,0.7164554595947266,8401.421875,0
682.116,0.0036308295093476772,-0.02992067113518715,0.0006132192793302238,0.0,0.0,0.0,0.0,0.003174765734001994,0.0037579627241939306,-0.0021306874696165323,0.9997389912605286,0.0,0.0,0.0,-46.397377014160156,4.123403072357178,0.7293735146522522,8398.017578125,0
692.012999999999,0.0036623531486839056,-0.02981744147837162,0.0007208047900348902,0.0,0.0,0.0,0.0,0.00016911815328057855,0.0014696487924084067,-0.0032153702341020107,1.000095009803772,0.0,0.0,0.0,-46.411930084228516,4.139461517333984,0.7132620811462402,8400.6513671875,0
701.8940000000002,0.0036099327262490988,-0.030007192865014076,0.0006590314442291856,0.0,0.0,0.0,0.0,0.001780359772965312,-0.001940680667757988,-0.0008379399077966809,0.9990442395210266,0.0,0.0,0.0,-46.39432907104492,4.09825325012207,0.7342325448989868,8397.4658203125,0
711.7860000000001,0.0036227775271981955,-0.02989218756556511,0.000770456506870687,0.0,0.0,0.0,0.0,-0.0018384384457021952,0.0024736353661864996,-0.002212885767221451,1.000251293182373,0.0,0.0,0.0,-46.40626907348633,4.116394996643066,0.7174474596977234,8399.626953125,0
721.6569999999992,0.003650554921478033,-0.03001105971634388,0.0006505851051770151,0.0,0.0,0.0,0.0,-0.00021445001766551286,-0.0005152248777449131,-0.0011503975838422775,0.9976897835731506,0.0,0.0,0.0,-46.395267486572266,4.104516506195068,0.7444987297058105,8397.6357421875,0
731.5519999999997,0.00360085885040462,-0.0298659298568964,0.0007410080288536847,0.0,0.0,0.0,0.0,0.001653569284826517,0.006793046835809946,-0.001232614740729332,0.9975786209106445,0.0,0.0,0.0,-46.40704345703125,4.120434284210205,0.7166860103607178,8399.767578125,0
741.4409999999989,0.0035710902884602547,-0.030033962801098824,0.0006628060364164412,0.0,0.0,0.0,0.0,-0.0036717173643410206,-0.012474828399717808,0.0018717050552368164,1.000295877456665,0.0,0.0,0.0,-46.39202117919922,4.0939154624938965,0.7220925092697144,8397.048828125,0
751.3269999999993,0.003545870305970311,-0.02990969829261303,0.0007537273340858519,0.0,0.0,0.0,0.0,-0.0009688576101325452,-0.0041545419953763485,0.0020759059116244316,1.000734806060791,0.0,0.0,0.0,-46.40113067626953,4.104936599731445,0.7037544846534729,8398.697265625,0
761.2009999999991,0.0035694309044629335,-0.030025871470570564,0.0006265213014557958,0.0,0.0,0.0,0.0,0.001990305259823799,-0.006955315358936787,-0.0008850071462802589,0.9996681213378906,0.0,0.0,0.0,-46.385276794433594,4.095770835876465,0.7382224202156067,8395.8271484375,0
771.0969999999998,0.0035447231493890285,-0.029899725690484047,0.0007180342799983919,0.0,0.0,0.0,0.0,0.0014311886625364423,0.005068556871265173,-0.0032112090848386288,0.9980920553207397,0.0,0.0,0.0,-46.39569091796875,4.112035751342773,0.727692723274231,8397.7119140625,0
780.9719999999998,0.003561861114576459,-0.030004020780324936,0.0006064798217266798,0.0,0.0,0.0,0.0,0.00024197464517783374,-0.003138373838737607,-0.00045715970918536186,0.9983013868331909,0.0,0.0,0.0,-46.37776565551758,4.09147834777832,0.7384779453277588,8394.4677734375,0
790.8719999999994,0.0036129108630120754,-0.029924510046839714,0.0007061715587042272,0.0,0.0,0.0,0.0,0.0029387969989329576,0.0018181720515713096,0.00033000987605191767,1.000971794128418,0.0,0.0,0.0,-46.388423919677734,4.109775066375732,0.7307837009429932,8396.396484375,0
800.744999999999,0.0036359222140163183,-0.03001074492931366,0.0006054017576389015,0.0,0.0,0.0,0.0,-0.0001361003814963624,-0.004170993342995644,-0.002150181448087096,1.0011134147644043,0.0,0.0,0.0,-46.37275314331055,4.100024223327637,0.743003785610199,8393.560546875,0
810.6409999999996,0.003638274036347866,-0.02987830527126789,0.0007190887117758393,0.0,0.0,0.0,0.0,-0.0010669188341125846,-0.0022699551191180944,0.00022066637757234275,0.9996126890182495,0.0,0.0,0.0,-46.387027740478516,4.115693092346191,0.7387966513633728,8396.14453125,0
820.5169999999998,0.0036340532824397087,-0.030007753521203995,0.0006272050668485463,0.0,0.0,0.0,0.0,-0.0043142084032297134,0.0008785201353020966,-0.0026377681642770767,0.9999112486839294,0.0,0.0,0.0,-46.3720588684082,4.097116470336914,0.7630550265312195,8393.435546875,0
830.4110000000001,0.003583339974284172,-0.029865870252251625,0.0007129859877750278,0.0,0.0,0.0,0.0,-0.0009012952214106917,-0.007352343760430813,-0.0006698433426208794,0.9996551871299744,0.0,0.0,0.0,-46.381038665771484,4.104047775268555,0.7394013404846191,8395.060546875,0
840.2870000000003,0.003605262143537402,-0.029961809515953064,0.0006106694927439094,0.0,0.0,0.0,0.0,0.0008339459891431034,0.005273368209600449,-0.0024539753794670105,1.0003182888031006,0.0,0.0,0.0,-46.363834381103516,4.100702285766602,0.7536928057670593,8391.9462890625,0
850.1800000000003,0.0036381117533892393,-0.029853932559490204,0.0007268894114531577,0.0,0.0,0.0,0.0,0.0017573246732354164,-0.00341428117826581,0.001651223748922348,0.9995139241218567,0.0,0.0,0.0,-46.37773895263672,4.129344463348389,0.7422280311584473,8394.462890625,0
860.0619999999999,0.003651938633993268,-0.029961399734020233,0.0006310523604042828,0.0,0.0,0.0,0.0,-0.0005264111678116024,0.001121910405345261,0.001985723851248622,0.9979832768440247,0.0,0.0,0.0,-46.36197280883789,4.118109226226807,0.7466940879821777,8391.6083984375,0
869.9560000000001,0.003602825105190277,-0.029828893020749092,0.000710946274921298,0.0,0.0,0.0,0.0,-0.00165872264187783,-0.0021603682544082403,0.0015391511842608452,0.996818482875824,0.0,0.0,0.0,-46.37263870239258,4.127135276794434,0.7245533466339111,8393.5400390625,0
879.8289999999997,0.003592281136661768,-0.029981257393956184,0.0006021565641276538,0.0,0.0,0.0,0.0,0.0015640774508938193,0.0006083839107304811,-0.0002506147138774395,0.9974957704544067,0.0,0.0,0.0,-46.359188079833984,4.106842994689941,0.7362886071205139,8391.10546875,0
889.741,0.0035406395327299833,-0.029819147661328316,0.0007011015550233424,0.0,0.0,0.0,0.0,0.0021664786618202925,0.00452787009999156,-0.0012616160092875361,1.0014183521270752,0.0,0.0,0.0,-46.37214279174805,4.126640319824219,0.7180657386779785,8393.4501953125,0
899.6009999999987,0.0035527392756193876,-0.029924258589744568,0.0005987776094116271,0.0,0.0,0.0,0.0,-0.0021341992542147636,-0.006753451190888882,4.177533264737576e-05,0.9980669617652893,0.0,0.0,0.0,-46.3596076965332,4.1084513664245605,0.7214521765708923,8391.1806640625,0
909.4930000000004,0.0035604038275778294,-0.029816240072250366,0.0006896448321640491,0.0,0.0,0.0,0.0,0.0010961497901007533,0.008528272621333599,-0.0019083087099716067,0.9982661008834839,0.0,0.0,0.0,-46.372520446777344,4.12522554397583,0.7084024548530579,8393.5185546875,0
919.3739999999998,0.0035723065957427025,-0.029920628294348717,0.0005839974037371576,0.0,0.0,0.0,0.0,0.00152997812256217,0.001824192819185555,0.002356669632717967,0.9992881417274475,0.0,0.0,0.0,-46.357826232910156,4.115591049194336,0.7254486083984375,8390.8583984375,0
929.2659999999996,0.0035746225621551275,-0.029821688309311867,0.0006672990275546908,0.0,0.0,0.0,0.0,-0.0018531326204538345,0.00271062389947474,0.00030068421619944274,0.9998717308044434,0.0,0.0,0.0,-46.37082290649414,4.125403881072998,0.7063848376274109,8393.2109375,0
939.1489999999994,0.0036144934128969908,-0.029893748462200165,0.000546307535842061,0.0,0.0,0.0,0.0,0.0005570759531110525,0.0024214228615164757,0.0012118141166865826,0.9982609748840332,0.0,0.0,0.0,-46.35578536987305,4.118326187133789,0.7116170525550842,8390.4892578125,0
949.0329999999994,0.00359407183714211,-0.029784953221678734,0.0006199373165145516,0.0,0.0,0.0,0.0,0.00048193600377999246,0.0020200570579618216,0.0009146884549409151,0.9972025752067566,0.0,0.0,0.0,-46.366905212402344,4.1336164474487305,0.6893686652183533,8392.501953125,0
958.9200000000001,0.0035884426906704903,-0.029891254380345345,0.0005320599302649498,0.0,0.0,0.0,0.0,0.0005921439151279628,-0.0009674900793470442,-0.00015804932627361268,1.0000693798065186,0.0,0.0,0.0,-46.3485107421875,4.119789123535156,0.6945911049842834,8389.1728515625,0
968.8050000000003,0.0035929984878748655,-0.029786981642246246,0.0006170402048155665,0.0,0.0,0.0,0.0,0.004823595285415649,0.0028375275433063507,0.0020394851453602314,0.9999814033508301,0.0,0.0,0.0,-46.36271667480469,4.13848876953125,0.6799511313438416,8391.744140625,0
978.6980000000003,0.0035293044056743383,-0.029972542077302933,0.0005413611652329564,0.0,0.0,0.0,0.0,0.0014101099222898483,-0.0004245069285389036,-0.0017008427530527115,1.0020378828048706,0.0,0.0,0.0,-46.34410095214844,4.1008124351501465,0.7098127603530884,8388.3740234375,0
988.5820000000003,0.003550704102963209,-0.029860105365514755,0.0006445099716074765,0.0,0.0,0.0,0.0,0.0004749525396618992,0.002543617272749543,0.0026025050319731236,0.9986257553100586,0.0,0.0,0.0,-46.3559684753418,4.116899013519287,0.6946804523468018,8390.5224609375,0
998.4589999999989,0.003552356269210577,-0.029986383393406868,0.0005266551161184907,0.0,0.0,0.0,0.0,-0.00038056171615608037,-0.0025363939348608255,0.0002900877734646201,1.0004417896270752,0.0,0.0,0.0,-46.34128952026367,4.099408149719238,0.7198814749717712,8387.8662109375,0
1008.3469999999998,0.0035442656371742487,-0.029852017760276794,0.0006283856346271932,0.0,0.0,0.0,0.0,0.0004910305724479258,0.0006010087672621012,0.0016133791068568826,0.9996662139892578,0.0,0.0,0.0,-46.35176086425781,4.115978717803955,0.7016932368278503,8389.7607421875,0
1018.2299999999996,0.0035554864443838596,-0.029940122738480568,0.0005332189030013978,0.0,0.0,0.0,0.0,-0.0010709004709497094,0.0019048854010179639,0.00034259402309544384,0.9987661242485046,0.0,0.0,0.0,-46.339599609375,4.10232400894165,0.7054867744445801,8387.5595703125,0
1028.1189999999988,0.0036066172178834677,-0.029831428080797195,0.0006578520406037569,0.0,0.0,0.0,0.0,0.001460067112930119,0.002381878672167659,-0.003791110124439001,1.0001552104949951,0.0,0.0,0.0,-46.3509635925293,4.123237609863281,0.6967054009437561,8389.6162109375,0
1038.0010000000002,0.003643082221969962,-0.029910268262028694,0.0005365565302781761,0.0,0.0,0.0,0.0,-0.0005470758187584579,0.001331303152255714,0.0007019808399491012,0.9985276460647583,0.0,0.0,0.0,-46.33290481567383,4.115995407104492,0.7008537650108337,8386.34765625,0
1047.8909999999996,0.0036068479530513287,-0.029785973951220512,0.0006193871959112585,0.0,0.0,0.0,0.0,-0.0012350825127214193,-0.002991745248436928,0.0016392493853345513,0.9981707334518433,0.0,0.0,0.0,-46.34909439086914,4.126028060913086,0.6715255379676819,8389.2783203125,0
1057.777,0.0036198499146848917,-0.029884230345487595,0.0005117917899042368,0.0,0.0,0.0,0.0,0.00018098799046128988,-0.002255056519061327,-0.0026837242767214775,1.0006542205810547,0.0,0.0,0.0,-46.33079528808594,4.118208885192871,0.7009028792381287,8385.9658203125,0
1067.67,0.003603621618822217,-0.029771268367767334,0.0005952247884124517,0.0,0.0,0.0,0.0,-0.002053893404081464,0.0019737572874873877,0.001341384369879961,1.0023818016052246,0.0,0.0,0.0,-46.34748077392578,4.1307373046875,0.6858471632003784,8388.986328125,0
1077.548999999999,0.0035588101018220186,-0.02993157133460045,0.0005220535676926374,0.0,0.0,0.0,0.0,-0.0010848860256373882,0.004316709935665131,-0.0010069782147184014,1.0013853311538696,0.0,0.0,0.0,-46.34086227416992,4.1089043617248535,0.7019832134246826,8387.7880859375,0
1087.437,0.00356461969204247,-0.02982454001903534,0.0006214639288373291,0.0,0.0,0.0,0.0,0.002105534076690674,0.0021278702188283205,-0.0026212232187390327,1.0002281665802002,0.0,0.0,0.0,-46.35539245605469,4.1248369216918945,0.6828699707984924,8390.4189453125,0
1097.3310000000001,0.0035082667600363493,-0.030000464990735054,0.0005632573738694191,0.0,0.0,0.0,0.0,0.002193533116951585,0.0008058467647060752,-0.0019805205520242453,1.0017513036727905,0.0,0.0,0.0,-46.343894958496094,4.097182273864746,0.6931567192077637,8388.337890625,0
1107.2029999999995,0.003482350381091237,-0.029834462329745293,0.0006936669233255088,0.0,0.0,0.0,0.0,0.002451082691550255,-0.000265404989477247,0.0005794496391899884,1.0015205144882202,0.0,0.0,0.0,-46.36240768432617,4.119291305541992,0.6601744294166565,8391.6884765625,0
1117.1039999999994,0.003468899056315422,-0.02996313013136387,0.0006232237792573869,0.0,0.0,0.0,0.0,-0.0018044575117528439,0.0012618969194591045,-0.0007601399556733668,1.0005601644515991,0.0,0.0,0.0,-46.34780502319336,4.097005367279053,0.6650670170783997,8389.044921875,0
1126.9740000000002,0.0034850032534450293,-0.029830846935510635,0.0007586132269352674,0.0,0.0,0.0,0.0,-0.0034338166005909443,-0.0013452119892463088,0.0007633798522874713,1.0006309747695923,0.0,0.0,0.0,-46.3633918762207,4.11997652053833,0.6574804186820984,8391.8662109375,0
1136.866,0.0034700902178883553,-0.029978100210428238,0.0006736326031386852,0.0,0.0,0.0,0.0,0.0007636718801222742,-0.007395613472908735,0.0023572458885610104,0.9997472167015076,0.0,0.0,0.0,-46.350067138671875,4.100565433502197,0.6701196432113647,8389.455078125,0
1146.7559999999994,0.0034991728607565165,-0.029878947883844376,0.0007911216234788299,0.0,0.0,0.0,0.0,0.0012500794837251306,0.003678301814943552,-0.0035561237018555403,1.001781702041626,0.0,0.0,0.0,-46.361698150634766,4.1202287673950195,0.6616210341453552,8391.5595703125,0
1156.6319999999996,0.0034845878835767508,-0.03002054989337921,0.0007170021999627352,0.0,0.0,0.0,0.0,-0.002097425516694784,-0.0005055778892710805,0.0013340158620849252,1.0015515089035034,0.0,0.0,0.0,-46.35079574584961,4.100243091583252,0.6948361396789551,8389.5859375,0
1166.5209999999988,0.003497177502140403,-0.02991495281457901,0.000828213116619736,0.0,0.0,0.0,0.0,-0.002927049994468689,-0.0010827857768163085,-0.0021138815209269524,1.000092625617981,0.0,0.0,0.0,-46.360965728759766,4.117493629455566,0.6686424016952515,8391.427734375,0
1176.4120000000003,0.003489698749035597,-0.030048241838812828,0.0007589896558783948,0.0,0.0,0.0,0.0,0.00031655895872972906,-0.00277030561119318,-0.002788364188745618,1.0005905628204346,0.0,0.0,0.0,-46.34336471557617,4.1030120849609375,0.6780060529708862,8388.2412109375,0
1186.2909999999993,0.0035641638096421957,-0.0299982912838459,0.0008710151887498796,0.0,0.0,0.0,0.0,0.0007184530259110034,0.004052144009619951,0.0023966780863702297,0.9983327984809875,0.0,0.0,0.0,-46.35409164428711,4.127093315124512,0.6996158957481384,8390.18359375,0
1196.1859999999997,0.0036162917967885733,-0.03008132055401802,0.000758448033593595,0.0,0.0,0.0,0.0,-0.0012042024172842503,0.0008345723035745323,-0.0016318745911121368,0.9995722770690918,0.0,0.0,0.0,-46.3367805480957,4.123612880706787,0.7099183797836304,8387.0498046875,0
1206.0730000000003,0.0035542745608836412,-0.029934117570519447,0.0008520367555320263,0.0,0.0,0.0,0.0,0.001121998648159206,0.006733809597790241,0.0002914595534093678,1.000556230545044,0.0,0.0,0.0,-46.347930908203125,4.133671760559082,0.6774380207061768,8389.068359375,0
1215.9470000000001,0.0035939670633524656,-0.030035782605409622,0.0007319462602026761,0.0,0.0,0.0,0.0,0.0034958820324391127,0.0016849362291395664,0.0011417997302487493,0.9990575909614563,0.0,0.0,0.0,-46.33447265625,4.123666286468506,0.688895583152771,8386.6318359375,0
1225.8320000000003,0.0035990560427308083,-0.029914161190390587,0.0008467138395644724,0.0,0.0,0.0,0.0,-0.0017791715217754245,-0.00039175458368845284,-0.005341419018805027,0.9976100325584412,0.0,0.0,0.0,-46.343238830566406,4.138282775878906,0.6687459349632263,8388.21875,0
1235.7259999999987,0.0036160070449113846,-0.03003246709704399,0.0007502652588300407,0.0,0.0,0.0,0.0,0.0012150797992944717,-0.005443539936095476,0.004255372099578381,1.0003329515457153,0.0,0.0,0.0,-46.32962417602539,4.122097969055176,0.6762088537216187,8385.75390625,0
1245.6099999999988,0.0035640806891024113,-0.029899433255195618,0.0008357377373613417,0.0,0.0,0.0,0.0,0.004430228844285011,0.004684980493038893,-0.0035280731972306967,0.9985753297805786,0.0,0.0,0.0,-46.341453552246094,4.136715412139893,0.6560285687446594,8387.8955078125,0
1255.4969999999994,0.00360408634878695,-0.0299875196069479,0.0007229194743558764,0.0,0.0,0.0,0.0,0.0016068139811977744,-0.0028305838350206614,-2.399630466243252e-05,0.9975415468215942,0.0,0.0,0.0,-46.3282356262207,4.134353160858154,0.6799808740615845,8385.5029296875,0
1265.3809999999994,0.0036166729405522346,-0.029870612546801567,0.0008323747897520661,0.0,0.0,0.0,0.0,-0.0015740161761641502,0.0007747876807115972,0.0007739670691080391,0.9994939565658569,0.0,0.0,0.0,-46.34029006958008,4.148245811462402,0.6562337279319763,8387.6845703125,0
1275.271999999999,0.003650699509307742,-0.029969066381454468,0.0007166783907450736,0.0,0.0,0.0,0.0,0.0018657110631465912,-0.004163867328315973,0.0020623402670025826,0.998958170413971,0.0,0.0,0.0,-46.32320022583008,4.138557434082031,0.6764484643936157,8384.591796875,0
1285.1479999999992,0.003610396757721901,-0.029839903116226196,0.0007972765015438199,0.0,0.0,0.0,0.0,0.0008708438253961504,0.0029615755192935467,0.0028968367259949446,1.0012199878692627,0.0,0.0,0.0,-46.33539581298828,4.150916576385498,0.6613594889640808,8386.798828125,0
1295.0479999999989,0.0036298406776040792,-0.029949843883514404,0.000690507295075804,0.0,0.0,0.0,0.0,0.0018681848887354136,-0.0029436126351356506,-0.00502611231058836,1.0013427734375,0.0,0.0,0.0,-46.320518493652344,4.139031410217285,0.6712256669998169,8384.1064453125,0
1304.9269999999997,0.003564962651580572,-0.02979200705885887,0.000781014037784189,0.0,0.0,0.0,0.0,-0.0003628885024227202,0.003202505176886916,0.0011960716219618917,0.9981540441513062,0.0,0.0,0.0,-46.336631774902344,4.150684356689453,0.6434963345527649,8387.0224609375,0
1314.824999999999,0.003585114376619458,-0.029903888702392578,0.0006702271057292819,0.0,0.0,0.0,0.0,-0.0007532423478551209,0.0007120001828297973,-0.0003022153105121106,0.9997536540031433,0.0,0.0,0.0,-46.322792053222656,4.142378330230713,0.6590137481689453,8384.517578125,0
1324.700999999999,0.003575337817892432,-0.029795769602060318,0.000755454646423459,0.0,0.0,0.0,0.0,-0.00047109147999435663,0.003888142528012395,-4.203127900836989e-05,0.9992864727973938,0.0,0.0,0.0,-46.33747863769531,4.15606689453125,0.6432157754898071,8387.17578125,0
1334.5919999999987,0.0035913854371756315,-0.029908180236816406,0.0006500029703602195,0.0,0.0,0.0,0.0,-0.001479519996792078,-0.000917472701985389,0.00036155767156742513,1.000780701637268,0.0,0.0,0.0,-46.32439422607422,4.140573978424072,0.6490556001663208,8384.8076171875,0
1344.4709999999995,0.0035827774554491043,-0.029812322929501534,0.0007252381183207035,0.0,0.0,0.0,0.0,0.0013687963364645839,0.0030039416160434484,0.0028984553646296263,0.9999738931655884,0.0,0.0,0.0,-46.340232849121094,4.151920318603516,0.6251986622810364,8387.673828125,0
1354.366,0.0036338171921670437,-0.029892634600400925,0.0005976185202598572,0.0,0.0,0.0,0.0,-0.0008540347334928811,-0.0021873752120882273,0.0008639812003821135,1.0000654458999634,0.0,0.0,0.0,-46.32339859008789,4.1435956954956055,0.6427616477012634,8384.626953125,0
1364.2489999999998,0.0036665217485278845,-0.029789332300424576,0.0006988910608924925,0.0,0.0,0.0,0.0,-0.00046588602708652616,-0.001933898776769638,-0.00026016461197286844,0.9993812441825867,0.0,0.0,0.0,-46.33903503417969,4.1618146896362305,0.6316165924072266,8387.4580078125,0
1374.1350000000002,0.0036612411495298147,-0.029927676543593407,0.0006122122285887599,0.0,0.0,0.0,0.0,-0.0009643002995289862,0.0006010818178765476,-0.00044175892253406346,0.9988846182823181,0.0,0.0,0.0,-46.32460403442383,4.1408371925354,0.6575113534927368,8384.845703125,0
1384.0119999999988,0.0036940984427928925,-0.029845593497157097,0.0006938566220924258,0.0,0.0,0.0,0.0,-0.0015361557016149163,-0.0005077312816865742,0.0019292226061224937,0.9998902082443237,0.0,0.0,0.0,-46.337337493896484,4.160599708557129,0.6413446664810181,8387.150390625,0
1393.9069999999992,0.0036890192423015833,-0.0299807358533144,0.000613215786870569,0.0,0.0,0.0,0.0,-0.0012026081094518304,-0.0054777031764388084,-0.00011905396240763366,0.9998597502708435,0.0,0.0,0.0,-46.32393264770508,4.146157264709473,0.6645834445953369,8384.7236328125,0
1403.7879999999986,0.00366760091856122,-0.029835257679224014,0.0007117052446119487,0.0,0.0,0.0,0.0,-0.0008662565378472209,0.0011951010674238205,0.0027396013028919697,0.9992523789405823,0.0,0.0,0.0,-46.33488082885742,4.168693542480469,0.6540559530258179,8386.7060546875,0
1413.679,0.003661066759377718,-0.029984664171934128,0.0006224298267625272,0.0,0.0,0.0,0.0,0.0012666437542065978,0.0018048769561573863,-0.0009864438325166702,0.9999327063560486,0.0,0.0,0.0,-46.32093048095703,4.150027751922607,0.6788369417190552,8384.1806640625,0
1423.5569999999989,0.0036751949228346348,-0.029894134029746056,0.0007043389487080276,0.0,0.0,0.0,0.0,-0.0008983912994153798,-0.0005291113047860563,-0.0017401175573468208,0.9998968243598938,0.0,0.0,0.0,-46.33232116699219,4.161164283752441,0.6554995775222778,8386.2421875,0
1433.4560000000001,0.0036586918868124485,-0.030053455382585526,0.0006249481230042875,0.0,0.0,0.0,0.0,0.001926833181641996,-0.002100517274811864,0.003021921729668975,0.999698281288147,0.0,0.0,0.0,-46.32157516479492,4.136041164398193,0.6751625537872314,8384.2978515625,0
1443.3310000000001,0.0036410135217010975,-0.029905755072832108,0.0007404695497825742,0.0,0.0,0.0,0.0,0.0019082070793956518,-0.00125712004955858,0.002621149644255638,0.9979381561279297,0.0,0.0,0.0,-46.338645935058594,4.154514789581299,0.6594708561897278,8387.3876953125,0
1453.2250000000004,0.003642156720161438,-0.03004087321460247,0.0006473576067946851,0.0,0.0,0.0,0.0,0.0007348443032242358,-0.0010896624298766255,6.009123353578616e-06,0.9995580315589905,0.0,0.0,0.0,-46.324466705322266,4.137232780456543,0.6730552911758423,8384.8212890625,0
1463.1039999999994,0.0036350125446915627,-0.029904065653681755,0.0007655118824914098,0.0,0.0,0.0,0.0,-3.062411997234449e-05,0.0035414420999586582,-0.0009374244255013764,1.000112533569336,0.0,0.0,0.0,-46.34315490722656,4.168020725250244,0.6564884781837463,8388.203125,0
1472.9889999999996,0.003645426593720913,-0.03002621792256832,0.0006659229984506965,0.0,0.0,0.0,0.0,-0.003976174630224705,0.0007680922863073647,-0.0014964011497795582,0.9991520047187805,0.0,0.0,0.0,-46.329219818115234,4.148675441741943,0.6728656888008118,8385.681640625,0
1482.8739999999998,0.0035930033773183823,-0.029882045462727547,0.0007588024600408971,0.0,0.0,0.0,0.0,0.0013449291000142694,-0.005425543524324894,0.001325720571912825,1.0002288818359375,0.0,0.0,0.0,-46.340999603271484,4.159303665161133,0.6415998935699463,8387.8134765625,0
1492.7739999999994,0.0036114088725298643,-0.02998395450413227,0.0006583828944712877,0.0,0.0,0.0,0.0,-0.0016223867423832417,0.0003707470605149865,0.0029707138892263174,1.0003169775009155,0.0,0.0,0.0,-46.326385498046875,4.151582717895508,0.6491634845733643,8385.16796875,0
1502.6369999999988,0.0035745659843087196,-0.029865628108382225,0.000744375167414546,0.0,0.0,0.0,0.0,0.0007027632673271,-0.0007012090645730495,-0.0026224267203360796,0.9988152384757996,0.0,0.0,0.0,-46.342498779296875,4.165703296661377,0.630412220954895,8388.083984375,0
1512.5469999999987,0.0035697720013558865,-0.030004000291228294,0.0006431821384467185,0.0,0.0,0.0,0.0,-0.0014171807561069727,-0.004369627218693495,0.0006251588347367942,0.9978320598602295,0.0,0.0,0.0,-46.3275260925293,4.147419452667236,0.6454673409461975,8385.3740234375,0
1522.4159999999993,0.003557876218110323,-0.029880907386541367,0.0007437500753439963,0.0,0.0,0.0,0.0,-0.0017677719006314874,-0.005261681508272886,0.0027239443734288216,0.9991446733474731,0.0,0.0,0.0,-46.34162521362305,4.168239116668701,0.6341391801834106,8387.92578125,0
1532.313,0.003615639405325055,-0.029936734586954117,0.0006122163613326848,0.0,0.0,0.0,0.0,-0.0017889407463371754,-0.004463863559067249,0.0004824417701456696,0.9982407093048096,0.0,0.0,0.0,-46.329345703125,4.1732869148254395,0.6560150384902954,8385.7041015625,0
1542.1890000000003,0.0035893653985112906,-0.029825160279870033,0.0006889086216688156,0.0,0.0,0.0,0.0,-0.0009214800084009767,0.0008123950683511794,0.0011427755234763026,1.0010017156600952,0.0,0.0,0.0,-46.3452262878418,4.185925006866455,0.6467224955558777,8388.578125,0
1552.0769999999993,0.0035884305834770203,-0.02993670292198658,0.0005881187389604747,0.0,0.0,0.0,0.0,0.002451388631016016,-0.00015876554243732244,0.0013902944047003984,0.9993343353271484,0.0,0.0,0.0,-46.33147048950195,4.1781158447265625,0.6699385643005371,8386.0888671875,0
1561.9529999999995,0.003565589664503932,-0.029824256896972656,0.0006669908761978149,0.0,0.0,0.0,0.0,0.002300443360581994,0.0015972427790984511,-0.00062301114667207,1.0019255876541138,0.0,0.0,0.0,-46.347843170166016,4.189419269561768,0.6547972559928894,8389.0517578125,0
1571.8509999999987,0.003600086085498333,-0.029895910993218422,0.0005433844635263085,0.0,0.0,0.0,0.0,-0.0018007127800956368,-0.0032681524753570557,0.002214213600382209,0.9992263913154602,0.0,0.0,0.0,-46.332923889160156,4.184886932373047,0.6594823002815247,8386.3515625,0
1581.732,0.003645719960331917,-0.029782477766275406,0.0006605899543501437,0.0,0.0,0.0,0.0,0.001847870764322579,0.0016326074255630374,-0.0027069353964179754,0.9993807673454285,0.0,0.0,0.0,-46.34706115722656,4.205996513366699,0.6583980917930603,8388.91015625,0
1591.6319999999996,0.0036366984713822603,-0.029924185946583748,0.0005400172085501254,0.0,0.0,0.0,0.0,0.0014882154064252973,0.005165882408618927,0.000616689445450902,0.9987461566925049,0.0,0.0,0.0,-46.335880279541016,4.186477184295654,0.6747881174087524,8386.88671875,0
1601.4979999999996,0.0036572080571204424,-0.029802830889821053,0.0006473404355347157,0.0,0.0,0.0,0.0,0.0019189257873222232,-0.0009023563470691442,0.0020411540754139423,0.9996552467346191,0.0,0.0,0.0,-46.34938049316406,4.19464111328125,0.6558728814125061,8389.330078125,0
1611.393,0.0036304513923823833,-0.02995653823018074,0.000544216251000762,0.0,0.0,0.0,0.0,0.0013987108832225204,0.0034097987227141857,0.001494196942076087,1.0009760856628418,0.0,0.0,0.0,-46.33556365966797,4.170388698577881,0.6666641235351562,8386.8291015625,0
1621.2669999999998,0.0036471060011535883,-0.029824795201420784,0.0006581226480193436,0.0,0.0,0.0,0.0,-0.001831372850574553,-0.0005049228202551603,-0.0016227717278525233,1.0004303455352783,0.0,0.0,0.0,-46.35197448730469,4.185871124267578,0.6495892405509949,8389.7998046875,0
1631.1689999999999,0.003607141552492976,-0.029975226148962975,0.0005852725589647889,0.0,0.0,0.0,0.0,-0.00043706680298782885,0.004031268414109945,3.0787079595029354e-05,1.0001955032348633,0.0,0.0,0.0,-46.34341812133789,4.165780544281006,0.6618395447731018,8388.25,0
1641.0370000000003,0.0036365119740366936,-0.02984658069908619,0.000711205240804702,0.0,0.0,0.0,0.0,-0.00017862056847661734,0.0016048838151618838,-0.00017340880003757775,1.0020065307617188,0.0,0.0,0.0,-46.361202239990234,4.191650390625,0.652776300907135,8391.4697265625,0
1650.938,0.0036370675079524517,-0.02995750494301319,0.0006136496085673571,0.0,0.0,0.0,0.0,0.002652523573487997,0.003118820022791624,-5.251330094324658e-06,1.002320647239685,0.0,0.0,0.0,-46.34657669067383,4.175079822540283,0.6561763882637024,8388.822265625,0
1660.8179999999993,0.0036512163933366537,-0.02983061783015728,0.0007286443142220378,0.0,0.0,0.0,0.0,-0.0005784300738014281,-0.0004914837772957981,-8.91739982762374e-05,0.9982895255088806,0.0,0.0,0.0,-46.360050201416016,4.192118167877197,0.6360399127006531,8391.26171875,0
1670.7060000000001,0.0036758386995643377,-0.02990659326314926,0.0006278287037275732,0.0,0.0,0.0,0.0,0.0016638166271150112,0.005585683509707451,-0.0011089990148320794,1.000678300857544,0.0,0.0,0.0,-46.346370697021484,4.180979251861572,0.6384811401367188,8388.78515625,0
1680.5849999999991,0.0037082559429109097,-0.029824107885360718,0.0007147822179831564,0.0,0.0,0.0,0.0,5.003971091355197e-05,-0.004488770384341478,0.002963706385344267,1.0005079507827759,0.0,0.0,0.0,-46.360477447509766,4.201683521270752,0.6401481032371521,8391.3388671875,0
1690.4899999999998,0.003677425207570195,-0.029977038502693176,0.0006341325351968408,0.0,0.0,0.0,0.0,0.0016363175818696618,0.0027707619592547417,0.00043489172821864486,0.9988718628883362,0.0,0.0,0.0,-46.34220886230469,4.173674583435059,0.6556594371795654,8388.0322265625,0
1700.3629999999994,0.0036203237250447273,-0.029823023825883865,0.000718139810487628,0.0,0.0,0.0,0.0,-0.0024060450959950686,-0.0019525706302374601,1.0011322046921123e-05,0.9996216893196106,0.0,0.0,0.0,-46.351219177246094,4.187040328979492,0.6397267580032349,8389.6630859375,0
1710.2600000000002,0.003619261784479022,-0.02993096597492695,0.0006255709449760616,0.0,0.0,0.0,0.0,0.00228754710406065,0.0003597484319470823,-0.0014340071938931942,0.9989764094352722,0.0,0.0,0.0,-46.33824920654297,4.16836404800415,0.6521233320236206,8387.3154296875,0
1720.125,0.0036017554812133312,-0.029803164303302765,0.0007158645894378424,0.0,0.0,0.0,0.0,0.0010947801638394594,0.001092333230189979,-0.00012715546472463757,1.0006637573242188,0.0,0.0,0.0,-46.350032806396484,4.185656547546387,0.6465947031974792,8389.4482421875,0
1730.0259999999998,0.003611752763390541,-0.029895717278122902,0.0006173109286464751,0.0,0.0,0.0,0.0,-0.0021869514603167772,0.0011418805224820971,-0.0005048687453381717,1.0001983642578125,0.0,0.0,0.0,-46.33637619018555,4.167444705963135,0.6459934115409851,8386.9765625,0
1739.8949999999986,0.0036025578156113625,-0.029788289219141006,0.000698583316989243,0.0,0.0,0.0,0.0,-0.000306237576296553,0.009259647689759731,-0.0022650251630693674,0.9981448650360107,0.0,0.0,0.0,-46.34846496582031,4.178766250610352,0.6406785249710083,8389.1640625,0
1749.8050000000003,0.0035777296870946884,-0.029922276735305786,0.0006176666938699782,0.0,0.0,0.0,0.0,-0.0037545072846114635,-0.00514222402125597,0.0034335891250520945,1.000173807144165,0.0,0.0,0.0,-46.33795166015625,4.151555061340332,0.6370943188667297,8387.26171875,0
1759.6689999999999,0.003560879500582814,-0.029808294028043747,0.0006988311652094126,0.0,0.0,0.0,0.0,0.002188062062487006,0.0023028121795505285,-0.0007298656855709851,0.9989892840385437,0.0,0.0,0.0,-46.35066604614258,4.16847038269043,0.6216561198234558,8389.5634765625,0
1769.5679999999993,0.00356047204695642,-0.029907213523983955,0.0006036116392351687,0.0,0.0,0.0,0.0,0.0010299102868884802,0.004239014815539122,0.00182307418435812,0.9998757839202881,0.0,0.0,0.0,-46.33572006225586,4.1554951667785645,0.6497017741203308,8386.857421875,0
1779.438,0.003617842448875308,-0.029800165444612503,0.0007227425230666995,0.0,0.0,0.0,0.0,0.0008892123587429523,0.002557189669460058,0.00042762357043102384,1.0003669261932373,0.0,0.0,0.0,-46.347415924072266,4.1708760261535645,0.6497102975845337,8388.974609375,0
1789.3369999999995,0.003652028040960431,-0.029878832399845123,0.0006027866038493812,0.0,0.0,0.0,0.0,-0.001752335811033845,-0.003918173722922802,0.0005180520820431411,1.0001261234283447,0.0,0.0,0.0,-46.33023452758789,4.162330150604248,0.657886266708374,8385.8642578125,0
1799.2099999999991,0.00367843103595078,-0.029764942824840546,0.0007071225554682314,0.0,0.0,0.0,0.0,0.00023378175683319569,-0.00014582091534975916,2.3212396627059206e-05,1.0010892152786255,0.0,0.0,0.0,-46.34588623046875,4.176082134246826,0.6353156566619873,8388.697265625,0
1809.1080000000002,0.0036575247067958117,-0.02990422025322914,0.0006306393188424408,0.0,0.0,0.0,0.0,0.0013008250389248133,-0.004012562800198793,0.003653413150459528,1.0023400783538818,0.0,0.0,0.0,-46.3321533203125,4.151571273803711,0.6543771028518677,8386.2119140625,0
1818.9799999999996,0.0037102694623172283,-0.02982836402952671,0.0007193800993263721,0.0,0.0,0.0,0.0,-0.002129643689841032,6.090096212574281e-05,-0.0014076821971684694,1.0027145147323608,0.0,0.0,0.0,-46.345760345458984,4.155755519866943,0.6650533676147461,8388.6748046875,0
1828.8809999999994,0.0037092354614287615,-0.029949335381388664,0.000638152239844203,0.0,0.0,0.0,0.0,0.003655559616163373,0.004644758999347687,0.003672019811347127,0.9990653991699219,0.0,0.0,0.0,-46.33314895629883,4.139204978942871,0.6903372406959534,8386.392578125,0
1838.7559999999994,0.003646265482529998,-0.029797548428177834,0.000721324875485152,0.0,0.0,0.0,0.0,8.372312731808051e-05,0.0038443673402071,0.002979252953082323,0.9999799132347107,0.0,0.0,0.0,-46.34539794921875,4.144617080688477,0.6562718152999878,8388.609375,0
1848.6509999999998,0.0036791765596717596,-0.02989080548286438,0.0006114507559686899,0.0,0.0,0.0,0.0,0.0036594842094928026,0.0014909680467098951,-0.0002360221405979246,0.999003529548645,0.0,0.0,0.0,-46.329593658447266,4.131760120391846,0.6588294506072998,8385.7490234375,0
1858.5229999999992,0.0036394488997757435,-0.029768282547593117,0.0006867864867672324,0.0,0.0,0.0,0.0,0.002354890340939164,-0.0005809336435049772,0.0015842433786019683,0.9990182518959045,0.0,0.0,0.0,-46.343448638916016,4.135607719421387,0.649091899394989,8388.2568359375,0
1868.4179999999997,0.0036335361655801535,-0.029907017946243286,0.0005899984971620142,0.0,0.0,0.0,0.0,0.001942288363352418,-1.541497476864606e-05,0.0011120692361146212,0.9999526143074036,0.0,0.0,0.0,-46.3253173828125,4.110451698303223,0.675696849822998,8384.974609375,0
1878.2939999999999,0.003617076901718974,-0.029797375202178955,0.0006712125614285469,0.0,0.0,0.0,0.0,-0.0032771609257906675,-0.0032358889002352953,0.0035304618068039417,0.9998937249183655,0.0,0.0,0.0,-46.34053421020508,4.119068145751953,0.6751179099082947,8387.728515625,0
1888.188,0.003631355706602335,-0.029907040297985077,0.000565313792321831,0.0,0.0,0.0,0.0,-0.002496603410691023,-0.002228369237855077,0.0006178525509312749,1.0035185813903809,0.0,0.0,0.0,-46.32183074951172,4.105896949768066,0.7019819021224976,8384.34375,0
1898.0689999999995,0.0036224639043211937,-0.029781313613057137,0.0006597127066925168,0.0,0.0,0.0,0.0,-0.0009862035512924194,0.0007937103509902954,-0.0018553605768829584,1.002463936805725,0.0,0.0,0.0,-46.33760070800781,4.121423721313477,0.7025377154350281,8387.1982421875,0
1907.964,0.0035684402100741863,-0.029971949756145477,0.0005896723596379161,0.0,0.0,0.0,0.0,0.0006077189464122057,0.0018447479233145714,0.0011237292783334851,1.0005600452423096,0.0,0.0,0.0,-46.32143020629883,4.0856733322143555,0.7218117713928223,8384.271484375,0
1917.8400000000001,0.003567624371498823,-0.029840633273124695,0.0007073779706843197,0.0,0.0,0.0,0.0,-0.0004805264761671424,0.0030987828504294157,0.0021449928171932697,1.0008975267410278,0.0,0.0,0.0,-46.338157653808594,4.099553108215332,0.7050586938858032,8387.298828125,0
1927.7420000000002,0.0035692087840288877,-0.0299615990370512,0.0006183409132063389,0.0,0.0,0.0,0.0,0.00032695659319870174,-0.0013653008500114083,0.0017541731940582395,0.9995034337043762,0.0,0.0,0.0,-46.32756042480469,4.079629898071289,0.7227665185928345,8385.380859375,0
1937.6090000000004,0.00356969702988863,-0.0298454612493515,0.0007283681188710034,0.0,0.0,0.0,0.0,0.0008203648030757904,0.002488782163709402,-0.0008974860538728535,0.9995035529136658,0.0,0.0,0.0,-46.341407775878906,4.092916011810303,0.7074877023696899,8387.8876953125,0
1947.5029999999988,0.003549265908077359,-0.030000880360603333,0.0006419607088901103,0.0,0.0,0.0,0.0,-0.001220196601934731,-0.0031809075735509396,0.00021055831166449934,1.000575304031372,0.0,0.0,0.0,-46.32643508911133,4.066449165344238,0.7227931022644043,8385.177734375,0
1957.3819999999996,0.0036063543520867825,-0.029902108013629913,0.0007851506234146655,0.0,0.0,0.0,0.0,-0.0010086150141432881,-0.00021290426957421005,-0.003085706615820527,0.9970227479934692,0.0,0.0,0.0,-46.34268569946289,4.088046550750732,0.7251245379447937,8388.1181640625,0
1967.2739999999994,0.003625299083068967,-0.02990497648715973,0.0007959560607559979,0.0,0.0,0.0,0.0,0.0010128425201401114,0.002285505412146449,-0.0004307074414100498,0.9970554113388062,0.0,0.0,0.0,-46.298728942871094,4.082624435424805,0.7267621159553528,8380.162109375,0
1977.1569999999992,0.0036148177459836006,-0.029825594276189804,0.0008701285114511847,0.0,0.0,0.0,0.0,0.0016658203676342964,-0.0023214174434542656,0.0031081794295459986,0.9981098175048828,0.0,0.0,0.0,-46.31646728515625,4.093952178955078,0.7078152894973755,8383.373046875,0
1987.0509999999995,0.0036332726012915373,-0.029825590550899506,0.0008813217282295227,0.0,0.0,0.0,0.0,-0.0017347154207527637,-0.0014032346662133932,6.11832583672367e-05,0.9982084035873413,0.0,0.0,0.0,-46.270843505859375,4.088504791259766,0.7042551636695862,8375.115234375,0
1996.923999999999,0.0036502578295767307,-0.02976703830063343,0.0009438038687221706,0.0,0.0,0.0,0.0,-0.00018014549277722836,-0.005404219496995211,-0.005116171203553677,0.99943608045578,0.0,0.0,0.0,-46.288421630859375,4.095223903656006,0.6983231902122498,8378.296875,0
2006.8140000000003,0.003670639358460903,-0.029761560261249542,0.0009559693280607462,0.0,0.0,0.0,0.0,0.0003865739854518324,-0.0004455242888070643,-0.000978542142547667,1.001205563545227,0.0,0.0,0.0,-46.24442672729492,4.093392372131348,0.7102680802345276,8370.333984375,0
2016.699999999999,0.0036875202786177397,-0.029711898416280746,0.001006109407171607,0.0,0.0,0.0,0.0,-0.0018224511295557022,-0.00011306761007290334,5.346129182726145e-05,1.002372145652771,0.0,0.0,0.0,-46.26506042480469,4.103142738342285,0.7054240107536316,8374.068359375,0
2026.583999999999,0.0037052801344543695,-0.029700947925448418,0.001022521872073412,0.0,0.0,0.0,0.0,0.001108609139919281,0.002849444979801774,-0.003135419450700283,1.0016658306121826,0.0,0.0,0.0,-46.220340728759766,4.101142406463623,0.7013901472091675,8365.974609375,0
2036.4689999999991,0.0037266870494931936,-0.029662052169442177,0.0010613950435072184,0.0,0.0,0.0,0.0,-0.0019744038581848145,-0.004837211687117815,0.0008828087593428791,0.9995342493057251,0.0,0.0,0.0,-46.24390411376953,4.103891849517822,0.6968899965286255,8370.2392578125,0
2046.366,0.003743930486962199,-0.029647331684827805,0.0010823896154761314,0.0,0.0,0.0,0.0,0.00030216044979169965,-0.001988623756915331,-0.0019928649999201298,1.0005971193313599,0.0,0.0,0.0,-46.198570251464844,4.096062660217285,0.6969442367553711,8362.033203125,0
2056.245999999999,0.0037475591525435448,-0.029629187658429146,0.001092739636078477,0.0,0.0,0.0,0.0,0.00010712858056649566,-0.0018006484024226665,-4.286006515030749e-05,0.9986675381660461,0.0,0.0,0.0,-46.2193717956543,4.09636116027832,0.695854127407074,8365.798828125,0
2066.126,0.003760014660656452,-0.02961496263742447,0.0011134333908557892,0.0,0.0,0.0,0.0,-0.002486018929630518,-0.0036749369464814663,0.0009037174168042839,0.9980737566947937,0.0,0.0,0.0,-46.17502212524414,4.0892558097839355,0.7032349109649658,8357.771484375,0
2076.020999999999,0.003760186955332756,-0.02959851175546646,0.0011178579879924655,0.0,0.0,0.0,0.0,-0.0010251508792862296,0.0003388779587112367,-0.0032832405995577574,0.9990818500518799,0.0,0.0,0.0,-46.202369689941406,4.085958480834961,0.7055617570877075,8362.720703125,0
2085.902,0.00377044640481472,-0.029587090015411377,0.0011348314583301544,0.0,0.0,0.0,0.0,0.000608736474532634,0.0008182011661119759,0.0021021529100835323,0.9986687302589417,0.0,0.0,0.0,-46.15876770019531,4.08227014541626,0.7144147157669067,8354.8291015625,0
2095.780999999999,0.003775297198444605,-0.029575329273939133,0.0011353420559316874,0.0,0.0,0.0,0.0,-0.0010527216363698244,0.003283913480117917,0.0023763817735016346,0.9987814426422119,0.0,0.0,0.0,-46.19062805175781,4.077080726623535,0.7093254327774048,8360.595703125,0
2105.682999999999,0.003783963620662689,-0.029566911980509758,0.0011495532235130668,0.0,0.0,0.0,0.0,5.773475641035475e-05,-0.003915809094905853,0.00035500721423886716,1.0008535385131836,0.0,0.0,0.0,-46.14584732055664,4.072546005249023,0.7140998244285583,8352.490234375,0
2115.553,0.0037849247455596924,-0.02956782840192318,0.001135550206527114,0.0,0.0,0.0,0.0,-0.0009907649364322424,0.004131604451686144,0.0009292737813666463,1.0005356073379517,0.0,0.0,0.0,-46.17856979370117,4.063769340515137,0.7152126431465149,8358.4130859375,0
2125.441999999999,0.0037913403939455748,-0.029560644179582596,0.0011482237605378032,0.0,0.0,0.0,0.0,-0.0007784288609400392,9.794627840165049e-05,-0.00021909482893534005,0.9993607997894287,0.0,0.0,0.0,-46.13400650024414,4.059360027313232,0.7071966528892517,8350.3466796875,0
2135.325999999999,0.00378478248603642,-0.029565932229161263,0.0011255815625190735,0.0,0.0,0.0,0.0,0.002918174024671316,0.006812333595007658,-0.0003859313146676868,0.9983235597610474,0.0,0.0,0.0,-46.16478729248047,4.046540260314941,0.7050715684890747,8355.9189453125,0
2145.2129999999997,0.00378796155564487,-0.02956334501504898,0.0011354975868016481,0.0,0.0,0.0,0.0,-0.00016917294124141335,0.0008181261364370584,0.0006741199176758528,0.9974879026412964,0.0,0.0,0.0,-46.12013244628906,4.03714656829834,0.6780022382736206,8347.8349609375,0
2155.098,0.0038187303580343723,-0.029563823714852333,0.0011330647394061089,0.0,0.0,0.0,0.0,-0.0008528759935870767,0.00333562889136374,0.0026415239553898573,0.998702883720398,0.0,0.0,0.0,-46.152587890625,4.0346903800964355,0.6773874759674072,8353.7109375,0
2164.9840000000004,0.0038231383077800274,-0.029562581330537796,0.0011387279955670238,0.0,0.0,0.0,0.0,0.001998355844989419,-0.0012338821543380618,-3.7696318031521514e-05,0.9975982308387756,0.0,0.0,0.0,-46.106258392333984,4.03299617767334,0.6732820868492126,8345.32421875,0
2174.875,0.0038261546287685633,-0.029561467468738556,0.0011424242984503508,0.0,0.0,0.0,0.0,-0.0009228219278156757,-0.0013206766452640295,0.0009321653051301837,1.0000170469284058,0.0,0.0,0.0,-46.06101608276367,4.026204586029053,0.6669138669967651,8337.1357421875,0
