timestamp,stateEstimate.x,stateEstimate.y,stateEstimate.z,controller.cmd_thrust,controller.cmd_roll,controller.cmd_pitch,controller.cmd_yaw,controller.r_roll,controller.r_pitch,controller.r_yaw,controller.accelz,controller.actuatorThrust,controller.roll,controller.pitch,controller.yaw,controller.rollRate,controller.pitchRate,controller.yawRate,controller.ctr_yaw
0.0,-0.00913370493799448,-0.00012001482537016273,6.785071309423074e-05,0.0,0.0,0.0,0.0,0.0011059558019042015,0.0021051480434834957,0.0007532567833550274,1.0006605386734009,0.0,0.0,0.0,-32.17930221557617,5.315427780151367,2.3875174522399902,5824.517578125,0
9.885000000000218,-0.009077617898583412,-0.00011974885273957625,0.0001141652392107062,0.0,0.0,0.0,0.0,0.001029788632877171,0.002058263635262847,-0.0003198522317688912,1.0001581907272339,0.0,0.0,0.0,-32.204307556152344,5.318160533905029,2.3985118865966797,5829.0439453125,0
19.77299999999923,-0.009100058116018772,-0.0001127778014051728,0.00011723202624125406,0.0,0.0,0.0,0.0,-7.543306128354743e-05,0.00010201769327977672,-0.0009400079725310206,0.9983566403388977,0.0,0.0,0.0,-32.17281723022461,5.309296607971191,2.3875887393951416,5823.34423828125,0
29.657999999999447,-0.00906896311789751,-7.74461732362397e-05,0.00018339059897698462,0.0,0.0,0.0,0.0,-0.0012919680448248982,-0.0031623186077922583,-0.0037422804161906242,0.9986938238143921,0.0,0.0,0.0,-32.20287322998047,5.315232753753662,2.3865745067596436,5828.7841796875,0
39.54199999999946,-0.009104008786380291,-0.00012069746298948303,0.00010284435120411217,0.0,0.0,0.0,0.0,0.001121174544095993,-0.006792882457375526,-0.0008425844134762883,0.9992191195487976,0.0,0.0,0.0,-32.22599792480469,5.308468341827393,2.384572744369507,5832.9697265625,0
49.42900000000009,-0.009076070971786976,-0.00012628542026504874,0.00015556068683508784,0.0,0.0,0.0,0.0,-0.001381625421345234,9.95610753307119e-05,-0.0020226563792675734,0.9987792372703552,0.0,0.0,0.0,-32.24845504760742,5.315502166748047,2.403146982192993,5837.0341796875,0
59.322000000000116,-0.009133892133831978,-0.0002021688560489565,0.00012421555584296584,0.0,0.0,0.0,0.0,8.420277299592271e-05,0.002029611263424158,0.002121102064847946,0.999146580696106,0.0,0.0,0.0,-32.26640701293945,5.298340797424316,2.405874490737915,5840.2841796875,0
69.20999999999913,-0.00913064181804657,-0.00016197624790947884,0.00021059867867734283,0.0,0.0,0.0,0.0,0.00019534416787791997,0.006311122793704271,-0.0032241560984402895,0.9995948672294617,0.0,0.0,0.0,-32.2864990234375,5.3062005043029785,2.4130918979644775,5843.9208984375,0
79.08599999999933,-0.00912292767316103,-0.00017012257012538612,0.00013683097495231777,0.0,0.0,0.0,0.0,0.0019165892153978348,-0.00011305888619972393,0.0028383953031152487,0.9994850158691406,0.0,0.0,0.0,-32.306156158447266,5.307131290435791,2.3969485759735107,5847.478515625,0
88.97099999999955,-0.00915509182959795,-0.00012107500515412539,0.00019713782239705324,0.0,0.0,0.0,0.0,0.0007673670188523829,0.0004367799556348473,-0.0010823706397786736,1.0004029273986816,0.0,0.0,0.0,-32.321590423583984,5.313335418701172,2.3932361602783203,5850.2724609375,0
98.85800000000017,-0.009181594476103783,-0.00011678809823933989,0.00020074850181117654,0.0,0.0,0.0,0.0,-0.002091354923322797,-0.007051557768136263,-0.0018097003921866417,1.0005756616592407,0.0,0.0,0.0,-32.28984451293945,5.304682731628418,2.3936192989349365,5844.5263671875,0
108.74299999999857,-0.009161053225398064,-6.649229908362031e-05,0.0002827622229233384,0.0,0.0,0.0,0.0,-0.0025713660288602114,0.005995101761072874,-0.0008683342603035271,0.9999598264694214,0.0,0.0,0.0,-32.308082580566406,5.317315101623535,2.3913674354553223,5847.8271484375,0
118.628999999999,-0.009189347736537457,-5.9663587308023125e-05,0.00029332691337913275,0.0,0.0,0.0,0.0,-0.0006505961646325886,-0.004841979593038559,-0.0005798920174129307,0.998509407043457,0.0,0.0,0.0,-32.276832580566406,5.315079212188721,2.403866767883301,5842.1708984375,0
128.51499999999942,-0.00912321638315916,-4.821354377781972e-05,0.00035380435292609036,0.0,0.0,0.0,0.0,-0.0010444506769999862,0.00019949738634750247,0.0005448436713777483,1.0003032684326172,0.0,0.0,0.0,-32.293338775634766,5.325374603271484,2.4156055450439453,5845.15869140625,0
138.40300000000025,-0.00918600708246231,-0.00012352445628494024,0.00029653171077370644,0.0,0.0,0.0,0.0,0.0025230995379388332,0.004992388654500246,-0.0002912191266659647,1.0002580881118774,0.0,0.0,0.0,-32.307369232177734,5.307586669921875,2.429434299468994,5847.69775390625,0
148.29699999999866,-0.009152377024292946,-0.0001394619030179456,0.0003545069776009768,0.0,0.0,0.0,0.0,-0.004891198128461838,-8.828970749164e-05,0.0005729487165808678,0.9992531538009644,0.0,0.0,0.0,-32.32016372680664,5.308816432952881,2.446040630340576,5850.013671875,0
158.18099999999868,-0.009123009629547596,-0.00014132444630376995,0.00022024403733666986,0.0,0.0,0.0,0.0,0.001435165642760694,-0.002940163481980562,0.0025431769900023937,0.9986251592636108,0.0,0.0,0.0,-32.33601760864258,5.318131446838379,2.430049419403076,5852.88330078125,0
168.0679999999993,-0.009104040451347828,-0.00015258514031302184,0.00026892079040408134,0.0,0.0,0.0,0.0,-0.0034883879125118256,-0.003433887381106615,-0.0036152657121419907,0.9991755485534668,0.0,0.0,0.0,-32.34945297241211,5.323899269104004,2.437173366546631,5855.3154296875,0
177.9439999999995,-0.009086063131690025,-0.0001532993628643453,0.00017911146278493106,0.0,0.0,0.0,0.0,0.0022545636165887117,0.003091156482696533,0.00020030306768603623,1.0003204345703125,0.0,0.0,0.0,-32.36112594604492,5.332714080810547,2.4544661045074463,5857.42822265625,0
187.84099999999853,-0.0090988390147686,-0.00012208802218083292,0.00023291398247238249,0.0,0.0,0.0,0.0,-0.001750374212861061,-0.004849390126764774,-0.0014248681254684925,1.0018671751022339,0.0,0.0,0.0,-32.36865997314453,5.333515644073486,2.452709674835205,5858.7919921875,0
197.71699999999873,-0.009099827148020267,-0.00016446952940896153,0.0001454820594517514,0.0,0.0,0.0,0.0,0.0013457066379487514,-0.0004090478178113699,-0.0008791720611043274,1.0027520656585693,0.0,0.0,0.0,-32.37122344970703,5.333745002746582,2.4605884552001953,5859.25634765625,0
207.60199999999895,-0.009090475738048553,-0.00015579904720652848,0.00018992378318216652,0.0,0.0,0.0,0.0,0.0007490806165151298,0.003263354068621993,-0.001678161439485848,1.0005918741226196,0.0,0.0,0.0,-32.37660217285156,5.3327836990356445,2.4681239128112793,5860.22998046875,0
217.48699999999917,-0.009109223261475563,-0.00015640869969502091,0.0001918941707117483,0.0,0.0,0.0,0.0,-0.0017576817190274596,-0.0037829752545803785,0.0017714747227728367,1.0013304948806763,0.0,0.0,0.0,-32.345272064208984,5.328127861022949,2.4703729152679443,5854.55859375,0
227.3729999999996,-0.009083542041480541,-0.00014452387404162437,0.0002367965062148869,0.0,0.0,0.0,0.0,-0.0028213560581207275,0.0013407780788838863,0.0017201006412506104,0.9982150197029114,0.0,0.0,0.0,-32.35338592529297,5.329803943634033,2.4738821983337402,5856.02734375,0
237.2609999999986,-0.009101706556975842,-0.00014634222316090018,0.00024430250050500035,0.0,0.0,0.0,0.0,0.0006468576611950994,-0.00435975706204772,0.0028655328787863255,0.9997701048851013,0.0,0.0,0.0,-32.32178497314453,5.329211711883545,2.477691173553467,5850.30712890625,0
247.14799999999923,-0.00907070841640234,-0.0001558532821945846,0.00026738684391602874,0.0,0.0,0.0,0.0,-0.001889142207801342,0.004327304661273956,-0.001910676364786923,1.0009099245071411,0.0,0.0,0.0,-32.330047607421875,5.330719947814941,2.497655153274536,5851.80322265625,0
257.03700000000026,-0.0090872747823596,-0.00016056338790804148,0.0002754785236902535,0.0,0.0,0.0,0.0,-0.0027408504392951727,-0.004499554634094238,0.0008687033550813794,0.998079776763916,0.0,0.0,0.0,-32.297935485839844,5.324800968170166,2.5011584758758545,5845.990234375,0
266.92199999999866,-0.009059923700988293,-0.00017416689661331475,0.0002909440081566572,0.0,0.0,0.0,0.0,0.0017307786038145423,0.008243373595178127,0.0022860835306346416,0.9988720417022705,0.0,0.0,0.0,-32.30738067626953,5.3277459144592285,2.511901617050171,5847.69970703125,0
276.8040000000001,-0.009071370586752892,-0.0002011554897762835,0.00017475085041951388,0.0,0.0,0.0,0.0,0.002159462310373783,0.0026652400847524405,0.002136589027941227,1.000322937965393,0.0,0.0,0.0,-32.320533752441406,5.323817253112793,2.5218937397003174,5850.08056640625,0
286.6959999999999,-0.009004872292280197,-0.0002505927986931056,0.0002152309607481584,0.0,0.0,0.0,0.0,0.001646709511987865,0.0034936994779855013,0.00012124508793931454,0.9976621866226196,0.0,0.0,0.0,-32.33049011230469,5.3184285163879395,2.5261971950531006,5851.8828125,0
296.5839999999989,-0.00901720579713583,-0.00026450390578247607,0.00021610471594613045,0.0,0.0,0.0,0.0,-0.0014420000370591879,0.0004502433293964714,-0.0006998645840212703,0.9982038736343384,0.0,0.0,0.0,-32.29780578613281,5.308755874633789,2.5102298259735107,5845.966796875,0
306.47899999999936,-0.009047609753906727,-0.0002509343612473458,0.00024434656370431185,0.0,0.0,0.0,0.0,-0.002301719505339861,-0.0019904072396457195,-0.000876859063282609,0.9970850944519043,0.0,0.0,0.0,-32.31134796142578,5.315028667449951,2.501711130142212,5848.41796875,0
316.34599999999955,-0.009061108343303204,-0.0002644869964569807,0.00024385086726397276,0.0,0.0,0.0,0.0,0.0018709320574998856,0.001527227577753365,-0.001298696966841817,1.0008461475372314,0.0,0.0,0.0,-32.281497955322266,5.303056716918945,2.4961047172546387,5843.01513671875,0
326.2399999999998,-0.009070578962564468,-0.00022616608475800604,0.0003066818171646446,0.0,0.0,0.0,0.0,-0.0026287506334483624,-0.0044133891351521015,0.0026373276486992836,1.0019025802612305,0.0,0.0,0.0,-32.2967414855957,5.318121433258057,2.492583751678467,5845.7744140625,0
336.1239999999998,-0.009085369296371937,-0.0002365290274610743,0.00030973178218118846,0.0,0.0,0.0,0.0,0.003540265141054988,0.008245522156357765,-0.0016849394887685776,1.0000088214874268,0.0,0.0,0.0,-32.264564514160156,5.313680171966553,2.4893734455108643,5839.9501953125,0
346.0169999999998,-0.009095340967178345,-0.00020469925948418677,0.00036627199733629823,0.0,0.0,0.0,0.0,0.00022133172024041414,0.0038595201913267374,0.0027665968518704176,0.9998003244400024,0.0,0.0,0.0,-32.28399658203125,5.321343898773193,2.4789187908172607,5843.46728515625,0
355.8949999999986,-0.00911102257668972,-0.0002140713040716946,0.00037570385029539466,0.0,0.0,0.0,0.0,-0.0016287572216242552,-0.0029096740763634443,-0.0023259539157152176,1.0000543594360352,0.0,0.0,0.0,-32.25239181518555,5.315211296081543,2.457498788833618,5837.7470703125,0
365.78799999999865,-0.009106273762881756,-0.00018612637359183282,0.00043259962694719434,0.0,0.0,0.0,0.0,0.0006055033882148564,-0.0001392330159433186,-0.0025442750193178654,0.9979805946350098,0.0,0.0,0.0,-32.26594924926758,5.3287811279296875,2.448648452758789,5840.20068359375,0
375.66299999999865,-0.009124304167926311,-0.00019100237113889307,0.0004456547321751714,0.0,0.0,0.0,0.0,0.00027149368543177843,0.0010214624926447868,1.943694951478392e-05,0.9971181154251099,0.0,0.0,0.0,-32.23442459106445,5.319403648376465,2.4507229328155518,5834.4951171875,0
385.5659999999989,-0.00911638792604208,-0.0001789481466403231,0.00048209045780822635,0.0,0.0,0.0,0.0,-0.0020051829051226377,-0.0005553424125537276,-0.0012766228755936027,0.9988095760345459,0.0,0.0,0.0,-32.259010314941406,5.329828262329102,2.4493703842163086,5838.94482421875,0
395.4380000000001,-0.009133696556091309,-0.00018386487499810755,0.0004935378092341125,0.0,0.0,0.0,0.0,0.0011259500170126557,0.0018209489062428474,-0.002110696630552411,1.0002551078796387,0.0,0.0,0.0,-32.226314544677734,5.318936824798584,2.4588592052459717,5833.02685546875,0
405.33599999999933,-0.009121314622461796,-0.00020276402938179672,0.0005030420725233853,0.0,0.0,0.0,0.0,0.00402495451271534,0.007747250143438578,-0.0009282917599193752,0.9996305704116821,0.0,0.0,0.0,-32.24309539794922,5.32125186920166,2.4738893508911133,5836.064453125,0
415.2039999999997,-0.009137877263128757,-0.00021527023636735976,0.0005134313250891864,0.0,0.0,0.0,0.0,-0.00041318798321299255,-0.002390502952039242,-0.0016781038139015436,0.9974607229232788,0.0,0.0,0.0,-32.21126174926758,5.305769443511963,2.462722063064575,5830.30224609375,0
425.10399999999936,-0.009123502299189568,-0.00021888747869525105,0.0005446683499030769,0.0,0.0,0.0,0.0,0.0035497897770255804,0.005232213065028191,-0.002245060633867979,0.9969948530197144,0.0,0.0,0.0,-32.23183059692383,5.309182167053223,2.461035966873169,5834.025390625,0
434.9830000000002,-0.009105296805500984,-0.00013645400758832693,0.00029511278262361884,0.0,0.0,0.0,0.0,-0.0006862783920951188,0.0024393300991505384,-0.0011076966766268015,0.9978975653648376,0.0,0.0,0.0,-32.25863265991211,5.323024749755859,2.452275276184082,5838.87646484375,0
444.875,-0.009087502025067806,-0.0001595919020473957,0.00032814929727464914,0.0,0.0,0.0,0.0,0.0019346121698617935,-0.0036603782791644335,0.001274146605283022,0.9994683861732483,0.0,0.0,0.0,-32.27606964111328,5.325212478637695,2.453575611114502,5842.03271484375,0
454.7479999999996,-0.009101727046072483,-0.00017287499213125557,0.00032235970138572156,0.0,0.0,0.0,0.0,0.0007081276271492243,0.004317279439419508,-0.00037176714977249503,0.9999366998672485,0.0,0.0,0.0,-32.244911193847656,5.3138298988342285,2.447261333465576,5836.39306640625,0
464.6369999999988,-0.009099792689085007,-0.00016882806085050106,0.00036609513335861266,0.0,0.0,0.0,0.0,0.0015624198131263256,0.0031290026381611824,-0.003437802428379655,0.9991161823272705,0.0,0.0,0.0,-32.262168884277344,5.315422534942627,2.4546382427215576,5839.51708984375,0
474.51800000000003,-0.009114393033087254,-0.00018346375145483762,0.0003629761631600559,0.0,0.0,0.0,0.0,-0.0004938599304296076,0.0024195455480366945,-0.000128852654597722,0.9989590644836426,0.0,0.0,0.0,-32.23039245605469,5.309900760650635,2.438857316970825,5833.76513671875,0
484.41200000000026,-0.009084796532988548,-0.00020262943871784955,0.0003794297226704657,0.0,0.0,0.0,0.0,0.0007985340198501945,-0.002188058802857995,-0.0006195490714162588,0.999284565448761,0.0,0.0,0.0,-32.25035095214844,5.313474655151367,2.442002773284912,5837.37744140625,0
494.2950000000001,-0.009096803143620491,-0.0002164759353036061,0.0003763021086342633,0.0,0.0,0.0,0.0,-0.002407180145382881,-0.00037317167152650654,0.000360001198714599,0.9995081424713135,0.0,0.0,0.0,-32.218040466308594,5.309278964996338,2.436497449874878,5831.529296875,0
504.1890000000003,-0.009081070311367512,-0.00021857864339835942,0.000402337551349774,0.0,0.0,0.0,0.0,-0.00012789822358172387,0.0017896487843245268,-0.002889870433136821,0.9979960322380066,0.0,0.0,0.0,-32.240169525146484,5.310781478881836,2.439793348312378,5835.53466796875,0
514.0619999999999,-0.009092723950743675,-0.00023033654724713415,0.0004002932400908321,0.0,0.0,0.0,0.0,-0.0027929660864174366,-0.007888094522058964,-0.0009198774350807071,1.0012266635894775,0.0,0.0,0.0,-32.20914840698242,5.30582332611084,2.442089080810547,5829.919921875,0
523.9560000000001,-0.009090963751077652,-0.00021552928956225514,0.00043795601231977344,0.0,0.0,0.0,0.0,-0.0011317336466163397,-0.0030904042068868876,0.0010411848779767752,1.0009976625442505,0.0,0.0,0.0,-32.23013687133789,5.315219402313232,2.434159994125366,5833.71875,0
533.8449999999993,-0.009063736535608768,-0.00013959592615719885,0.00022870927932672203,0.0,0.0,0.0,0.0,4.9358277465216815e-05,-0.00023774392320774496,-0.001080805785022676,0.9996333122253418,0.0,0.0,0.0,-32.252784729003906,5.331737518310547,2.4522016048431396,5837.81787109375,0
543.726999999999,-0.009049743413925171,-0.00015358117525465786,0.00025366636691614985,0.0,0.0,0.0,0.0,-0.00011722899944288656,-0.0015957254217937589,0.003223896725103259,0.9992749691009521,0.0,0.0,0.0,-32.26675796508789,5.335723400115967,2.4627702236175537,5840.34716796875,0
553.6139999999996,-0.009087646380066872,-0.00023834370949771255,0.0002028432791121304,0.0,0.0,0.0,0.0,-0.0007910332642495632,0.00634649395942688,-0.0009584391373209655,0.9986792206764221,0.0,0.0,0.0,-32.27887725830078,5.323933124542236,2.457277536392212,5842.541015625,0
563.4979999999996,-0.009076075628399849,-0.00022718627587892115,0.00025588515563867986,0.0,0.0,0.0,0.0,-0.0006681595696136355,-0.0016023044008761644,-0.002171650994569063,0.9980455636978149,0.0,0.0,0.0,-32.29396438598633,5.326879501342773,2.4525251388549805,5845.271484375,0
573.378999999999,-0.009078062139451504,-0.00023740857432130724,0.0002478556998539716,0.0,0.0,0.0,0.0,0.0006076608551666141,0.006099109072238207,0.0005286571686156094,0.9988318681716919,0.0,0.0,0.0,-32.262184143066406,5.315855979919434,2.444335699081421,5839.51953125,0
583.2729999999992,-0.009099472314119339,-0.00020126391609665006,0.0002906756126321852,0.0,0.0,0.0,0.0,-0.0011684988858178258,0.0005914427456445992,5.169573341845535e-05,1.0026460886001587,0.0,0.0,0.0,-32.27785873413086,5.319731712341309,2.4396915435791016,5842.3564453125,0
593.1479999999992,-0.009103859774768353,-0.00021180268959142268,0.0002847964351531118,0.0,0.0,0.0,0.0,-0.000549500691704452,0.005228548310697079,-0.00021439563715830445,0.9989823698997498,0.0,0.0,0.0,-32.24532699584961,5.31199836730957,2.429687023162842,5836.46875,0
603.0540000000001,-0.00908621959388256,-0.00020855572074651718,0.00031339333509095013,0.0,0.0,0.0,0.0,0.0007759055006317794,0.0008040801039896905,-0.0001414932921761647,0.9986512660980225,0.0,0.0,0.0,-32.26247787475586,5.317747116088867,2.419966459274292,5839.572265625,0
612.9239999999991,-0.00901871919631958,-0.00018532894318923354,0.00011562462168512866,0.0,0.0,0.0,0.0,8.451753092231229e-05,-0.005766555201262236,0.004036972299218178,0.9994214773178101,0.0,0.0,0.0,-32.28423309326172,5.329005718231201,2.4175333976745605,5843.5107421875,0
622.8220000000001,-0.009039860218763351,-0.000152449996676296,0.00014899515372235328,0.0,0.0,0.0,0.0,-0.00135210866574198,-0.0008749761036597192,-0.0008902721456252038,0.9998212456703186,0.0,0.0,0.0,-32.30082321166992,5.329145431518555,2.4192867279052734,5846.513671875,0
632.6919999999991,-0.009034978225827217,-0.00016170625167433172,0.0001363355404464528,0.0,0.0,0.0,0.0,0.0017415768234059215,0.0005856048665009439,0.0036619985476136208,0.9989544749259949,0.0,0.0,0.0,-32.269134521484375,5.329200267791748,2.43310809135437,5840.77734375,0
642.5909999999985,-0.009046941995620728,-0.00011899432865902781,0.00018324650591239333,0.0,0.0,0.0,0.0,0.003089590696617961,0.0035253928508609533,0.0006578409229405224,0.999254047870636,0.0,0.0,0.0,-32.28927230834961,5.333546161651611,2.4199912548065186,5844.4228515625,0
652.4639999999999,-0.009019617922604084,-0.00014859586372040212,3.9465165173169225e-05,0.0,0.0,0.0,0.0,0.0037218492943793535,0.004499469883739948,0.001654931576922536,1.0001784563064575,0.0,0.0,0.0,-32.30424880981445,5.3394365310668945,2.4245924949645996,5847.13330078125,0
662.357,-0.009113292209804058,-4.769746738020331e-05,7.903568621259183e-05,0.0,0.0,0.0,0.0,-0.00038180765113793314,-0.0015493497485294938,-0.0015767288859933615,1.000610113143921,0.0,0.0,0.0,-32.32467269897461,5.336245059967041,2.40049409866333,5850.830078125,0
672.2349999999988,-0.009112846106290817,-4.850574623560533e-05,6.550476246047765e-05,0.0,0.0,0.0,0.0,0.00045108527410775423,-0.000973508576862514,0.0009316103532910347,0.9998058676719666,0.0,0.0,0.0,-32.292999267578125,5.336004734039307,2.3823513984680176,5845.0966796875,0
682.128999999999,-0.009059674106538296,-1.546109706396237e-05,0.0001284102036152035,0.0,0.0,0.0,0.0,-7.352858665399253e-05,-0.0006786655285395682,-0.0016474288422614336,0.9986225366592407,0.0,0.0,0.0,-32.30561447143555,5.343769073486328,2.397578716278076,5847.38037109375,0
692.0119999999988,-0.00914075132459402,-0.0001446956885047257,0.00011394647299312055,0.0,0.0,0.0,0.0,-9.997338202083483e-05,0.0014897360233590007,0.0005600806325674057,0.9977172017097473,0.0,0.0,0.0,-32.30862808227539,5.318741321563721,2.3929343223571777,5847.92578125,0
701.9049999999988,-0.00911864172667265,-0.00010355492122471333,0.00018983383779413998,0.0,0.0,0.0,0.0,-0.0024410258047282696,0.0015763783594593406,-0.0015616522869095206,0.9985001683235168,0.0,0.0,0.0,-32.32278060913086,5.330998420715332,2.3752834796905518,5850.4873046875,0
711.780999999999,-0.009176949970424175,-0.00022343128512147814,0.00015350402100011706,0.0,0.0,0.0,0.0,-0.0009418238187208772,-0.0014955919468775392,-0.00030348412110470235,0.9988033771514893,0.0,0.0,0.0,-32.33079528808594,5.309192180633545,2.3755908012390137,5851.93798828125,0
721.6710000000003,-0.009130764752626419,-0.00021585826470982283,0.0002137253322871402,0.0,0.0,0.0,0.0,0.00010122649109689519,0.0012792791239917278,3.309456224087626e-05,0.9989655613899231,0.0,0.0,0.0,-32.3419189453125,5.316327095031738,2.362281322479248,5853.951171875,0
731.5589999999993,-0.009132074192166328,-0.00021711959561798722,0.000208029305213131,0.0,0.0,0.0,0.0,0.0008460916578769684,0.0018306534038856626,-0.0011196985142305493,0.998143196105957,0.0,0.0,0.0,-32.3101692199707,5.307907581329346,2.362485647201538,5848.20458984375,0
741.4480000000003,-0.00911148265004158,-0.00017624151951167732,0.00026322188205085695,0.0,0.0,0.0,0.0,-0.0006903812172822654,-0.0029940386302769184,-0.00026080949464812875,0.998431921005249,0.0,0.0,0.0,-32.3231086730957,5.316872596740723,2.362865686416626,5850.546875,0
751.3289999999997,-0.009112400002777576,-0.00017433922039344907,0.0002599178988020867,0.0,0.0,0.0,0.0,-0.000609811395406723,-0.002944439882412553,-0.0007917875191196799,0.9984036684036255,0.0,0.0,0.0,-32.290916442871094,5.313869953155518,2.351853609085083,5844.7197265625,0
761.2289999999994,-0.009077392518520355,-0.00016238295938819647,0.0002847928844857961,0.0,0.0,0.0,0.0,-0.0010603638365864754,0.0010788594372570515,0.001882002572529018,0.9996276497840881,0.0,0.0,0.0,-32.30481719970703,5.322246551513672,2.365433931350708,5847.236328125,0
771.0939999999991,-0.009079154580831528,-0.00015851313946768641,0.0002811386657413095,0.0,0.0,0.0,0.0,0.0006505298078991473,-0.0019083238439634442,0.002270409371703863,0.9999071359634399,0.0,0.0,0.0,-32.272911071777344,5.325019359588623,2.359046220779419,5841.46142578125,0
780.9929999999986,-0.009052781388163567,-0.00014929476310499012,0.00029373433790169656,0.0,0.0,0.0,0.0,0.001840818440541625,0.006017972249537706,-0.001148130395449698,0.9980760216712952,0.0,0.0,0.0,-32.2880744934082,5.324553489685059,2.3630928993225098,5844.20556640625,0
790.8649999999998,-0.00900211464613676,-0.00010077228216687217,0.0001081443260773085,0.0,0.0,0.0,0.0,-0.0005177629645913839,-0.0030367879662662745,0.00272534997202456,0.9983800053596497,0.0,0.0,0.0,-32.30217742919922,5.336656093597412,2.3616065979003906,5846.75830078125,0
800.7579999999998,-0.00900368019938469,-7.913229637779295e-05,0.00013269686314743012,0.0,0.0,0.0,0.0,-0.0011158776469528675,0.00043639919022098184,0.0015732499305158854,0.9982824921607971,0.0,0.0,0.0,-32.31513595581055,5.338393211364746,2.355595588684082,5849.103515625,0
810.6369999999988,-0.00900979619473219,-7.228189497254789e-05,0.00011753161379601806,0.0,0.0,0.0,0.0,-0.0014223449397832155,0.0017105541191995144,-0.00017937437223736197,0.9976330995559692,0.0,0.0,0.0,-32.28308868408203,5.331186771392822,2.358558177947998,5843.3037109375,0
820.5409999999993,-0.008997404016554356,-6.32994924671948e-05,0.00012284495460335165,0.0,0.0,0.0,0.0,-0.0032705555204302073,-0.002253549639135599,0.0023158148396760225,0.9997465014457703,0.0,0.0,0.0,-32.29833221435547,5.342672824859619,2.362053155899048,5846.06201171875,0
830.4079999999994,-0.00900336354970932,-5.7872061006492004e-05,0.00010601260873954743,0.0,0.0,0.0,0.0,-0.0007099324138835073,0.0015583026688545942,0.0003198501071892679,0.9999843239784241,0.0,0.0,0.0,-32.26719665527344,5.333163738250732,2.353574275970459,5840.4267578125,0
840.3059999999987,-0.008979438804090023,-3.8407379179261625e-05,0.00012469477951526642,0.0,0.0,0.0,0.0,-0.0013692250940948725,-4.531381273409352e-05,0.0002491593477316201,0.9995275735855103,0.0,0.0,0.0,-32.28482437133789,5.3366923332214355,2.3492043018341064,5843.6171875,0
850.1809999999987,-0.008987429551780224,-3.331241168780252e-05,0.00011018585064448416,0.0,0.0,0.0,0.0,-0.0017400897340849042,-0.0010327451163902879,-0.000401877798140049,1.0001697540283203,0.0,0.0,0.0,-32.252723693847656,5.334438323974609,2.339481830596924,5837.80712890625,0
860.0720000000001,-0.008968571200966835,-3.293239569757134e-05,9.964259515982121e-05,0.0,0.0,0.0,0.0,-0.0002320720232091844,0.0007595610222779214,0.0018835925729945302,0.9989804029464722,0.0,0.0,0.0,-32.269901275634766,5.339266777038574,2.3518497943878174,5840.91650390625,0
869.9529999999995,-0.008978265337646008,-2.8962338546989486e-05,8.526149031240493e-05,0.0,0.0,0.0,0.0,-0.0005333491717465222,0.006452555302530527,0.002595279598608613,1.000552773475647,0.0,0.0,0.0,-32.23675537109375,5.335947513580322,2.356771945953369,5834.91650390625,0
879.8449999999993,-0.008970990777015686,4.759796411235584e-06,0.00011218887811992317,0.0,0.0,0.0,0.0,0.0034234176855534315,-0.0016835404094308615,-0.0010604823473840952,1.0002754926681519,0.0,0.0,0.0,-32.25199890136719,5.344507694244385,2.335496187210083,5837.67626953125,0
889.7279999999992,-0.009071732871234417,-7.217292295536026e-05,0.00014600979920942336,0.0,0.0,0.0,0.0,-0.0015469047939404845,-0.0008110007620416582,-0.00036724444362334907,0.999727189540863,0.0,0.0,0.0,-32.26734924316406,5.318964004516602,2.3324785232543945,5840.4541015625,0
899.6239999999998,-0.009066875092685223,-6.165340164443478e-05,0.0001945103140315041,0.0,0.0,0.0,0.0,-0.0008978312835097313,-0.004856905899941921,-0.0022825065534561872,0.998480498790741,0.0,0.0,0.0,-32.28242874145508,5.31836462020874,2.338568925857544,5843.18359375,0
909.494999999999,-0.009146095253527164,-0.00017453604959882796,0.000169180246302858,0.0,0.0,0.0,0.0,0.0024984972551465034,0.00035612989449873567,0.0013482384383678436,0.9981494545936584,0.0,0.0,0.0,-32.295013427734375,5.298269748687744,2.3476877212524414,5845.46142578125,0
919.3919999999998,-0.009133968502283096,-0.00015246635302901268,0.0002471503394190222,0.0,0.0,0.0,0.0,0.0014472479233518243,0.0005075630033388734,0.0029454685281962156,0.99921053647995,0.0,0.0,0.0,-32.30980682373047,5.305332660675049,2.3509743213653564,5848.13916015625,0
929.268,-0.00915809441357851,-0.00015697536582592875,0.00024307903368026018,0.0,0.0,0.0,0.0,0.002023447770625353,-0.001065873890183866,-0.0025593198370188475,1.0002180337905884,0.0,0.0,0.0,-32.27694320678711,5.293891429901123,2.3364627361297607,5842.19091796875,0
939.1610000000001,-0.009124090895056725,-0.00014534797810483724,0.00030051523935981095,0.0,0.0,0.0,0.0,0.0018184562213718891,0.007385649718344212,-0.0023387805558741093,0.9997992515563965,0.0,0.0,0.0,-32.29278564453125,5.298066139221191,2.341458320617676,5845.05810546875,0
949.039999999999,-0.009112305007874966,-0.0001490977156208828,0.00019215398060623556,0.0,0.0,0.0,0.0,-0.0030642373021692038,-0.005407797172665596,-0.0010022722417488694,0.9995128512382507,0.0,0.0,0.0,-32.313316345214844,5.304879188537598,2.3469934463500977,5848.7744140625,0
958.9369999999999,-0.009101585485041142,-0.000133879657369107,0.00025194979389198124,0.0,0.0,0.0,0.0,-0.0016895572189241648,0.0070973546244204044,-0.002579969586804509,0.9991880655288696,0.0,0.0,0.0,-32.327171325683594,5.307339191436768,2.3483529090881348,5851.2822265625,0
968.8149999999987,-0.00912662222981453,-0.00013495907478500158,0.0002492359490133822,0.0,0.0,0.0,0.0,0.0031929307151585817,0.006528016179800034,-0.0019241288537159562,1.0019477605819702,0.0,0.0,0.0,-32.29578399658203,5.304668426513672,2.3406548500061035,5845.6015625,0
978.7199999999993,-0.009108640253543854,-0.00011213489779038355,0.000303820677800104,0.0,0.0,0.0,0.0,-0.0016268040053546429,0.000871392956469208,0.0022325951140373945,0.9997185468673706,0.0,0.0,0.0,-32.31193923950195,5.315523624420166,2.329780101776123,5848.52490234375,0
988.5829999999987,-0.009069830179214478,-8.780966891208664e-05,0.0001662975555518642,0.0,0.0,0.0,0.0,-0.0004150101449340582,-0.002269734861329198,-0.00025681094848550856,0.9992693662643433,0.0,0.0,0.0,-32.32503128051758,5.3285112380981445,2.320603370666504,5850.89453125,0
998.4759999999987,-0.00906469114124775,-6.933164695510641e-05,0.00021939334692433476,0.0,0.0,0.0,0.0,-0.0015238190535455942,-0.0015129436505958438,-0.0010603901464492083,0.9977551102638245,0.0,0.0,0.0,-32.33906936645508,5.324712753295898,2.3174071311950684,5853.435546875,0
1008.3539999999994,-0.009084061719477177,-6.873442907817662e-05,0.00021642024512402713,0.0,0.0,0.0,0.0,-0.003802752587944269,0.0016856949077919126,-0.0011938454117625952,0.9986851215362549,0.0,0.0,0.0,-32.3073844909668,5.323641300201416,2.319796085357666,5847.70068359375,0
1018.2529999999988,-0.009046516381204128,-8.480741234961897e-05,0.0002332168660359457,0.0,0.0,0.0,0.0,-9.014690294861794e-05,-0.006113047711551189,-0.002662255195900798,0.9993477463722229,0.0,0.0,0.0,-32.32320022583008,5.324985504150391,2.332658529281616,5850.5634765625,0
1028.1319999999996,-0.009063269011676311,-8.699053432792425e-05,0.00022903822537045926,0.0,0.0,0.0,0.0,0.0008459544042125344,0.0037811966612935066,-0.0030157100409269333,1.0002762079238892,0.0,0.0,0.0,-32.291290283203125,5.322890281677246,2.3201653957366943,5844.78759765625,0
1038.0339999999997,-0.009036033414304256,-0.00010018544708145782,0.0002333193551748991,0.0,0.0,0.0,0.0,0.0030516046099364758,0.00462841521948576,0.0006132181151770055,1.001160740852356,0.0,0.0,0.0,-32.306602478027344,5.32154655456543,2.331613063812256,5847.5595703125,0
1047.9009999999998,-0.009077483788132668,-0.00017581529391463846,0.00014389731222763658,0.0,0.0,0.0,0.0,-0.0006495905690826476,0.0016312492080032825,-0.0021103646140545607,0.9997095465660095,0.0,0.0,0.0,-32.323341369628906,5.299656391143799,2.3204972743988037,5850.5888671875,0
1057.7889999999989,-0.009099933318793774,-0.0001331734238192439,0.00020412240701261908,0.0,0.0,0.0,0.0,0.00027016253443434834,0.005104367621243,-0.00044780399184674025,0.9981042742729187,0.0,0.0,0.0,-32.33711624145508,5.30541467666626,2.3053359985351562,5853.08203125,0
1067.67,-0.009117048233747482,-0.00013524136738851666,0.0002000098320422694,0.0,0.0,0.0,0.0,-0.002188350772485137,0.004908181261271238,-0.000699717435054481,0.9986701607704163,0.0,0.0,0.0,-32.305519104003906,5.300067901611328,2.3033089637756348,5847.36279296875,0
1077.566999999999,-0.00909365713596344,-0.00011095677473349497,0.00025581527734175324,0.0,0.0,0.0,0.0,0.0005664744530804455,0.0021568553056567907,0.0002806877891998738,1.0005358457565308,0.0,0.0,0.0,-32.32102966308594,5.302901744842529,2.2928147315979004,5850.17041015625,0
1087.4449999999997,-0.009111693128943443,-0.0001115684281103313,0.00025432248366996646,0.0,0.0,0.0,0.0,-0.003056426765397191,0.0007136521744541824,-0.002710893051698804,0.9989094138145447,0.0,0.0,0.0,-32.28956985473633,5.303144454956055,2.275282621383667,5844.47607421875,0
1097.3279999999995,-0.009102793410420418,-9.684154065325856e-05,0.00028766642208211124,0.0,0.0,0.0,0.0,0.000964575563557446,-0.001566656748764217,0.0015021113213151693,0.9977504014968872,0.0,0.0,0.0,-32.3071403503418,5.309963226318359,2.2850310802459717,5847.65625,0
1107.2109999999993,-0.009118642657995224,-0.00012763365521095693,0.0001604582357686013,0.0,0.0,0.0,0.0,0.001316984766162932,-0.000997546361759305,0.0008431871538050473,0.9999210238456726,0.0,0.0,0.0,-32.322532653808594,5.306362628936768,2.2756898403167725,5850.4423828125,0
1117.098,-0.00909346342086792,-0.00010916611063294113,0.000234143270063214,0.0,0.0,0.0,0.0,-0.0011792689329013228,0.0008084432920441031,0.0015630756970494986,0.997937023639679,0.0,0.0,0.0,-32.34204864501953,5.310225486755371,2.2831900119781494,5853.974609375,0
1126.9929999999986,-0.009110475890338421,-0.00011046397412428632,0.00022977056505624205,0.0,0.0,0.0,0.0,0.001306070713326335,0.002281546127051115,-0.002246455755084753,0.9981729388237,0.0,0.0,0.0,-32.30913543701172,5.2995476722717285,2.285714864730835,5848.01806640625,0
1136.869999999999,-0.00908803939819336,-9.4106093456503e-05,0.0002737901813816279,0.0,0.0,0.0,0.0,0.0008991227368824184,0.0003697815409395844,0.00048674558638595045,0.9999803304672241,0.0,0.0,0.0,-32.32673645019531,5.311524868011475,2.2964837551116943,5851.203125,0
1146.7559999999994,-0.009111309424042702,-0.00015338520461227745,0.00014763287617824972,0.0,0.0,0.0,0.0,0.002207251498475671,0.00016843684716150165,-0.00259220483712852,0.999439001083374,0.0,0.0,0.0,-32.333770751953125,5.301093101501465,2.302402973175049,5852.4765625,0
1156.6479999999992,-0.009076003916561604,-0.00016686251910869032,0.0001876479509519413,0.0,0.0,0.0,0.0,-0.0012764687417075038,-0.0006878955173306167,0.0006346931913867593,0.9997349977493286,0.0,0.0,0.0,-32.34769821166992,5.302900314331055,2.312406301498413,5854.998046875,0
1166.5329999999994,-0.009092774242162704,-0.0001687921758275479,0.00017845189722720534,0.0,0.0,0.0,0.0,-0.004614657256752253,-0.0018828335450962186,-0.0004902706132270396,0.9986424446105957,0.0,0.0,0.0,-32.316497802734375,5.294388294219971,2.3141262531280518,5849.35009765625,0
1176.4129999999986,-0.009071843698620796,-0.0001588175364304334,0.00021163132623769343,0.0,0.0,0.0,0.0,-0.0011082945857197046,0.0027359710074961185,-0.0006180533673614264,0.9981347322463989,0.0,0.0,0.0,-32.32926559448242,5.304444789886475,2.3153398036956787,5851.6611328125,0
1186.3029999999999,-0.009089781902730465,-0.00016178791702259332,0.00020431639859452844,0.0,0.0,0.0,0.0,0.0014775561867281795,-1.0301064321538433e-06,0.002116356510668993,0.9999060034751892,0.0,0.0,0.0,-32.29833221435547,5.3044562339782715,2.323761224746704,5846.06201171875,0
1196.1839999999993,-0.00906684435904026,-0.00014948552416171879,0.00023594942467752844,0.0,0.0,0.0,0.0,5.709247852792032e-05,0.005267134867608547,0.00024105777265504003,1.0001771450042725,0.0,0.0,0.0,-32.31218719482422,5.312952518463135,2.3303678035736084,5848.56982421875,0
1206.08,-0.009087678045034409,-0.00018616583838593215,0.00013348796346690506,0.0,0.0,0.0,0.0,0.0001410725963069126,0.0025987043045461178,0.0015075871488079429,0.9976300001144409,0.0,0.0,0.0,-32.32859420776367,5.3030476570129395,2.328474283218384,5851.53955078125,0
1215.9560000000001,-0.009052630513906479,-0.00022696293308399618,0.0001413576101185754,0.0,0.0,0.0,0.0,0.00036605435889214277,0.002254344057291746,-0.0016218682285398245,0.9984359741210938,0.0,0.0,0.0,-32.34037399291992,5.294704437255859,2.337754487991333,5853.671875,0
1225.8419999999987,-0.009105288423597813,-0.0003154258301947266,9.703394607640803e-05,0.0,0.0,0.0,0.0,0.0022215605713427067,0.0015063202008605003,-0.005473037716001272,1.002670168876648,0.0,0.0,0.0,-32.34883117675781,5.2723188400268555,2.322314500808716,5855.203125,0
1235.7299999999996,-0.009117992594838142,-0.0002688422682695091,0.0001578422379679978,0.0,0.0,0.0,0.0,-0.002154699992388487,0.002463066019117832,-0.0003063021576963365,1.0003975629806519,0.0,0.0,0.0,-32.357337951660156,5.282793045043945,2.312293291091919,5856.74267578125,0
1245.625,-0.009087052196264267,-0.00026333090499974787,5.680353206116706e-05,0.0,0.0,0.0,0.0,-0.00042992542148567736,0.005548878572881222,-0.0017351207789033651,0.9984121918678284,0.0,0.0,0.0,-32.36688995361328,5.289421081542969,2.3060715198516846,5858.4716796875,0
1255.4989999999998,-0.009104183875024319,-0.00018583369092084467,0.00013672927161678672,0.0,0.0,0.0,0.0,0.0020400499925017357,-0.0008636262500658631,-0.002652538940310478,0.9969283938407898,0.0,0.0,0.0,-32.37849807739258,5.298800945281982,2.2973482608795166,5860.57275390625,0
1265.3850000000002,-0.009123836643993855,-0.0002333527518203482,8.92737225512974e-05,0.0,0.0,0.0,0.0,-0.0025100838392972946,-0.001454735524021089,0.000276345235761255,0.9988136887550354,0.0,0.0,0.0,-32.38375473022461,5.286067485809326,2.2964344024658203,5861.5244140625,0
1275.2709999999988,-0.009124455973505974,-0.00016630864411126822,0.0001643839495955035,0.0,0.0,0.0,0.0,-0.0018179446924477816,-0.0024494496174156666,0.002065770560875535,0.9993087649345398,0.0,0.0,0.0,-32.399871826171875,5.2961883544921875,2.293550491333008,5864.44189453125,0
1285.161,-0.009087326936423779,-0.0001436376041965559,8.907742449082434e-05,0.0,0.0,0.0,0.0,0.0003025339974556118,-0.0006429104832932353,-0.0029410719871520996,0.9975754618644714,0.0,0.0,0.0,-32.40605163574219,5.305140018463135,2.294954299926758,5865.56005859375,0
1295.0439999999999,-0.009147362783551216,-4.759940929943696e-05,0.00014160285354591906,0.0,0.0,0.0,0.0,-0.0006176838069222867,0.0016415001591667533,-0.0028197146020829678,0.9969094395637512,0.0,0.0,0.0,-32.419921875,5.308746337890625,2.2766361236572266,5868.0703125,0
1304.9279999999999,-0.009174395352602005,-8.987634646473452e-05,0.0001061431466951035,0.0,0.0,0.0,0.0,0.0014945392031222582,-0.0011848085559904575,-0.001106995390728116,0.9980868101119995,0.0,0.0,0.0,-32.42573547363281,5.298157691955566,2.260721206665039,5869.12255859375,0
1314.8140000000003,-0.00916249118745327,-5.861869431100786e-05,0.00015228663687594235,0.0,0.0,0.0,0.0,0.0011377533664926887,0.010213175788521767,-0.0010885765077546239,0.9983718991279602,0.0,0.0,0.0,-32.43433380126953,5.307814598083496,2.27764892578125,5870.6787109375,0
1324.7079999999987,-0.009211380034685135,-0.00014227392966859043,0.00011121865099994466,0.0,0.0,0.0,0.0,0.0003124450449831784,0.005682148039340973,-0.004006405360996723,0.9977719783782959,0.0,0.0,0.0,-32.43687438964844,5.297175884246826,2.2662160396575928,5871.138671875,0
1334.5859999999993,-0.009179696440696716,-8.041175169637427e-05,0.0001963611284736544,0.0,0.0,0.0,0.0,0.0035632557701319456,-0.0018260936485603452,0.0011286339722573757,1.0011528730392456,0.0,0.0,0.0,-32.449275970458984,5.302477836608887,2.242949962615967,5873.3837890625,0
1344.4719999999998,-0.009195557795464993,-7.696628017583862e-05,0.0001875444722827524,0.0,0.0,0.0,0.0,0.003471287665888667,-0.0018395527731627226,-0.0007423801580443978,1.0011409521102905,0.0,0.0,0.0,-32.41736602783203,5.294068813323975,2.241164445877075,5867.6083984375,0
1354.3580000000002,-0.009162956848740578,-5.7946152082877234e-05,0.0002235475549241528,0.0,0.0,0.0,0.0,-0.0005043089622631669,0.0033608751837164164,0.0008609816431999207,0.9993451833724976,0.0,0.0,0.0,-32.42683029174805,5.295826435089111,2.247286319732666,5869.32080078125,0
1364.2439999999988,-0.009178088046610355,-5.497522579389624e-05,0.0002200864691985771,0.0,0.0,0.0,0.0,-0.0004781942698173225,0.001189794042147696,-0.0010861250339075923,0.9989678263664246,0.0,0.0,0.0,-32.3953971862793,5.287622451782227,2.248546838760376,5863.6318359375,0
1374.128999999999,-0.00910558458417654,-4.5764714741380885e-05,0.0002587420749478042,0.0,0.0,0.0,0.0,-0.0037904258351773024,0.004574112128466368,0.0043587773106992245,0.9989045858383179,0.0,0.0,0.0,-32.40436935424805,5.29541015625,2.2688889503479004,5865.25537109375,0
1384.0149999999994,-0.009177046827971935,-0.00014148569607641548,0.0002361835358897224,0.0,0.0,0.0,0.0,-0.0013425307115539908,-0.0031013465486466885,0.005973319988697767,0.9980216026306152,0.0,0.0,0.0,-32.41464614868164,5.2801337242126465,2.269912004470825,5867.115234375,0
1393.9009999999998,-0.009141196496784687,-0.00013310082431416959,0.00029732962138950825,0.0,0.0,0.0,0.0,0.0022427027579396963,0.004281827248632908,-0.0015486510237678885,0.9965510368347168,0.0,0.0,0.0,-32.4234619140625,5.291320323944092,2.2715201377868652,5868.71142578125,0
1403.7909999999993,-0.009142807684838772,-0.0001454744051443413,0.00024252707953564823,0.0,0.0,0.0,0.0,-0.0002641574537847191,0.000909313908778131,-0.0035620613489300013,0.9996184706687927,0.0,0.0,0.0,-32.43049621582031,5.2907257080078125,2.274944543838501,5869.984375,0
1413.6729999999989,-0.00901828519999981,-0.00020655401749536395,0.00030194217106327415,0.0,0.0,0.0,0.0,0.0003590261621866375,0.00042030398617498577,0.0001380844332743436,1.0008183717727661,0.0,0.0,0.0,-32.44100570678711,5.282362461090088,2.3121232986450195,5871.88671875,0
1423.566999999999,-0.009050734341144562,-0.00027057933039031923,0.0002666368382051587,0.0,0.0,0.0,0.0,0.003757966449484229,0.0023571825586259365,-0.0008646305650472641,0.9986960887908936,0.0,0.0,0.0,-32.446571350097656,5.268617630004883,2.300741195678711,5872.89404296875,0
1433.4439999999995,-0.008998110890388489,-0.0002827691496349871,0.00031948290416039526,0.0,0.0,0.0,0.0,-0.0022005015052855015,0.0014500494580715895,0.0020698439329862595,0.9992347955703735,0.0,0.0,0.0,-32.456600189208984,5.266860008239746,2.298767566680908,5874.70947265625,0
1443.348,-0.009007706306874752,-0.0002863554982468486,0.0003173979639541358,0.0,0.0,0.0,0.0,-0.00389088480733335,-0.0021185455843806267,-0.0011075668735429645,0.9990444779396057,0.0,0.0,0.0,-32.42399597167969,5.257954120635986,2.2904281616210938,5868.8076171875,0
1453.2159999999985,-0.008970764465630054,-0.0002822957467287779,0.00035477045457810163,0.0,0.0,0.0,0.0,-4.445775630301796e-06,-0.00263166893273592,0.004363738000392914,0.9972736239433289,0.0,0.0,0.0,-32.43295669555664,5.265521049499512,2.301150321960449,5870.4296875,0
1463.1099999999988,-0.00897811260074377,-0.00028710413607768714,0.0003539322642609477,0.0,0.0,0.0,0.0,0.0004356241843197495,0.0026000365614891052,-0.004816089291125536,0.9981572031974792,0.0,0.0,0.0,-32.40062713623047,5.263010501861572,2.30825138092041,5864.578125,0
1472.994999999999,-0.009038014337420464,-0.00025422085309401155,0.00037290359614416957,0.0,0.0,0.0,0.0,-0.0011349886190146208,3.755009674932808e-05,0.0013382502365857363,1.0007920265197754,0.0,0.0,0.0,-32.40998077392578,5.268392086029053,2.2923221588134766,5866.27099609375,0
1482.8819999999996,-0.0090491883456707,-0.0002551452489569783,0.0003707620780915022,0.0,0.0,0.0,0.0,-0.0009654961177147925,4.9512662371853366e-05,-0.0014749446418136358,1.0017356872558594,0.0,0.0,0.0,-32.378170013427734,5.263826370239258,2.2891786098480225,5860.51318359375,0
1492.759,-0.009073459543287754,-0.00021128117805346847,0.00041507379501126707,0.0,0.0,0.0,0.0,-0.0013977456837892532,-0.002005488844588399,0.005943154450505972,1.0011396408081055,0.0,0.0,0.0,-32.391021728515625,5.277568817138672,2.2802345752716064,5862.83935546875,0
1502.652,-0.009088310413062572,-0.00020863163808826357,0.00041871206485666335,0.0,0.0,0.0,0.0,0.0021021233405917883,0.006694820709526539,0.0008138924022205174,0.9962807893753052,0.0,0.0,0.0,-32.35878372192383,5.2705535888671875,2.2754647731781006,5857.00439453125,0
1512.5409999999993,-0.009079674258828163,-0.00020120860426686704,0.00043439018190838397,0.0,0.0,0.0,0.0,-0.0019596454221755266,0.0034396841656416655,-0.0029396640602499247,0.9979385137557983,0.0,0.0,0.0,-32.36994171142578,5.270576477050781,2.282836675643921,5859.02392578125,0
1522.4249999999993,-0.0090675950050354,-0.00016195824719034135,0.00025177866336889565,0.0,0.0,0.0,0.0,-0.002312734955921769,0.003947730641812086,-0.0008632933022454381,0.9995085597038269,0.0,0.0,0.0,-32.382930755615234,5.271073818206787,2.260432720184326,5861.375,0
1532.3059999999987,-0.009080571122467518,-0.00013306859182193875,0.00029637591796927154,0.0,0.0,0.0,0.0,-0.000787937140557915,0.0008890485623851418,0.002706157276406884,0.9989835023880005,0.0,0.0,0.0,-32.3965950012207,5.278902053833008,2.24910569190979,5863.84814453125,0
1542.200999999999,-0.009096511639654636,-0.000125847349409014,0.0002887530717998743,0.0,0.0,0.0,0.0,-0.0014501826371997595,0.004751992877572775,-0.0009403175208717585,1.0011394023895264,0.0,0.0,0.0,-32.36532211303711,5.277845859527588,2.254669427871704,5858.18798828125,0
1552.0779999999995,-0.009083001874387264,-9.17478755582124e-05,0.00033847219310700893,0.0,0.0,0.0,0.0,-0.0003648086276371032,0.003668478922918439,-0.0017442849930375814,1.0002743005752563,0.0,0.0,0.0,-32.376705169677734,5.291362285614014,2.260613203048706,5860.248046875,0
1561.9809999999998,-0.009053895249962807,-7.440842455253005e-05,0.00014551992353517562,0.0,0.0,0.0,0.0,-0.00011268294474575669,0.004462075419723988,0.002010459778830409,0.9988451600074768,0.0,0.0,0.0,-32.385047912597656,5.294122219085693,2.2483890056610107,5861.75830078125,0
1571.848,-0.00904723908752203,-4.5550259528681636e-05,0.00019858768791891634,0.0,0.0,0.0,0.0,-0.0013328486820682883,-0.005366094876080751,0.0011588014895096421,0.9998007416725159,0.0,0.0,0.0,-32.39778137207031,5.294332027435303,2.2346208095550537,5864.06298828125,0
1581.7479999999996,-0.009062514640390873,-3.893208850058727e-05,0.0001877100148703903,0.0,0.0,0.0,0.0,0.0003464656474534422,-0.004331513307988644,0.0005767181282863021,1.000143051147461,0.0,0.0,0.0,-32.36591339111328,5.2903218269348145,2.242903709411621,5858.294921875,0
1591.6170000000002,-0.009019270539283752,-5.985813550068997e-05,0.00019015259749721736,0.0,0.0,0.0,0.0,0.0015761276008561254,0.002683785045519471,-0.0032474282197654247,0.9982017278671265,0.0,0.0,0.0,-32.379878997802734,5.287596225738525,2.258552312850952,5860.82275390625,0
1601.5119999999988,-0.009030112065374851,-5.902836346649565e-05,0.00017919707170221955,0.0,0.0,0.0,0.0,0.0009256210178136826,0.005314155016094446,0.0009998211171478033,0.9990510940551758,0.0,0.0,0.0,-32.34746170043945,5.284251689910889,2.273831844329834,5854.955078125,0
1611.3989999999994,-0.009000178426504135,-5.566400432144292e-05,0.00019372915267013013,0.0,0.0,0.0,0.0,0.004142285790294409,-0.0019033609423786402,-0.0003050133818760514,0.9992346167564392,0.0,0.0,0.0,-32.36131286621094,5.282928466796875,2.2685723304748535,5857.46240234375,0
1621.2919999999995,-0.009007328189909458,-5.8915960835292935e-05,0.00018311903113499284,0.0,0.0,0.0,0.0,-0.00017936249787453562,0.005256579723209143,-0.005248307716101408,0.9963545203208923,0.0,0.0,0.0,-32.329586029052734,5.2727813720703125,2.2647905349731445,5851.71923828125,0
1631.1639999999989,-0.008997888304293156,-3.8114816561574116e-05,0.0002098175318678841,0.0,0.0,0.0,0.0,-0.002114733913913369,-0.002383551560342312,-0.0008956593810580671,0.9986715912818909,0.0,0.0,0.0,-32.34381103515625,5.2741899490356445,2.248159408569336,5854.2939453125,0
1641.066999999999,-0.009006022475659847,-4.094789255759679e-05,0.00019835172861348838,0.0,0.0,0.0,0.0,0.0008338242187164724,0.0011885748244822025,-0.0015940644079819322,0.9988431334495544,0.0,0.0,0.0,-32.31182861328125,5.267210960388184,2.2341949939727783,5848.5048828125,0
1650.932999999999,-0.009000689722597599,-1.2393859833537135e-05,0.00022783300664741546,0.0,0.0,0.0,0.0,-0.00031656568171456456,0.004861442372202873,-0.0006032773526385427,0.9987668395042419,0.0,0.0,0.0,-32.32624816894531,5.279533386230469,2.225961923599243,5851.11474609375,0
1660.8269999999993,-0.009010836482048035,-1.1680468560371082e-05,0.0002173168904846534,0.0,0.0,0.0,0.0,-0.002558011095970869,-0.003671785816550255,-0.0009536168654449284,0.9996663331985474,0.0,0.0,0.0,-32.29441833496094,5.273431301116943,2.2176501750946045,5845.35400390625,0
1670.705,-0.008996723219752312,4.2903911889879964e-06,0.0002300356572959572,0.0,0.0,0.0,0.0,0.0004885019734501839,0.0018968130461871624,-0.002686158986762166,1.0016400814056396,0.0,0.0,0.0,-32.31258010864258,5.278190612792969,2.2194035053253174,5848.64111328125,0
1680.5990000000002,-0.009005340747535229,6.648469025094528e-06,0.00022045132936909795,0.0,0.0,0.0,0.0,-0.0017153481021523476,-0.0027319167274981737,-0.0013715737732127309,1.002027988433838,0.0,0.0,0.0,-32.27973937988281,5.269951820373535,2.2213010787963867,5842.69677734375,0
1690.4759999999987,-0.009028634987771511,2.805431722663343e-05,0.00022185842681210488,0.0,0.0,0.0,0.0,0.0011058219242841005,0.0006254064501263201,-0.0026317681185901165,0.999780535697937,0.0,0.0,0.0,-32.29975891113281,5.263787746429443,2.2047412395477295,5846.3203125,0
1700.3769999999986,-0.009041626006364822,3.0242130378610454e-05,0.00021662011567968875,0.0,0.0,0.0,0.0,0.002889336319640279,-0.0029252232052385807,-0.0011756037129089236,0.9981766939163208,0.0,0.0,0.0,-32.26820755004883,5.264777183532715,2.2015411853790283,5840.60986328125,0
1710.2489999999998,-0.009015615098178387,3.6755540349986404e-05,0.00022995020844973624,0.0,0.0,0.0,0.0,0.0010585782583802938,0.002087261062115431,-0.003236977616325021,0.9974157214164734,0.0,0.0,0.0,-32.286842346191406,5.264774799346924,2.2170348167419434,5843.982421875,0
1720.1419999999998,-0.009027545340359211,3.92262008972466e-05,0.0002242524642497301,0.0,0.0,0.0,0.0,-0.0008135057287290692,0.0035240079741925,0.0014542959397658706,0.9979022741317749,0.0,0.0,0.0,-32.25501251220703,5.252849102020264,2.206751585006714,5838.2216796875,0
1730.0280000000002,-0.008999884128570557,2.3524118660134263e-05,0.00021384844148997217,0.0,0.0,0.0,0.0,0.0038656180258840322,0.006056016776710749,-0.00016767063061706722,0.9991452097892761,0.0,0.0,0.0,-32.27294921875,5.250140190124512,2.2141377925872803,5841.4677734375,0
1739.9169999999995,-0.009010917507112026,2.0965268049621955e-05,0.00020428730931598693,0.0,0.0,0.0,0.0,0.0008482070406898856,0.0007032377179712057,0.002310536801815033,0.9991388320922852,0.0,0.0,0.0,-32.24137496948242,5.234497547149658,2.2022366523742676,5835.7529296875,0
1749.7939999999999,-0.008983667008578777,-4.568172698782291e-06,0.0001796441647456959,0.0,0.0,0.0,0.0,0.002326366724446416,0.0025677045341581106,0.0008962084539234638,0.9974403977394104,0.0,0.0,0.0,-32.263641357421875,5.230108261108398,2.212416648864746,5839.78369140625,0
1759.6949999999997,-0.009134060703217983,-0.00018083422037307173,0.0002481868723407388,0.0,0.0,0.0,0.0,-0.004923839122056961,0.002100430428981781,-0.0010792193934321404,1.0004003047943115,0.0,0.0,0.0,-32.2743034362793,5.173821926116943,2.20597767829895,5841.71337890625,0
1769.5640000000003,-0.009115882217884064,-0.0002021049876930192,0.0002879252133425325,0.0,0.0,0.0,0.0,-0.0033347108401358128,0.00023924045672174543,0.0004530814185272902,0.99868243932724,0.0,0.0,0.0,-32.295127868652344,5.185061454772949,2.2084782123565674,5845.482421875,0
1779.458999999999,-0.009130612947046757,-0.00022025355428922921,0.0002779617498163134,0.0,0.0,0.0,0.0,-0.0033831947948783636,0.0024573642294853926,0.0010431894334033132,0.9978834390640259,0.0,0.0,0.0,-32.263511657714844,5.183679103851318,2.2088823318481445,5839.759765625,0
1789.3369999999995,-0.009129321202635765,-0.00021195698354858905,0.00033795053604990244,0.0,0.0,0.0,0.0,0.000843891641125083,0.0016881137853488326,0.0021093771792948246,0.9981619715690613,0.0,0.0,0.0,-32.2855339050293,5.203464031219482,2.201756477355957,5843.74609375,0
1799.2289999999994,-0.009156579151749611,-0.0002598996215965599,0.00024081740411929786,0.0,0.0,0.0,0.0,-0.0018952528480440378,-0.0013206721050664783,0.0016599141526967287,0.9992645978927612,0.0,0.0,0.0,-32.29758071899414,5.196361064910889,2.1983416080474854,5845.9267578125,0
1809.1099999999988,-0.009151728823781013,-0.00023172935470938683,0.00033909676130861044,0.0,0.0,0.0,0.0,0.00013527707778848708,0.0027323439717292786,0.00269759027287364,1.000360369682312,0.0,0.0,0.0,-32.318214416503906,5.209219932556152,2.203744888305664,5849.66064453125,0
1819.0010000000002,-0.009171290323138237,-0.0002488770696800202,0.0003322229313198477,0.0,0.0,0.0,0.0,-0.0038778018206357956,-0.001564100501127541,-0.001819891156628728,1.0006974935531616,0.0,0.0,0.0,-32.28595733642578,5.203118324279785,2.203183174133301,5843.822265625,0
1828.8779999999988,-0.009140516631305218,-0.0002661671314854175,0.00037098469329066575,0.0,0.0,0.0,0.0,-0.0012892103986814618,0.0040394277311861515,-0.00013890594709664583,0.9998389482498169,0.0,0.0,0.0,-32.306983947753906,5.213094711303711,2.2150862216949463,5847.6279296875,0
1838.7829999999994,-0.00910255964845419,-0.0002473200438544154,0.00021637110330630094,0.0,0.0,0.0,0.0,-0.00019641968538053334,-0.0030014540534466505,-0.00042032988858409226,0.9983910322189331,0.0,0.0,0.0,-32.32670211791992,5.22718620300293,2.2073352336883545,5851.197265625,0
1848.6499999999996,-0.009140687994658947,-0.0001939762878464535,0.0002932373608928174,0.0,0.0,0.0,0.0,0.00021688826382160187,0.009848215617239475,0.0025998742785304785,0.9989162683486938,0.0,0.0,0.0,-32.3438720703125,5.235559940338135,2.198881149291992,5854.3046875,0
1858.5439999999999,-0.009091837331652641,-0.0001855981390690431,0.00012053427053615451,0.0,0.0,0.0,0.0,0.0012904420727863908,0.0011553025105968118,0.00030332704773172736,0.9978135228157043,0.0,0.0,0.0,-32.358680725097656,5.241551876068115,2.1768605709075928,5856.98583984375,0
1868.4210000000003,-0.00910446047782898,-0.00017068334273062646,0.0001597665250301361,0.0,0.0,0.0,0.0,0.0011436518980190158,0.0013127413112670183,-0.0035622904542833567,0.998106837272644,0.0,0.0,0.0,-32.37163162231445,5.23483419418335,2.1775803565979004,5859.330078125,0
1878.315999999999,-0.009068834595382214,-0.00017491924518253654,1.000589327304624e-05,0.0,0.0,0.0,0.0,-0.0011083816643804312,0.0009913454996421933,-0.0007612821063958108,0.9986581206321716,0.0,0.0,0.0,-32.386802673339844,5.23710823059082,2.1759414672851562,5862.07568359375,0
1888.1970000000001,-0.009091939777135849,-9.963534830603749e-05,8.507320308126509e-05,0.0,0.0,0.0,0.0,0.003398322034627199,-0.0012394941877573729,0.0027425135485827923,1.000976324081421,0.0,0.0,0.0,-32.39954376220703,5.242610931396484,2.172802209854126,5864.38232421875,0
1898.098,-0.009072513319551945,-0.0001227499742526561,-5.0061684305546805e-05,0.0,0.0,0.0,0.0,0.0004130843735765666,6.612447032239288e-05,-0.0018359015230089426,0.9984481334686279,0.0,0.0,0.0,-32.40498733520508,5.240418434143066,2.173684597015381,5865.36767578125,0
1907.967999999999,-0.009070404805243015,-7.04898702679202e-05,1.4348002878250554e-05,0.0,0.0,0.0,0.0,-0.0010334368562325835,0.00020898770890198648,0.001175598008558154,0.9998772740364075,0.0,0.0,0.0,-32.414695739746094,5.245509147644043,2.1700680255889893,5867.12451171875,0
1917.8599999999988,-0.009091691114008427,-7.132484461180866e-05,-7.736478437436745e-06,0.0,0.0,0.0,0.0,-0.0013573712203651667,0.005893523804843426,-0.0027699549682438374,0.9972228407859802,0.0,0.0,0.0,-32.382572174072266,5.239567279815674,2.1709368228912354,5861.31005859375,0
1927.7399999999998,-0.009054409340023994,-5.604870239039883e-05,2.4857054086169228e-05,0.0,0.0,0.0,0.0,-0.0013193748891353607,-0.00022708081814926118,-0.001011334708891809,0.9987989068031311,0.0,0.0,0.0,-32.39432907104492,5.247077465057373,2.162156581878662,5863.43798828125,0
1937.6319999999996,-0.009076270274817944,-5.68515170016326e-05,3.526361979311332e-06,0.0,0.0,0.0,0.0,-0.002299615880474448,-0.004874795209616423,0.0013296917313709855,0.9986991882324219,0.0,0.0,0.0,-32.36306381225586,5.246829032897949,2.1632423400878906,5857.77880859375,0
1947.5159999999996,-0.00903860479593277,-5.766230606241152e-05,1.1011561582563445e-05,0.0,0.0,0.0,0.0,0.002277803374454379,0.004732469562441111,0.001719996565952897,0.9992703199386597,0.0,0.0,0.0,-32.37350845336914,5.253270149230957,2.184816598892212,5859.669921875,0
1957.4099999999999,-0.009060880169272423,-5.951555067440495e-05,-1.0328443750040606e-05,0.0,0.0,0.0,0.0,0.004205132834613323,0.004929500166326761,0.000575254438444972,0.9991819858551025,0.0,0.0,0.0,-32.34144973754883,5.239623069763184,2.1776227951049805,5853.86669921875,0
1967.2849999999999,-0.009030352346599102,-4.3271920731058344e-05,1.4857159840175882e-05,0.0,0.0,0.0,0.0,0.0015118588926270604,-0.001819784753024578,-0.0034642978571355343,1.0005748271942139,0.0,0.0,0.0,-32.35258865356445,5.241271495819092,2.168619394302368,5855.88330078125,0
1977.1779999999999,-0.009051404893398285,-4.505234755924903e-05,-3.6870733310934156e-06,0.0,0.0,0.0,0.0,-0.0016197446966543794,0.001532623078674078,0.0014211764791980386,1.000065565109253,0.0,0.0,0.0,-32.32067108154297,5.231122970581055,2.1675071716308594,5850.10546875,0
1987.0569999999989,-0.009081118740141392,-8.370358955289703e-06,2.65706839854829e-05,0.0,0.0,0.0,0.0,0.0003935818385798484,0.0004789631930179894,0.001480401842854917,0.9995561242103577,0.0,0.0,0.0,-32.34183120727539,5.239726543426514,2.149973154067993,5853.935546875,0
1996.9449999999997,-0.009105642326176167,-4.1053249333344866e-06,1.24399593914859e-05,0.0,0.0,0.0,0.0,-0.0015799722168594599,-0.0025858308654278517,-0.0014383256202563643,0.9987648725509644,0.0,0.0,0.0,-32.309879302978516,5.232499122619629,2.1574645042419434,5848.15234375,0
2006.8319999999985,-0.009074312634766102,2.7611331461230293e-05,5.953021172899753e-05,0.0,0.0,0.0,0.0,-0.001108374446630478,0.0027850018814206123,-0.0009749567834660411,0.9993337392807007,0.0,0.0,0.0,-32.330387115478516,5.249013900756836,2.1602721214294434,5851.8642578125,0
2016.726999999999,-0.009098080918192863,3.268881482654251e-05,4.902070213574916e-05,0.0,0.0,0.0,0.0,0.005367363337427378,0.005600038915872574,-0.0002670360554475337,0.9999668598175049,0.0,0.0,0.0,-32.298404693603516,5.247646331787109,2.1609013080596924,5846.0751953125,0
2026.6029999999992,-0.009035436436533928,1.6603360563749447e-05,5.0358346925349906e-05,0.0,0.0,0.0,0.0,-0.0008152781520038843,-0.00042000284884124994,-0.0026288898661732674,0.9986163377761841,0.0,0.0,0.0,-32.315513610839844,5.245205402374268,2.186408042907715,5849.171875,0
2036.4939999999988,-0.009054596535861492,1.8207505490863696e-05,4.002142304670997e-05,0.0,0.0,0.0,0.0,0.000340174010489136,-0.00036699732299894094,0.0014601065777242184,0.9984173774719238,0.0,0.0,0.0,-32.28368377685547,5.242905616760254,2.1818175315856934,5843.41064453125,0
2046.3819999999996,-0.009018952026963234,4.486602483666502e-05,9.103553020395339e-05,0.0,0.0,0.0,0.0,0.0020611078944057226,-0.004507007542997599,-0.0007579161319881678,1.0006334781646729,0.0,0.0,0.0,-32.30603790283203,5.259648323059082,2.1867949962615967,5847.45751953125,0
2056.26,-0.009114583022892475,-2.1605535948765464e-05,6.841971480753273e-05,0.0,0.0,0.0,0.0,-0.002312447875738144,0.0007400113390758634,-0.006811653263866901,0.9996964931488037,0.0,0.0,0.0,-32.323631286621094,5.227785110473633,2.1989846229553223,5850.64111328125,0
2066.1449999999986,-0.00906421896070242,-4.69876904389821e-05,0.00011837140482384712,0.0,0.0,0.0,0.0,0.0003380781854502857,0.0020109745673835278,-0.002478639595210552,1.0003407001495361,0.0,0.0,0.0,-32.33817672729492,5.2330322265625,2.217832088470459,5853.2744140625,0
2076.0319999999992,-0.009084002114832401,-4.885455564362928e-05,0.00011284761421848089,0.0,0.0,0.0,0.0,-0.0005512319621630013,-0.00402860576286912,0.00046824567834846675,1.001240849494934,0.0,0.0,0.0,-32.30696487426758,5.2269392013549805,2.2116193771362305,5847.62451171875,0
2085.9179999999997,-0.009068167768418789,-3.63074395863805e-05,0.00016578113718423992,0.0,0.0,0.0,0.0,0.0010216492228209972,0.005223526619374752,-0.0002959747507702559,0.9990845322608948,0.0,0.0,0.0,-32.325042724609375,5.235528469085693,2.219574451446533,5850.89697265625,0
2095.807999999999,-0.00908831786364317,-3.7785655877087265e-05,0.00016525220416951925,0.0,0.0,0.0,0.0,-0.0022192064207047224,0.00830424390733242,-0.002504694974049926,1.000417709350586,0.0,0.0,0.0,-32.2930908203125,5.229214191436768,2.208698034286499,5845.11328125,0
2105.697,-0.00904499739408493,-4.37197886640206e-05,0.00019992444140370935,0.0,0.0,0.0,0.0,-0.0005788156413473189,0.0005377326160669327,0.0006894940743222833,1.0004003047943115,0.0,0.0,0.0,-32.31419372558594,5.237168788909912,2.2012906074523926,5848.93310546875,0
2115.5879999999997,-0.009064475074410439,-4.655950760934502e-05,0.00020205129112582654,0.0,0.0,0.0,0.0,0.0024762405082583427,-0.0007458776235580444,-0.0005215590354055166,0.9988007545471191,0.0,0.0,0.0,-32.28160858154297,5.230112075805664,2.198235273361206,5843.03515625,0
2125.4609999999993,-0.009052070789039135,-3.4759250411298126e-05,0.00024220586055889726,0.0,0.0,0.0,0.0,-0.00048663641791790724,0.0011566904140636325,-0.002821683883666992,0.9986684322357178,0.0,0.0,0.0,-32.29793930053711,5.230831623077393,2.204113245010376,5845.9912109375,0
2135.3449999999993,-0.0090738320723176,-3.523526174831204e-05,0.00024594221031293273,0.0,0.0,0.0,0.0,-0.0018637562170624733,-0.00010079591447720304,-0.0017111011547967792,1.0011972188949585,0.0,0.0,0.0,-32.266807556152344,5.226025581359863,2.193636894226074,5840.3564453125,0
2145.232,-0.00905176717787981,-2.208292244176846e-05,0.00028877946897409856,0.0,0.0,0.0,0.0,0.0015196906169876456,0.00985823106020689,-0.002644104417413473,1.0018447637557983,0.0,0.0,0.0,-32.29226303100586,5.234336853027344,2.202890396118164,5844.96337890625,0
