timestamp,stateEstimate.x,stateEstimate.y,stateEstimate.z,controller.cmd_thrust,controller.cmd_roll,controller.cmd_pitch,controller.cmd_yaw,controller.r_roll,controller.r_pitch,controller.r_yaw,controller.accelz,controller.actuatorThrust,controller.roll,controller.pitch,controller.yaw,controller.rollRate,controller.pitchRate,controller.yawRate,controller.ctr_yaw
0.0,0.0014554272638633847,0.00041816162411123514,0.0005657727015204728,0.0,0.0,0.0,0.0,0.002382272854447365,0.004265258088707924,0.003920430317521095,1.0015053749084473,0.0,0.0,0.0,-1.9835704565048218,4.143113136291504,0.9773646593093872,359.0301818847656,0
9.891999999999825,0.0015200517373159528,0.0003979424072895199,0.0005317493341863155,0.0,0.0,0.0,0.0,-0.0013226086739450693,-0.001913350890390575,0.000828906602691859,1.0028210878372192,0.0,0.0,0.0,-1.9970018863677979,4.152377128601074,0.9850811958312988,361.4613342285156,0
19.77100000000064,0.0014435180928558111,0.0004303298774175346,0.0005158894928172231,0.0,0.0,0.0,0.0,-0.0006582176429219544,-0.000618656980805099,-0.0021209882106631994,0.9989264011383057,0.0,0.0,0.0,-1.9934982061386108,4.149573802947998,0.9631264805793762,360.8271789550781,0
29.67200000000048,0.0014701818581670523,0.00038268600474111736,0.0005315178423188627,0.0,0.0,0.0,0.0,-0.003110333578661084,-0.006685110740363598,0.00349964271299541,1.0000320672988892,0.0,0.0,0.0,-2.0039892196655273,4.1489973068237305,0.9695044159889221,362.72601318359375,0
39.543000000001484,0.0014455218333750963,0.00037412895471788943,0.000516424304805696,0.0,0.0,0.0,0.0,0.0009744642884470522,-0.0025506524834781885,0.0013351601082831621,1.0013529062271118,0.0,0.0,0.0,-1.995944619178772,4.154933452606201,0.9591215252876282,361.26995849609375,0
49.44200000000092,0.0014690359821543097,0.00032817726605571806,0.0005488259484991431,0.0,0.0,0.0,0.0,-2.543045047787018e-05,-0.0009609926491975784,0.00014681815810035914,1.0013452768325806,0.0,0.0,0.0,-1.9941295385360718,4.156449317932129,0.9732955098152161,360.94140625,0
59.314000000000306,0.0014295285800471902,0.0003264271072112024,0.0005340540665201843,0.0,0.0,0.0,0.0,0.001458930317312479,0.004422982223331928,-0.001827288419008255,1.0031050443649292,0.0,0.0,0.0,-1.983983039855957,4.162204742431641,0.9640994668006897,359.1048583984375,0
69.20900000000074,0.001461060019209981,0.0002823872200679034,0.0005578495329245925,0.0,0.0,0.0,0.0,-0.0029455542098730803,-0.001994644058868289,0.003314490430057049,1.0005919933319092,0.0,0.0,0.0,-1.9820842742919922,4.155195236206055,0.9621005654335022,358.76123046875,0
79.08899999999994,0.0014069390017539263,0.0003322566917631775,0.0005815165932290256,0.0,0.0,0.0,0.0,0.00148412783164531,-0.002862925175577402,0.0013658226234838367,1.0005536079406738,0.0,0.0,0.0,-1.9801033735275269,4.154792785644531,0.9709082245826721,358.40264892578125,0
88.97800000000097,0.00145573855843395,0.0003076526045333594,0.0006003468879498541,0.0,0.0,0.0,0.0,0.0011244680499657989,-0.0008370214491151273,-0.0015619790647178888,0.9995681047439575,0.0,0.0,0.0,-1.990683913230896,4.158944606781006,0.981696367263794,360.3177185058594,0
98.85599999999977,0.0013944159727543592,0.0003443625755608082,0.0006102115730755031,0.0,0.0,0.0,0.0,-0.0010801651515066624,-1.857115603343118e-05,-0.00012379646068438888,0.9979059100151062,0.0,0.0,0.0,-1.9887298345565796,4.153472423553467,0.9820070862770081,359.96405029296875,0
108.76200000000063,0.0014732647687196732,0.0003399798006284982,0.0005921354168094695,0.0,0.0,0.0,0.0,-0.0003025519836228341,0.0023330533877015114,-0.0005935916560702026,1.0000033378601074,0.0,0.0,0.0,-1.9795461893081665,4.159238815307617,0.9898168444633484,358.30181884765625,0
118.62700000000041,0.0014339600456878543,0.00036741653457283974,0.0006028063944540918,0.0,0.0,0.0,0.0,-0.002753904089331627,-0.005401776637881994,0.0021376637741923332,1.0016412734985352,0.0,0.0,0.0,-1.9768301248550415,4.155223369598389,0.9823266267776489,357.8102111816406,0
128.52300000000105,0.0014874933985993266,0.00034582606167532504,0.0006163117941468954,0.0,0.0,0.0,0.0,0.0005837957723997533,0.0024536813143640757,0.0033657923340797424,0.9984850287437439,0.0,0.0,0.0,-1.9865186214447021,4.156048774719238,0.9796132445335388,359.5638122558594,0
138.39900000000125,0.0014399751089513302,0.0003775657678488642,0.0006220726063475013,0.0,0.0,0.0,0.0,0.0024332376196980476,-0.0020555942319333553,-0.005053331609815359,0.9999366998672485,0.0,0.0,0.0,-1.9839740991592407,4.156618595123291,0.9823391437530518,359.1032409667969,0
148.2990000000009,0.0014666698407381773,0.00030139487353153527,0.0006254406762309372,0.0,0.0,0.0,0.0,0.0024547665379941463,0.0033331087324768305,-0.0010265056043863297,1.0002386569976807,0.0,0.0,0.0,-1.9908032417297363,4.147477149963379,0.9770678877830505,360.3393249511719,0
158.17000000000007,0.0013854746939614415,0.00034569340641610324,0.0006217195186764002,0.0,0.0,0.0,0.0,0.00016049103578552604,-0.0009595145820640028,-0.0008172133821062744,1.0003011226654053,0.0,0.0,0.0,-1.9897739887237549,4.1414289474487305,0.9715677499771118,360.15301513671875,0
168.0709999999999,0.0014824800891801715,0.0003643753589130938,0.0005960906273685396,0.0,0.0,0.0,0.0,-0.0006437072879634798,-0.0034764090087264776,0.0010037298779934645,1.0012998580932617,0.0,0.0,0.0,-1.9934380054473877,4.149807929992676,0.9830023050308228,360.8162536621094,0
177.9410000000007,0.0014075969811528921,0.00040467592771165073,0.0005882744444534183,0.0,0.0,0.0,0.0,0.000801416696049273,0.0017295940779149532,-0.00044000710477121174,0.9985098242759705,0.0,0.0,0.0,-1.9899702072143555,4.1490397453308105,0.9911821484565735,360.18853759765625,0
187.84400000000096,0.001486274879425764,0.0004061218351125717,0.0005651896353811026,0.0,0.0,0.0,0.0,0.0018418357940390706,0.00039211558760143816,-0.00022616748174186796,1.0017218589782715,0.0,0.0,0.0,-2.00006103515625,4.1537981033325195,1.0042905807495117,362.0150146484375,0
197.71700000000055,0.0014283951604738832,0.00044618171523325145,0.0005627908976748586,0.0,0.0,0.0,0.0,0.004431735724210739,0.0008935288060456514,0.0005612291279248893,1.0011928081512451,0.0,0.0,0.0,-1.9908909797668457,4.163464546203613,0.9891164302825928,360.3551940917969,0
207.60800000000017,0.0014936903025954962,0.00043289028690196574,0.0005436408682726324,0.0,0.0,0.0,0.0,-0.0005682199844159186,-9.797772509045899e-05,0.0006295798229984939,1.000935435295105,0.0,0.0,0.0,-2.0002503395080566,4.1580939292907715,0.9879758954048157,362.0492858886719,0
217.48400000000038,0.0014637333806604147,0.0004543651593849063,0.0005455681239254773,0.0,0.0,0.0,0.0,-0.0009585526422597468,-0.0008764392114244401,0.0022682526614516973,1.0008766651153564,0.0,0.0,0.0,-1.9899208545684814,4.162604808807373,0.968604564666748,360.17962646484375,0
227.3770000000004,0.0015160192269831896,0.0004410467518027872,0.0005469375755637884,0.0,0.0,0.0,0.0,0.0005280872574076056,-0.005367698613554239,-0.0007201451226137578,1.000812292098999,0.0,0.0,0.0,-1.9872355461120605,4.161410331726074,0.9720153212547302,359.6935729980469,0
237.26100000000042,0.001488303067162633,0.0004294411337468773,0.0005268100649118423,0.0,0.0,0.0,0.0,0.0025535286404192448,0.0016802484169602394,0.00012253160821273923,0.9989311695098877,0.0,0.0,0.0,-1.9849709272384644,4.15747594833374,0.9721472263336182,359.28369140625,0
247.15099999999984,0.0015400557313114405,0.0004040115454699844,0.0005228784866631031,0.0,0.0,0.0,0.0,-0.00349110784009099,-0.0032646090257912874,0.0009285620762966573,0.9992802739143372,0.0,0.0,0.0,-1.9945067167282104,4.15392541885376,0.9769382476806641,361.0096740722656,0
257.03499999999985,0.0015265473630279303,0.00041750571108423173,0.0005308372201398015,0.0,0.0,0.0,0.0,-0.00012206597602926195,0.0022506914101541042,-0.0011071068001911044,0.9976085424423218,0.0,0.0,0.0,-1.9927767515182495,4.149399757385254,0.9795917272567749,360.6965637207031,0
266.9260000000013,0.0015730378217995167,0.0003821656864602119,0.0005294952425174415,0.0,0.0,0.0,0.0,0.0006034665857441723,0.004148120526224375,-0.00273237656801939,0.9989433884620667,0.0,0.0,0.0,-2.006486177444458,4.151614189147949,0.9882470369338989,363.177978515625,0
276.7980000000007,0.0015065764309838414,0.0003983328933827579,0.0005078946705907583,0.0,0.0,0.0,0.0,-0.0022370568476617336,-0.003024427220225334,-0.00022000400349497795,1.0001596212387085,0.0,0.0,0.0,-2.003493547439575,4.153122425079346,0.9911657571792603,362.63629150390625,0
286.6920000000009,0.0015391508350148797,0.0003488848451524973,0.0005129929631948471,0.0,0.0,0.0,0.0,-6.518941518152133e-06,-0.002411603694781661,-0.0025907191447913647,1.0023558139801025,0.0,0.0,0.0,-1.9963431358337402,4.151331901550293,0.9861487150192261,361.3420715332031,0
296.5699999999997,0.0014646070776507258,0.0003647225967142731,0.00048747885739430785,0.0,0.0,0.0,0.0,-0.0027001644484698772,-0.00044107885332778096,0.0029308528173714876,0.9981665015220642,0.0,0.0,0.0,-1.9869569540023804,4.164806842803955,0.972989022731781,359.6431884765625,0
306.46900000000096,0.001515661017037928,0.00033451386843807995,0.0004765001649502665,0.0,0.0,0.0,0.0,-0.0011756399180740118,-0.001174124889075756,-0.002297154627740383,0.9986143112182617,0.0,0.0,0.0,-1.985264539718628,4.160431861877441,0.9747797250747681,359.3368225097656,0
316.34300000000076,0.0013994313776493073,0.0003970009565819055,0.00046182298683561385,0.0,0.0,0.0,0.0,-0.0025943771470338106,0.0023552868515253067,-0.0003449190116953105,0.9999054670333862,0.0,0.0,0.0,-1.9833838939666748,4.161585807800293,0.9788730144500732,358.9964294433594,0
326.2420000000002,0.001442437176592648,0.00039027846651151776,0.00048399806837551296,0.0,0.0,0.0,0.0,0.00029433739837259054,-0.001232135109603405,-0.0025953284930437803,0.9998655915260315,0.0,0.0,0.0,-1.9805363416671753,4.162428855895996,0.9736549258232117,358.48101806640625,0
336.1140000000014,0.0014204696053639054,0.00042050774209201336,0.000501885253470391,0.0,0.0,0.0,0.0,0.0014803126687183976,-0.00555193517357111,0.0023346419911831617,1.0013427734375,0.0,0.0,0.0,-1.9784668684005737,4.157595634460449,0.9753721356391907,358.1064453125,0
346.0169999999998,0.0014355623861774802,0.0003611587162595242,0.0005319529445841908,0.0,0.0,0.0,0.0,-0.00046600046334788203,-0.005562814883887768,0.0013835657155141234,1.000647783279419,0.0,0.0,0.0,-1.9768900871276855,4.151517391204834,0.9735920429229736,357.821044921875,0
355.8919999999998,0.0013893888099119067,0.00039591160020790994,0.000538164225872606,0.0,0.0,0.0,0.0,0.001173108583316207,-0.0010880441404879093,-0.0008592468220740557,1.0005698204040527,0.0,0.0,0.0,-1.9746620655059814,4.148106098175049,0.986620306968689,357.4177551269531,0
365.78100000000086,0.0014328511897474527,0.000362084450898692,0.0005508667090907693,0.0,0.0,0.0,0.0,-0.002213319530710578,-0.0033934765961021185,0.004207586869597435,0.9993507266044617,0.0,0.0,0.0,-1.986515998840332,4.147117614746094,1.005494475364685,359.5633239746094,0
375.6700000000001,0.0014134434750303626,0.0003863530291710049,0.0005694395513273776,0.0,0.0,0.0,0.0,0.002953826915472746,0.0018330160528421402,-0.001306783640757203,1.0007989406585693,0.0,0.0,0.0,-1.9838985204696655,4.145541191101074,1.00093412399292,359.0895690917969,0
385.5570000000007,0.0014564049197360873,0.0003431563382036984,0.0005756585742346942,0.0,0.0,0.0,0.0,0.002459932817146182,-0.003081945236772299,0.002772098872810602,1.0017037391662598,0.0,0.0,0.0,-1.9803496599197388,4.145499229431152,1.012271761894226,358.447265625,0
395.4290000000001,0.0013814042322337627,0.00035971507895737886,0.0005785715766251087,0.0,0.0,0.0,0.0,0.0029835680034011602,-0.00021597446175292134,0.0013149279402568936,1.000281572341919,0.0,0.0,0.0,-1.972499132156372,4.160128593444824,0.9789751768112183,357.0262451171875,0
405.3190000000013,0.0014201743761077523,0.0003171209536958486,0.0005867219879291952,0.0,0.0,0.0,0.0,-0.0021792862098664045,-0.003849369939416647,-0.00010650626063579693,0.9994524121284485,0.0,0.0,0.0,-1.9709292650222778,4.1576433181762695,0.985612690448761,356.7420959472656,0
415.1970000000001,0.0013974030734971166,0.00032538114464841783,0.0006207952392287552,0.0,0.0,0.0,0.0,-0.003661675611510873,0.0008161662262864411,-0.0009208040428347886,1.0009174346923828,0.0,0.0,0.0,-1.962060570716858,4.182403564453125,0.9646462202072144,355.1368713378906,0
425.09699999999975,0.001434094039723277,0.00028298160759732127,0.0006314331549219787,0.0,0.0,0.0,0.0,0.002111051930114627,-0.0023465068079531193,0.003073421772569418,1.0019536018371582,0.0,0.0,0.0,-1.9607075452804565,4.179868698120117,0.9626548886299133,354.8919372558594,0
434.96900000000096,0.0013582472456619143,0.00029270327650010586,0.0006585850496776402,0.0,0.0,0.0,0.0,-0.0021023298613727093,-0.003801882266998291,0.002213177504017949,1.0003069639205933,0.0,0.0,0.0,-1.954587459564209,4.205804347991943,0.9218719601631165,353.78424072265625,0
444.8630000000012,0.0013927040854468942,0.00025152944726869464,0.0006730282329954207,0.0,0.0,0.0,0.0,0.00022267739404924214,-0.0037516290321946144,0.0010247225873172283,1.0007736682891846,0.0,0.0,0.0,-1.9530613422393799,4.194998264312744,0.930984377861023,353.50799560546875,0
454.7399999999998,0.0013720722636207938,0.00025419326266273856,0.0007122442475520074,0.0,0.0,0.0,0.0,-0.0013831208925694227,0.008928955532610416,-0.0005776481702923775,1.0010159015655518,0.0,0.0,0.0,-1.9504011869430542,4.192296504974365,0.9370722770690918,353.0264892578125,0
464.64500000000044,0.001405734452418983,0.00021485891193151474,0.0007303593447431922,0.0,0.0,0.0,0.0,-0.0007906980463303626,-0.002001859014853835,-0.0011200382141396403,0.9995768070220947,0.0,0.0,0.0,-1.9491177797317505,4.189785957336426,0.9401671886444092,352.794189453125,0
474.51500000000124,0.0013608946464955807,0.00022128965065348893,0.0007631018524989486,0.0,0.0,0.0,0.0,0.0010498508345335722,-0.0019509252160787582,-0.0011534439399838448,0.9998022317886353,0.0,0.0,0.0,-1.9431183338165283,4.213720321655273,0.8938963413238525,351.7082824707031,0
484.40999999999985,0.0013919987250119448,0.000184869539225474,0.0007831197581253946,0.0,0.0,0.0,0.0,-0.0015348244924098253,-0.006497703492641449,0.0004459783376660198,1.0008347034454346,0.0,0.0,0.0,-1.940849781036377,4.211777687072754,0.8988680839538574,351.2976989746094,0
494.28300000000127,0.001357656205072999,0.0001935922628035769,0.0008155230316333473,0.0,0.0,0.0,0.0,-0.001788399531506002,-0.008479411713778973,0.001336444285698235,0.9989963173866272,0.0,0.0,0.0,-1.938408374786377,4.207448482513428,0.9185295701026917,350.8558044433594,0
504.1760000000013,0.001382703660055995,0.00015924021136015654,0.0008368113194592297,0.0,0.0,0.0,0.0,0.0018686348339542747,0.0033373141195625067,-0.0020731284748762846,0.9981619119644165,0.0,0.0,0.0,-1.936544418334961,4.203027725219727,0.9229193925857544,350.5184020996094,0
514.0560000000005,0.0013269315240904689,0.0001743952016113326,0.0008613672689534724,0.0,0.0,0.0,0.0,-3.0312924081954407e-06,0.0014892910839989781,0.0013306952314451337,1.0011286735534668,0.0,0.0,0.0,-1.9316930770874023,4.222798824310303,0.8836577534675598,349.6402893066406,0
523.9470000000001,0.0013451414415612817,0.0001437262981198728,0.0008814124739728868,0.0,0.0,0.0,0.0,8.922168490244076e-05,-0.0004604196874424815,-0.001766935340128839,1.0002013444900513,0.0,0.0,0.0,-1.929429531097412,4.216644287109375,0.8872413039207458,349.2305603027344,0
533.8370000000014,0.0012970924144610763,0.00015411833010148257,0.0009029594366438687,0.0,0.0,0.0,0.0,0.0008508843020536005,0.003978274296969175,1.9148505089106038e-05,0.9984678030014038,0.0,0.0,0.0,-1.9237687587738037,4.227373123168945,0.8515281081199646,348.2059631347656,0
543.7260000000006,0.001310367719270289,0.000124961428809911,0.0009242192027159035,0.0,0.0,0.0,0.0,-0.0008321396308019757,-0.0029214313253760338,-0.0025796513073146343,0.9994614720344543,0.0,0.0,0.0,-1.9221203327178955,4.22316837310791,0.851079523563385,347.9075927734375,0
553.6090000000004,0.0012836982496082783,0.0001285416365135461,0.0009554922580718994,0.0,0.0,0.0,0.0,-0.0017907732399180532,0.003329093800857663,0.0002775319735519588,0.9990946054458618,0.0,0.0,0.0,-1.9188969135284424,4.218349933624268,0.8467240929603577,347.32415771484375,0
563.4940000000006,0.0012956750579178333,9.523409244138747e-05,0.0009760354296304286,0.0,0.0,0.0,0.0,0.00023488559236284345,-0.0020818172488361597,-0.0013405930949375033,0.9990453720092773,0.0,0.0,0.0,-1.918013334274292,4.207525730133057,0.8502048254013062,347.16424560546875,0
573.371000000001,0.0013104826211929321,5.889945896342397e-05,0.000996067887172103,0.0,0.0,0.0,0.0,0.00012712737952824682,0.0012996526202186942,-1.0773795111163054e-05,0.9992793202400208,0.0,0.0,0.0,-1.9155319929122925,4.206723213195801,0.846795380115509,346.7151184082031,0
583.2660000000014,0.0013284162851050496,1.9846109353238717e-05,0.001015310175716877,0.0,0.0,0.0,0.0,-8.193641406251118e-05,0.002413041889667511,0.00029709681984968483,1.000644564628601,0.0,0.0,0.0,-1.9146385192871094,4.200191974639893,0.8471763730049133,346.5533447265625,0
593.1400000000012,0.001348581281490624,-2.2056356101529673e-05,0.0010340538574382663,0.0,0.0,0.0,0.0,0.0010485913371667266,-0.0074624838307499886,-0.00019192676700185984,1.001894235610962,0.0,0.0,0.0,-1.9125497341156006,4.189226150512695,0.8367952704429626,346.1753234863281,0
603.0330000000013,0.001554637448862195,0.0002443295088596642,0.0007341478485614061,0.0,0.0,0.0,0.0,-0.001186617650091648,0.00030141271417960525,-0.0010491200955584645,1.0019645690917969,0.0,0.0,0.0,-1.9292359352111816,4.244599342346191,0.8633615970611572,349.1955261230469,0
612.9220000000005,0.0015827089082449675,0.0002098084078170359,0.0007447248208336532,0.0,0.0,0.0,0.0,-0.0006488246726803482,-0.003676505060866475,-0.0004752801905851811,0.998376727104187,0.0,0.0,0.0,-1.9268568754196167,4.239367961883545,0.8714854121208191,348.7649230957031,0
622.8040000000001,0.001622388488613069,0.0002052880881819874,0.0007873598369769752,0.0,0.0,0.0,0.0,0.0008076150552369654,0.0064367917366325855,0.0016332053346559405,0.9975779056549072,0.0,0.0,0.0,-1.9253804683685303,4.240207195281982,0.8708544969558716,348.4976806640625,0
632.6820000000007,0.0016529317945241928,0.00016727493493817747,0.0008007470169104636,0.0,0.0,0.0,0.0,-0.002976424992084503,-0.0011596333933994174,0.0014614115934818983,0.9976020455360413,0.0,0.0,0.0,-1.9227303266525269,4.237693786621094,0.8718908429145813,348.01800537109375,0
642.5879999999997,0.0016999884974211454,0.00016282411525025964,0.000835812243167311,0.0,0.0,0.0,0.0,0.0007238961989060044,-0.00042929986375384033,0.00014578735863324255,0.9986503720283508,0.0,0.0,0.0,-1.9375572204589844,4.247802734375,0.8639804720878601,350.7016906738281,0
652.460000000001,0.001734947320073843,0.0001223003346240148,0.000846724899020046,0.0,0.0,0.0,0.0,0.00017959631804842502,-0.0027657810132950544,-0.00542175117880106,0.9984020590782166,0.0,0.0,0.0,-1.9346898794174194,4.249838352203369,0.8586404919624329,350.1827087402344,0
662.3550000000014,0.001800050842575729,0.00013521862274501473,0.0008740767952986062,0.0,0.0,0.0,0.0,0.0008423576364293694,0.0021814669016748667,-7.722161535639316e-05,0.9985437989234924,0.0,0.0,0.0,-1.9331735372543335,4.2461771965026855,0.8599051237106323,349.90826416015625,0
672.2250000000004,0.0018356831278651953,9.227294503943995e-05,0.0008838582434691489,0.0,0.0,0.0,0.0,-0.0014463708503171802,-0.008030176162719727,-0.0032777388114482164,0.9996399283409119,0.0,0.0,0.0,-1.9316571950912476,4.240891456604004,0.8778944611549377,349.6337890625,0
682.1239999999998,0.0018746939022094011,6.89226362737827e-05,0.0009195933816954494,0.0,0.0,0.0,0.0,-0.0008109901682473719,-0.0041770595125854015,-0.0021988055668771267,1.0002638101577759,0.0,0.0,0.0,-1.9481920003890991,4.246580600738525,0.8735530972480774,352.6266174316406,0
691.9970000000012,0.0019117139745503664,2.5667664885986596e-05,0.0009295525378547609,0.0,0.0,0.0,0.0,-0.0022343271411955357,0.001787316519767046,-0.00019004501518793404,1.0007879734039307,0.0,0.0,0.0,-1.946791648864746,4.23922061920166,0.8900412321090698,352.3731689453125,0
701.9050000000007,0.001972780330106616,9.583475730323698e-06,0.0009392367792315781,0.0,0.0,0.0,0.0,0.0011594309471547604,0.003027415368705988,0.00022692022321280092,1.0021183490753174,0.0,0.0,0.0,-1.9654897451400757,4.249981880187988,0.9051650166511536,355.757568359375,0
711.768,0.0020128395408391953,-3.6654215364251286e-05,0.000949726440012455,0.0,0.0,0.0,0.0,-0.00022647908190265298,-0.006103974301367998,0.004109506495296955,1.001281499862671,0.0,0.0,0.0,-1.9641567468643188,4.250850677490234,0.8957086801528931,355.51629638671875,0
721.6650000000009,0.0020625677425414324,-6.62895618006587e-05,0.0009760199463926256,0.0,0.0,0.0,0.0,3.6788249417440966e-05,-0.0002720550401136279,0.0013810900272801518,0.9985411763191223,0.0,0.0,0.0,-1.952660083770752,4.250510215759277,0.9013867378234863,353.4353942871094,0
731.5390000000007,0.002104496117681265,-0.00011601104051806033,0.0009900068398565054,0.0,0.0,0.0,0.0,-0.002190460916608572,-0.00769437849521637,0.0010871515842154622,0.9972807168960571,0.0,0.0,0.0,-1.9507665634155273,4.248904228210449,0.9049843549728394,353.0926208496094,0
741.4330000000009,0.002157579641789198,-0.00011577548139030114,0.0010724832536652684,0.0,0.0,0.0,0.0,0.0013068531407043338,0.0037716685328632593,-0.002813731087371707,0.9988272786140442,0.0,0.0,0.0,-1.9494056701660156,4.2447052001953125,0.9175718426704407,352.8463134765625,0
751.3119999999999,0.0022035506553947926,-0.0001670068595558405,0.0010885049123317003,0.0,0.0,0.0,0.0,-0.0010307413758710027,-0.006030461750924587,-0.0015192761784419417,0.9998501539230347,0.0,0.0,0.0,-1.9478678703308105,4.240135192871094,0.9163693785667419,352.5679626464844,0
761.2039999999997,0.0022686219308525324,-0.00019013398559764028,0.001119967200793326,0.0,0.0,0.0,0.0,0.004224821925163269,0.006241749506443739,0.00017399246280547231,1.0009608268737793,0.0,0.0,0.0,-1.9612321853637695,4.250711917877197,0.9245118498802185,354.9869384765625,0
771.0820000000003,0.0023195683024823666,-0.00024331278109457344,0.0011355705792084336,0.0,0.0,0.0,0.0,-0.0007621542317792773,0.0012582946801558137,0.000671160698402673,1.0021156072616577,0.0,0.0,0.0,-1.9593019485473633,4.239027976989746,0.9115493893623352,354.6375427246094,0
780.9830000000002,0.0023533327039331198,-0.0002683846396394074,0.001210985821671784,0.0,0.0,0.0,0.0,0.003316629445180297,0.004850923083722591,0.004710825625807047,1.0007379055023193,0.0,0.0,0.0,-1.9719234704971313,4.244137763977051,0.8961849808692932,356.92205810546875,0
790.8540000000012,0.0014644418843090534,0.0003380393609404564,0.0005453978665173054,0.0,0.0,0.0,0.0,-0.0009782464476302266,0.0008595409453846514,0.003294753609225154,0.9969247579574585,0.0,0.0,0.0,-1.9633593559265137,4.3574442863464355,0.7073359489440918,355.3719482421875,0
800.7540000000008,0.0014680471504107118,0.0003098449087701738,0.0005840511294081807,0.0,0.0,0.0,0.0,0.004098675679415464,-0.00012073707330273464,0.0045117479749023914,0.9990891218185425,0.0,0.0,0.0,-1.9608919620513916,4.345590591430664,0.7131039500236511,354.92535400390625,0
810.6260000000002,0.001387615455314517,0.0003670685109682381,0.0005688962992280722,0.0,0.0,0.0,0.0,-0.0020574359223246574,0.0001817395823309198,-0.0006053377292118967,0.9980994462966919,0.0,0.0,0.0,-1.9579416513442993,4.342927932739258,0.7192845940589905,354.3913269042969,0
820.518,0.0014043943956494331,0.00033336045453324914,0.0005460871034301817,0.0,0.0,0.0,0.0,0.0016526652034372091,0.005078097339719534,0.0013870338443666697,0.9971309900283813,0.0,0.0,0.0,-1.9736709594726562,4.340329170227051,0.7223487496376038,357.2383728027344,0
830.3960000000006,0.0013625655556097627,0.00036156817805022,0.000553531979676336,0.0,0.0,0.0,0.0,-0.002411031862720847,0.0004536961787380278,-0.0015871680807322264,0.9995081424713135,0.0,0.0,0.0,-1.9645984172821045,4.34312105178833,0.7167707085609436,355.5962219238281,0
840.2920000000013,0.0013991346349939704,0.000372692767996341,0.0005395357729867101,0.0,0.0,0.0,0.0,0.0027329071890562773,0.00020310876425355673,-0.0007867160602472723,1.0011337995529175,0.0,0.0,0.0,-1.9770188331604004,4.351386070251465,0.7098366618156433,357.8443603515625,0
850.1680000000015,0.0013835822464898229,0.00035440397914499044,0.0005278813769109547,0.0,0.0,0.0,0.0,-0.004108201712369919,-0.008885744027793407,0.004421881400048733,0.9979496002197266,0.0,0.0,0.0,-1.9689030647277832,4.3487067222595215,0.723747968673706,356.3753662109375,0
860.0670000000009,0.0014033641200512648,0.00035274619585834444,0.0005316086462698877,0.0,0.0,0.0,0.0,-0.0011326675303280354,0.0026269503869116306,0.0009599616751074791,0.9981480240821838,0.0,0.0,0.0,-1.9771889448165894,4.349355697631836,0.7373976111412048,357.8751525878906,0
869.9390000000003,0.0014314551372081041,0.00033248320687562227,0.0005544115556403995,0.0,0.0,0.0,0.0,0.0003648985002655536,-0.0023683207109570503,-0.0016831621760502458,0.9993497729301453,0.0,0.0,0.0,-1.9754130840301514,4.347081661224365,0.737990140914917,357.5536804199219,0
879.8410000000003,0.0014945785515010357,0.00037775092641822994,0.0005328786210156977,0.0,0.0,0.0,0.0,0.0011959465919062495,-0.0007392765255644917,-0.000140283620567061,1.001270055770874,0.0,0.0,0.0,-1.9731900691986084,4.337885856628418,0.7456492781639099,357.15130615234375,0
889.7139999999999,0.0014351330464705825,0.0003772829950321466,0.0005112683866173029,0.0,0.0,0.0,0.0,-0.00074870785465464,0.00207519787363708,-0.0006792182102799416,1.0016803741455078,0.0,0.0,0.0,-1.9725439548492432,4.330207824707031,0.7396554350852966,357.03436279296875,0
899.6090000000004,0.0014718169113621116,0.00039739071507938206,0.0005111846840009093,0.0,0.0,0.0,0.0,0.0004961286904290318,-0.0060911537148058414,0.0004780690651386976,1.0006440877914429,0.0,0.0,0.0,-1.9700230360031128,4.321582794189453,0.7334078550338745,356.57806396484375,0
909.4890000000014,0.0014130434719845653,0.00042878766544163227,0.0005186155322007835,0.0,0.0,0.0,0.0,-0.0022174916230142117,0.0019100474892184138,0.0014886975986883044,0.9995736479759216,0.0,0.0,0.0,-1.9676463603973389,4.3223724365234375,0.731546938419342,356.14788818359375,0
919.380000000001,0.0014451515162363648,0.00043702745460905135,0.0005195189150981605,0.0,0.0,0.0,0.0,-0.0017631582450121641,-0.00016764715837780386,0.001164826680906117,0.9994127750396729,0.0,0.0,0.0,-1.9654593467712402,4.320578098297119,0.7396573424339294,355.7520446777344,0
929.2610000000004,0.0013933947775512934,0.0004500834329519421,0.0005172848468646407,0.0,0.0,0.0,0.0,-0.0003526786749716848,-0.004060187842696905,0.0015364886494353414,0.9992629885673523,0.0,0.0,0.0,-1.9628660678863525,4.317923069000244,0.7334368824958801,355.28265380859375,0
939.1470000000008,0.0014307168312370777,0.0004634716606233269,0.0005126026808284223,0.0,0.0,0.0,0.0,0.001054312800988555,-0.004383658524602652,0.0018888580380007625,0.9979070425033569,0.0,0.0,0.0,-1.9604761600494385,4.3106560707092285,0.7453808188438416,354.8500671386719,0
949.0259999999998,0.0014011295279487967,0.0004706991894636303,0.0005171807715669274,0.0,0.0,0.0,0.0,0.00221084663644433,0.0008558405679650605,0.001674418686889112,0.99965900182724,0.0,0.0,0.0,-1.958472728729248,4.311344623565674,0.7650423049926758,354.4874267578125,0
958.9200000000001,0.0014128347393125296,0.00043205200927332044,0.0005056977970525622,0.0,0.0,0.0,0.0,0.0011386685073375702,-0.0013407394289970398,0.0025622916873544455,0.9994447827339172,0.0,0.0,0.0,-1.955653190612793,4.29857063293457,0.7627468109130859,353.97711181640625,0
968.7980000000007,0.0013854760909453034,0.0004383168707136065,0.0005099069094285369,0.0,0.0,0.0,0.0,0.004360945895314217,0.006362115498632193,0.001655345899052918,0.9974924325942993,0.0,0.0,0.0,-1.9529377222061157,4.294140815734863,0.7648102641105652,353.485595703125,0
978.6930000000011,0.0014343461953103542,0.0004438551259227097,0.0004848873650189489,0.0,0.0,0.0,0.0,0.00011502404959173873,0.001918534399010241,-0.0002654915442690253,0.9984164834022522,0.0,0.0,0.0,-1.9630264043807983,4.297337055206299,0.7710951566696167,355.31170654296875,0
988.5799999999999,0.0014022273244336247,0.0004542051756288856,0.0004843712376896292,0.0,0.0,0.0,0.0,0.0009600024786777794,-0.004704476799815893,0.0008072647033259273,0.997765302658081,0.0,0.0,0.0,-1.960622787475586,4.289146423339844,0.7622807025909424,354.8766174316406,0
998.4650000000001,0.0013969361316412687,0.0004071639268659055,0.000505212927237153,0.0,0.0,0.0,0.0,0.001251522684469819,0.002690740628167987,0.0016488899709656835,0.9994869232177734,0.0,0.0,0.0,-1.959203839302063,4.284761905670166,0.7623274326324463,354.6197814941406,0
1008.3400000000001,0.0014019230147823691,0.00036961244768463075,0.0004899674677290022,0.0,0.0,0.0,0.0,0.0007197390659712255,-0.001005331869237125,0.0018050194485113025,0.9998595714569092,0.0,0.0,0.0,-1.9513810873031616,4.2754597663879395,0.7620787024497986,353.203857421875,0
1018.237000000001,0.0014064436545595527,0.0003351216728333384,0.0005119901616126299,0.0,0.0,0.0,0.0,-0.00374707137234509,-0.004980078898370266,-0.0011895206989720464,1.001986026763916,0.0,0.0,0.0,-1.9480971097946167,4.272246360778809,0.7593496441841125,352.6094665527344,0
1028.112000000001,0.0013916174648329616,0.0003242810198571533,0.0005102688446640968,0.0,0.0,0.0,0.0,0.0020909402519464493,-0.0036945538595318794,0.0006759613752365112,1.0000816583633423,0.0,0.0,0.0,-1.9454758167266846,4.268422603607178,0.7707975506782532,352.1349792480469,0
1038.0030000000006,0.0014144404558464885,0.00030333580798469484,0.0005216025747358799,0.0,0.0,0.0,0.0,-0.00015346230065915734,-0.0003224215470254421,0.0008948734612204134,1.000841498374939,0.0,0.0,0.0,-1.9434608221054077,4.262973308563232,0.7771541476249695,351.770263671875,0
1047.8810000000012,0.0013924362137913704,0.0002989830682054162,0.0005258788005448878,0.0,0.0,0.0,0.0,-0.0006678274367004633,-0.0036173779517412186,0.0002191660605603829,1.0004653930664062,0.0,0.0,0.0,-1.9425078630447388,4.2502970695495605,0.770213782787323,351.5978088378906,0
1057.7800000000007,0.0014356367755681276,0.0003022571618203074,0.0005342833464965224,0.0,0.0,0.0,0.0,0.0008700016187503934,0.0033764918334782124,-0.002910271054133773,0.9999199509620667,0.0,0.0,0.0,-1.9517663717269897,4.259422302246094,0.7812378406524658,353.2735900878906,0
1067.6530000000002,0.001358891953714192,0.0003442117013037205,0.0005441616522148252,0.0,0.0,0.0,0.0,0.0014188997447490692,0.007832346484065056,-0.0007522354717366397,0.9977544546127319,0.0,0.0,0.0,-1.9502859115600586,4.25400972366333,0.7700151801109314,353.0056457519531,0
1077.5460000000003,0.0014002566458657384,0.0003403889131732285,0.0005449714371934533,0.0,0.0,0.0,0.0,-0.0019559739157557487,-0.006248053628951311,0.0007165214046835899,0.9987134337425232,0.0,0.0,0.0,-1.9623006582260132,4.255880832672119,0.7671928405761719,355.1803283691406,0
1087.424000000001,0.0014259479939937592,0.0003179232880938798,0.0005665514036081731,0.0,0.0,0.0,0.0,-0.0032612273935228586,-0.0027048911433666945,0.001023422577418387,0.9994710087776184,0.0,0.0,0.0,-1.9608421325683594,4.251557350158691,0.7635857462882996,354.91632080078125,0
1097.3180000000011,0.0014675491256639361,0.00030966507620178163,0.0005683539784513414,0.0,0.0,0.0,0.0,-0.0008342046057805419,0.006791680585592985,0.00038694526301696897,0.999968945980072,0.0,0.0,0.0,-1.974326729774475,4.2658305168151855,0.77353435754776,357.3570556640625,0
1107.1949999999997,0.001433488680049777,0.000304178218357265,0.0005662288167513907,0.0,0.0,0.0,0.0,-0.0014207045314833522,0.003210310824215412,2.8212916731717996e-05,1.001985788345337,0.0,0.0,0.0,-1.9725000858306885,4.258597373962402,0.7665724754333496,357.02642822265625,0
1117.0969999999998,0.0014772781869396567,0.00029831452411599457,0.0005689113168045878,0.0,0.0,0.0,0.0,-0.0007094824686646461,-0.004945979453623295,0.0015433230437338352,1.0005508661270142,0.0,0.0,0.0,-1.9862173795700073,4.262967109680176,0.7539499402046204,359.50927734375,0
1126.9670000000006,0.0014134617522358894,0.0003106950025539845,0.0005584911559708416,0.0,0.0,0.0,0.0,0.0012202590005472302,-0.0009036883129738271,-0.003975946456193924,1.0003453493118286,0.0,0.0,0.0,-1.984345555305481,4.2566657066345215,0.7585839629173279,359.17047119140625,0
1136.8730000000014,0.001455548801459372,0.00030499204876832664,0.0005629437509924173,0.0,0.0,0.0,0.0,-0.001104530063457787,-0.007724477909505367,0.0016046881210058928,1.0016978979110718,0.0,0.0,0.0,-1.9955122470855713,4.2626848220825195,0.7739125490188599,361.19171142578125,0
1146.7420000000002,0.0013763849856331944,0.00035101285902783275,0.0005703264614567161,0.0,0.0,0.0,0.0,0.0009065610938705504,0.004969646222889423,-0.002428285777568817,0.9996224641799927,0.0,0.0,0.0,-1.9931672811508179,4.263003826141357,0.7849449515342712,360.76727294921875,0
1156.6360000000004,0.0014226373750716448,0.0003457574639469385,0.000566846807487309,0.0,0.0,0.0,0.0,0.0010073105804622173,-0.0011097582755610347,0.0014231420354917645,0.9989803433418274,0.0,0.0,0.0,-2.0054965019226074,4.2685546875,0.7872506976127625,362.9988708496094,0
1166.509,0.0013831432443112135,0.00037513699498958886,0.0005909083411097527,0.0,0.0,0.0,0.0,0.0051182471215724945,0.0017686982173472643,-0.0026796709280461073,1.000320315361023,0.0,0.0,0.0,-2.002917766571045,4.262199878692627,0.7843660116195679,362.5321044921875,0
1176.407000000001,0.0014227037318050861,0.0003633694432210177,0.0005938591784797609,0.0,0.0,0.0,0.0,-0.0007012054556980729,0.0018891949439421296,0.0008382519008591771,0.9986463189125061,0.0,0.0,0.0,-2.0114595890045166,4.267735004425049,0.7947940230369568,364.07818603515625,0
1186.282000000001,0.0013731556246057153,0.0003832261136267334,0.0006053230026736856,0.0,0.0,0.0,0.0,-0.0011693574488162994,4.9164827942149714e-05,0.0013816431164741516,0.9989867210388184,0.0,0.0,0.0,-2.0097200870513916,4.256261825561523,0.7865719795227051,363.7633361816406,0
1196.1810000000005,0.0014378848718479276,0.00038674025563523173,0.0005735458107665181,0.0,0.0,0.0,0.0,-0.0004436145827639848,-0.00163721211720258,0.0025808243080973625,0.9994447231292725,0.0,0.0,0.0,-2.020521402359009,4.265831470489502,0.7863070964813232,365.7184143066406,0
1206.0520000000015,0.0013567691203206778,0.00040568754775449634,0.0005620853044092655,0.0,0.0,0.0,0.0,0.002304421504959464,-0.002232384867966175,-0.0012732726754620671,0.9990450143814087,0.0,0.0,0.0,-2.018191337585449,4.259884834289551,0.7819381952285767,365.2966613769531,0
1215.9530000000013,0.0014179886784404516,0.00041729016811586916,0.0005330658168531954,0.0,0.0,0.0,0.0,7.617388473590836e-05,0.004174397327005863,-0.001419772277586162,0.9992516040802002,0.0,0.0,0.0,-2.0268161296844482,4.272029876708984,0.785810649394989,366.8577575683594,0
1225.8240000000005,0.0013840944739058614,0.00042502739233896136,0.0005408392171375453,0.0,0.0,0.0,0.0,-0.0007080702926032245,-0.0022324237506836653,0.0032499111257493496,1.0000017881393433,0.0,0.0,0.0,-2.0242087841033936,4.264615058898926,0.7855483293533325,366.3858337402344,0
1235.7170000000006,0.0014024480478838086,0.0004040188214275986,0.000541788584087044,0.0,0.0,0.0,0.0,0.0007291598012670875,-0.0017004454275593162,0.0006900824373587966,1.0002222061157227,0.0,0.0,0.0,-2.0336687564849854,4.263669490814209,0.7792694568634033,368.0981140136719,0
1245.5950000000012,0.001324205077253282,0.00046867510536685586,0.0005667050718329847,0.0,0.0,0.0,0.0,-0.0015488900244235992,-0.0031917470041662455,0.002134263049811125,0.9994766712188721,0.0,0.0,0.0,-2.0325753688812256,4.264149188995361,0.7982858419418335,367.90020751953125,0
1255.4930000000004,0.0013874166179448366,0.0004804191121365875,0.0005219801096245646,0.0,0.0,0.0,0.0,-0.0011574162635952234,0.004903311375528574,-0.001038111513480544,1.0010550022125244,0.0,0.0,0.0,-2.0389277935028076,4.269619941711426,0.8110650181770325,369.04998779296875,0
1265.366,0.001327690202742815,0.0005270419642329216,0.0005420485977083445,0.0,0.0,0.0,0.0,-0.0035439825151115656,-0.00466294726356864,-0.0003789313486777246,0.9999898672103882,0.0,0.0,0.0,-2.0366485118865967,4.26453161239624,0.8193761706352234,368.6374206542969,0
1275.2620000000006,0.0013742122100666165,0.0005173104582354426,0.0005045172292739153,0.0,0.0,0.0,0.0,0.00045065858284942806,0.0035778863821178675,-0.0004803324118256569,0.9999589323997498,0.0,0.0,0.0,-2.048311233520508,4.26834774017334,0.8250390291213989,370.7483825683594,0
1285.139000000001,0.0014180024154484272,0.0004534797044470906,0.0004996872739866376,0.0,0.0,0.0,0.0,-0.000510568730533123,-0.00491698132827878,0.0013684460427612066,1.0024361610412598,0.0,0.0,0.0,-2.0402276515960693,4.262338638305664,0.8382737040519714,369.2852783203125,0
1295.0310000000009,0.0014527369057759643,0.0004437541065271944,0.0004950185539200902,0.0,0.0,0.0,0.0,-0.0009288557339459658,-0.00028605901752598584,0.0063519589602947235,1.0025718212127686,0.0,0.0,0.0,-2.051652669906616,4.262282848358154,0.8412928581237793,371.3531799316406,0
1304.9099999999999,0.0014169084606692195,0.0004564331902656704,0.0005011319881305099,0.0,0.0,0.0,0.0,0.0019695633091032505,0.0036784682888537645,0.0036312357988208532,1.0003259181976318,0.0,0.0,0.0,-2.043867349624634,4.267939567565918,0.8366411924362183,369.944091796875,0
1314.8029999999999,0.0014173268573358655,0.0004169109452050179,0.0005296100280247629,0.0,0.0,0.0,0.0,0.0017467740690335631,0.004168355837464333,-5.8293164329370484e-05,0.9987336993217468,0.0,0.0,0.0,-2.04044771194458,4.26243257522583,0.8332969546318054,369.3251037597656,0
1324.6860000000015,0.0014579734997823834,0.0003766100271604955,0.0005482787964865565,0.0,0.0,0.0,0.0,-0.003028372535482049,0.0007013349677436054,-0.000963234284427017,0.9969435930252075,0.0,0.0,0.0,-2.029651641845703,4.259302616119385,0.8334656357765198,367.3709716796875,0
1334.58,0.0014618684072047472,0.00033449273905716836,0.0005805371911264956,0.0,0.0,0.0,0.0,-0.0009882212616503239,-0.0019458979368209839,0.0009043602040037513,0.999656081199646,0.0,0.0,0.0,-2.0270566940307617,4.257485866546631,0.8302344679832458,366.90130615234375,0
1344.4520000000011,0.001412617159076035,0.00032741622999310493,0.0005641198367811739,0.0,0.0,0.0,0.0,0.000636710727121681,-2.4962206225609407e-05,0.0012863490264862776,1.0007407665252686,0.0,0.0,0.0,-2.0146255493164062,4.261322498321533,0.8222624063491821,364.6512451171875,0
1354.3450000000012,0.0013890542322769761,0.00025205346173606813,0.0006065643392503262,0.0,0.0,0.0,0.0,-0.0015038677956908941,0.00304747954942286,-0.0011797647457569838,1.0004457235336304,0.0,0.0,0.0,-2.0222253799438477,4.256236553192139,0.8146759271621704,366.02685546875,0
1364.228000000001,0.0013531310250982642,0.00025124018429778516,0.0006104661733843386,0.0,0.0,0.0,0.0,-0.0030977416317909956,-0.0029771539848297834,-0.003957891371101141,1.0014946460723877,0.0,0.0,0.0,-2.0194485187530518,4.251070976257324,0.8097656965255737,365.5242004394531,0
1374.1239999999998,0.0014018014771863818,0.0002609770745038986,0.0006220309878699481,0.0,0.0,0.0,0.0,-0.0004736023838631809,-0.001075062551535666,-0.00020590941130649298,0.9998670816421509,0.0,0.0,0.0,-2.017573595046997,4.253258228302002,0.8111096024513245,365.184814453125,0
1384.0040000000008,0.0013379429001361132,0.0003035349363926798,0.0006409497000277042,0.0,0.0,0.0,0.0,-0.0018747273134067655,-0.0019064978696405888,-0.0012329525779932737,0.9991147518157959,0.0,0.0,0.0,-2.0093994140625,4.266714572906494,0.8136361241340637,363.7052917480469,0
1393.8960000000006,0.0014067186275497079,0.00031895042047835886,0.0006300320383161306,0.0,0.0,0.0,0.0,8.53377569001168e-05,0.0026077411603182554,-0.0016570365987718105,0.9983693361282349,0.0,0.0,0.0,-2.021575450897217,4.272664546966553,0.8164175748825073,365.9091491699219,0
1403.7660000000014,0.0013323989696800709,0.00038343900814652443,0.0006552253034897149,0.0,0.0,0.0,0.0,-0.002329861279577017,0.00026426653494127095,-0.002558252541348338,1.0001095533370972,0.0,0.0,0.0,-2.0130743980407715,4.291553974151611,0.8113721013069153,364.3704833984375,0
1413.661,0.0014322929782792926,0.0004093342286068946,0.0006005175528116524,0.0,0.0,0.0,0.0,0.0023613350931555033,0.0006448420463129878,0.001736202510073781,1.0001156330108643,0.0,0.0,0.0,-2.028773307800293,4.294507026672363,0.807229220867157,367.2120056152344,0
1423.5380000000005,0.0013978361384943128,0.00042157372809015214,0.0006000874564051628,0.0,0.0,0.0,0.0,-0.003164943540468812,-0.0014903090195730329,-0.0018198941834270954,0.9992753267288208,0.0,0.0,0.0,-2.0268163681030273,4.284947872161865,0.8075565695762634,366.8577880859375,0
1433.4310000000005,0.0014680298045277596,0.00043885339982807636,0.0005923549178987741,0.0,0.0,0.0,0.0,0.0010968585265800357,0.0037531668785959482,-0.000930480717215687,0.9997144937515259,0.0,0.0,0.0,-2.0252468585968018,4.282680988311768,0.7968612909317017,366.57373046875,0
1443.309000000001,0.001392811769619584,0.0004641618288587779,0.0005688013043254614,0.0,0.0,0.0,0.0,-0.00022046432422939688,-0.0053290859796106815,-0.002476604888215661,0.9998361468315125,0.0,0.0,0.0,-2.0232841968536377,4.279778480529785,0.785414457321167,366.2184753417969,0
1453.2129999999997,0.0014615225372835994,0.0004580630920827389,0.0005355977918952703,0.0,0.0,0.0,0.0,5.272964699543081e-06,-0.004212011117488146,3.548596578184515e-05,0.9995618462562561,0.0,0.0,0.0,-2.029482364654541,4.279858112335205,0.7891423106193542,367.34033203125,0
1463.0830000000005,0.0015086412895470858,0.0004286890325602144,0.0005417002830654383,0.0,0.0,0.0,0.0,-0.0019029007526114583,0.002917978446930647,0.0008877296932041645,0.9995175004005432,0.0,0.0,0.0,-2.021946907043457,4.281060695648193,0.7994499802589417,365.9764099121094,0
1472.9750000000004,0.0015534372068941593,0.00033019547117874026,0.0005687429220415652,0.0,0.0,0.0,0.0,-0.0014208783395588398,-0.008782798424363136,-0.0030586938373744488,1.000413417816162,0.0,0.0,0.0,-2.0283262729644775,4.269515514373779,0.8039732575416565,367.1310729980469,0
1482.8520000000008,0.001456986297853291,0.0003699196968227625,0.0005358348716981709,0.0,0.0,0.0,0.0,0.003106896299868822,-0.0013774201506748796,-0.0012847711332142353,1.0012966394424438,0.0,0.0,0.0,-2.0217437744140625,4.276121616363525,0.7873789072036743,365.93963623046875,0
1492.7399999999998,0.0015115182613953948,0.00035037630004808307,0.0005188218201510608,0.0,0.0,0.0,0.0,0.0029482569079846144,0.001874136389233172,0.0003087827062699944,1.0016535520553589,0.0,0.0,0.0,-2.0196824073791504,4.269929885864258,0.8005982637405396,365.5665283203125,0
1502.6230000000014,0.001465661101974547,0.00035982535337097943,0.0005018902593292296,0.0,0.0,0.0,0.0,0.0013381108874455094,0.0019635686185210943,-0.0002510619524400681,0.9996258020401001,0.0,0.0,0.0,-2.016195058822632,4.266766548156738,0.7951357960700989,364.935302734375,0
1512.5150000000012,0.001484916778281331,0.0003167800314258784,0.0005309552070684731,0.0,0.0,0.0,0.0,0.0007192576304078102,-0.004938839934766293,-0.00042809353908523917,0.9996092319488525,0.0,0.0,0.0,-2.029400587081909,4.2619709968566895,0.7857849597930908,367.3255310058594,0
1522.3950000000004,0.001485501299612224,0.00032302606268785894,0.0005500491242855787,0.0,0.0,0.0,0.0,0.0008612117962911725,0.0011784235248342156,0.0003489897644612938,1.001051902770996,0.0,0.0,0.0,-2.020901918411255,4.265931606292725,0.7797000408172607,365.7872314453125,0
1532.2810000000009,0.0015367104206234217,0.00029792889836244285,0.0005427849828265607,0.0,0.0,0.0,0.0,0.0012250331928953528,0.001130324904806912,-0.0027425733860582113,1.0005584955215454,0.0,0.0,0.0,-2.018582344055176,4.262195587158203,0.788940966129303,365.3674011230469,0
1542.166000000001,0.0014643986942246556,0.0003226344124414027,0.0005295127048157156,0.0,0.0,0.0,0.0,0.0006895352271385491,0.003522582584992051,0.0006764676072634757,0.9993563294410706,0.0,0.0,0.0,-2.0094566345214844,4.263160705566406,0.7672674655914307,363.71563720703125,0
1552.0610000000015,0.0014910235768184066,0.0002880252432078123,0.000551931094378233,0.0,0.0,0.0,0.0,-0.0018683583475649357,0.0003537493175826967,0.0012964882189407945,0.9992651343345642,0.0,0.0,0.0,-2.008018970489502,4.250549793243408,0.7630716562271118,363.4554748535156,0
1561.9410000000007,0.0014078686945140362,0.00034183490788564086,0.000558135739993304,0.0,0.0,0.0,0.0,0.0004266037722118199,-0.0021138533484190702,-0.0004109180881641805,0.9997352957725525,0.0,0.0,0.0,-1.999121069908142,4.2686967849731445,0.7482151389122009,361.8448791503906,0
1571.8289999999997,0.0014856946654617786,0.0003530890680849552,0.0005345808458514512,0.0,0.0,0.0,0.0,-0.0010466353269293904,-0.003175408346578479,-0.0011645093327388167,0.9997891187667847,0.0,0.0,0.0,-2.00789737701416,4.282442569732666,0.7525855898857117,363.4334411621094,0
1581.7090000000007,0.0014211423695087433,0.0003996880550403148,0.0005421768873929977,0.0,0.0,0.0,0.0,0.00018754797929432243,0.00038202566793188453,0.0013885285006836057,0.9994468688964844,0.0,0.0,0.0,-2.0043399333953857,4.273070335388184,0.7542890310287476,362.78948974609375,0
1591.6059999999998,0.0014779397752135992,0.00032459976500831544,0.0005662661278620362,0.0,0.0,0.0,0.0,0.00046501978067681193,-0.0006811690982431173,0.0004134073096793145,1.0009820461273193,0.0,0.0,0.0,-1.996824026107788,4.268468379974365,0.7603416442871094,361.42913818359375,0
1601.4800000000014,0.0013989333529025316,0.00038763383054174483,0.0005639584851451218,0.0,0.0,0.0,0.0,-0.003226326545700431,-0.00440297881141305,0.0016287051839753985,0.9995867013931274,0.0,0.0,0.0,-1.9904630184173584,4.279730796813965,0.7469315528869629,360.2777404785156,0
1611.3690000000006,0.001493025803938508,0.00034112652065232396,0.0005520762060768902,0.0,0.0,0.0,0.0,0.0011768040712922812,-0.0008308863616548479,-0.0006422143778763711,0.9999454617500305,0.0,0.0,0.0,-1.9791978597640991,4.277728080749512,0.7570595145225525,358.2387390136719,0
1621.2560000000012,0.0014257179573178291,0.0003741784312296659,0.000532822567038238,0.0,0.0,0.0,0.0,0.0006959966267459095,-1.8601758711156435e-05,0.0003160479536745697,1.0001263618469238,0.0,0.0,0.0,-1.9791978597640991,4.277728080749512,0.7570595145225525,358.2387390136719,0
1631.1440000000002,0.0014909342862665653,0.0003156790044158697,0.0005603663739748299,0.0,0.0,0.0,0.0,-0.0017722208285704255,0.0018083028262481093,-0.0006336251390166581,0.9987267851829529,0.0,0.0,0.0,-1.9760048389434814,4.265701770782471,0.7623010277748108,357.6607971191406,0
1641.0280000000002,0.0013971601147204638,0.0003957044973503798,0.0005613177781924605,0.0,0.0,0.0,0.0,0.001297816983424127,-0.0013238178798928857,-0.0009576061856932938,1.0011032819747925,0.0,0.0,0.0,-1.9760048389434814,4.265701770782471,0.7623010277748108,357.6607971191406,0
1650.911,0.0014987899921834469,0.0003843591548502445,0.0005609862273558974,0.0,0.0,0.0,0.0,-0.0012803432764485478,0.0003990837431047112,0.0014963810099288821,1.000798225402832,0.0,0.0,0.0,-1.9662967920303345,4.2683515548706055,0.7542291283607483,355.9036560058594,0
1660.7939999999999,0.0014520304976031184,0.0004039175109937787,0.0005439576343633235,0.0,0.0,0.0,0.0,0.0006768948514945805,-0.0021816021762788296,0.0003885876212734729,0.9990575313568115,0.0,0.0,0.0,-1.9662967920303345,4.2683515548706055,0.7542291283607483,355.9036560058594,0
1670.683000000001,0.0014910883037373424,0.0003117536543868482,0.0005741267814300954,0.0,0.0,0.0,0.0,-0.0008868444128893316,0.002722720382735133,-0.0014634007820859551,0.9987887144088745,0.0,0.0,0.0,-1.9618281126022339,4.26811408996582,0.7626702189445496,355.09478759765625,0
1680.5660000000007,0.0014323509531095624,0.0003462099703028798,0.000561172841116786,0.0,0.0,0.0,0.0,0.0002387746935710311,0.0020397070329636335,0.003165074624121189,1.000028133392334,0.0,0.0,0.0,-1.9618281126022339,4.26811408996582,0.7626702189445496,355.09478759765625,0
1690.4660000000003,0.0014858039794489741,0.00027833416243083775,0.0005912395427003503,0.0,0.0,0.0,0.0,0.002786018420010805,0.001519123325124383,-0.0031545625533908606,0.999497652053833,0.0,0.0,0.0,-1.9573129415512085,4.257194519042969,0.7490394115447998,354.27752685546875,0
1700.3370000000014,0.0013584207044914365,0.000369443790987134,0.0005802099476568401,0.0,0.0,0.0,0.0,0.0021460128482431173,0.004019713029265404,-0.0015151812694966793,0.998235821723938,0.0,0.0,0.0,-1.9573129415512085,4.257194519042969,0.7490394115447998,354.27752685546875,0
1710.2240000000002,0.0014273013221099973,0.00031105292146094143,0.0005898396484553814,0.0,0.0,0.0,0.0,0.001535191317088902,-0.0037610286381095648,-0.0021373892668634653,0.9984050393104553,0.0,0.0,0.0,-1.9544845819473267,4.24773645401001,0.7334632277488708,353.7655944824219,0
1720.1100000000006,0.0013913457514718175,0.0003305098507553339,0.0005803249077871442,0.0,0.0,0.0,0.0,-0.001882879063487053,-0.0007724034949205816,0.0019278175896033645,0.9990098476409912,0.0,0.0,0.0,-1.9544845819473267,4.24773645401001,0.7334632277488708,353.7655944824219,0
1729.9950000000008,0.001513920840807259,0.0003069629310630262,0.0005425849230960011,0.0,0.0,0.0,0.0,-0.0024494649842381477,0.005221826955676079,-0.0021293419413268566,1.0029399394989014,0.0,0.0,0.0,-1.9643633365631104,4.2602152824401855,0.7596076130867004,355.5537109375,0
1739.880000000001,0.0014283743221312761,0.00038895319448783994,0.0005519000114873052,0.0,0.0,0.0,0.0,-0.0003800771664828062,-0.0017965282313525677,-0.0007490090210922062,1.0019477605819702,0.0,0.0,0.0,-1.9643633365631104,4.2602152824401855,0.7596076130867004,355.5537109375,0
1749.7720000000008,0.0014983596047386527,0.00031508953543379903,0.0005629813531413674,0.0,0.0,0.0,0.0,-7.960021321196109e-05,-0.00010019516776083037,-0.0038975970819592476,0.9997497797012329,0.0,0.0,0.0,-1.9761382341384888,4.258217811584473,0.7566722631454468,357.68499755859375,0
1759.6509999999998,0.0014274631394073367,0.0003526533837430179,0.0005442257970571518,0.0,0.0,0.0,0.0,-3.968736564274877e-05,-0.004826124291867018,0.0008569136261940002,0.9978000521659851,0.0,0.0,0.0,-1.9761382341384888,4.258217811584473,0.7566722631454468,357.68499755859375,0
1769.5390000000007,0.0015376972733065486,0.00032999366521835327,0.0005360442446544766,0.0,0.0,0.0,0.0,0.003952219616621733,0.0015402974095195532,0.0025517030153423548,0.998963475227356,0.0,0.0,0.0,-1.9725602865219116,4.256276607513428,0.7699215412139893,357.0373229980469,0
1779.4230000000007,0.0014427960850298405,0.00041948765283450484,0.0005450938479043543,0.0,0.0,0.0,0.0,-0.00016850225802045316,-0.0010803346522152424,-0.0001327024947386235,0.9982598423957825,0.0,0.0,0.0,-1.9725602865219116,4.256276607513428,0.7699215412139893,357.0373229980469,0
1789.313,0.0015374183421954513,0.0003832027723547071,0.0005363659583963454,0.0,0.0,0.0,0.0,-0.00289156474173069,8.015328785404563e-05,0.002343112602829933,0.9978854656219482,0.0,0.0,0.0,-1.96918785572052,4.240597724914551,0.7742863297462463,356.4269104003906,0
1799.1949999999997,0.001446692505851388,0.0004506053519435227,0.0005291145644150674,0.0,0.0,0.0,0.0,-8.174149843398482e-05,-0.0025408118963241577,0.0011271070688962936,0.9988450407981873,0.0,0.0,0.0,-1.96918785572052,4.240597724914551,0.7742863297462463,356.4269104003906,0
1809.0840000000007,0.0014783593360334635,0.0003240354126319289,0.0005191185628063977,0.0,0.0,0.0,0.0,0.003017917973920703,0.0010696558747440577,-0.002459086710587144,1.0026137828826904,0.0,0.0,0.0,-1.9801706075668335,4.227269172668457,0.7669962644577026,358.4148254394531,0
1818.9660000000003,0.001354289473965764,0.0004483919183257967,0.0005369517020881176,0.0,0.0,0.0,0.0,-0.0014999137492850423,0.0036878236569464207,0.0009329888853244483,1.0007407665252686,0.0,0.0,0.0,-1.9801706075668335,4.227269172668457,0.7669962644577026,358.4148254394531,0
1828.8590000000004,0.0014071884797886014,0.0003884118050336838,0.0005465709837153554,0.0,0.0,0.0,0.0,0.001119488151744008,-0.0018776033539324999,0.0006479460862465203,0.9998822808265686,0.0,0.0,0.0,-1.9855538606643677,4.222980499267578,0.756976306438446,359.3891906738281,0
1838.737000000001,0.0013510396238416433,0.00043530267430469394,0.0005469615571200848,0.0,0.0,0.0,0.0,0.0009144485811702907,-5.465302092488855e-05,-0.003264332190155983,1.0005033016204834,0.0,0.0,0.0,-1.9855538606643677,4.222980499267578,0.756976306438446,359.3891906738281,0
1848.6239999999998,0.0013899028999730945,0.00036133002140559256,0.0005599708529189229,0.0,0.0,0.0,0.0,0.0018945940537378192,-0.002925605745986104,-0.000667013693600893,0.9994810223579407,0.0,0.0,0.0,-1.9814256429672241,4.2061357498168945,0.7595667243003845,358.6419677734375,0
1858.5079999999998,0.0013750268844887614,0.00036299091880209744,0.0005493478965945542,0.0,0.0,0.0,0.0,7.466047100024298e-05,-0.0007790406234562397,-0.000965151353739202,0.9988337755203247,0.0,0.0,0.0,-1.9756476879119873,4.206084728240967,0.7568400502204895,357.59613037109375,0
1868.398000000001,0.0014159635175019503,0.0003031565574929118,0.0005680483300238848,0.0,0.0,0.0,0.0,-0.0016375972190871835,-0.006349667906761169,-9.034607501234859e-05,0.9999504089355469,0.0,0.0,0.0,-1.9714559316635132,4.19645881652832,0.764538049697876,356.8374328613281,0
1878.286,0.00138284161221236,0.00032978440867736936,0.0005662044859491289,0.0,0.0,0.0,0.0,-0.001338844420388341,-0.003138237167149782,-0.0010564422700554132,1.0007140636444092,0.0,0.0,0.0,-1.9714559316635132,4.19645881652832,0.764538049697876,356.8374328613281,0
1888.1710000000003,0.001439003273844719,0.0002903795975726098,0.0005704151117242873,0.0,0.0,0.0,0.0,0.0019220795948058367,0.0004989228909835219,-0.0019648876041173935,0.9999067783355713,0.0,0.0,0.0,-1.9838757514953613,4.197986125946045,0.7916619181632996,359.08544921875,0
1898.058000000001,0.0013800438027828932,0.0003246835549362004,0.0005567510961554945,0.0,0.0,0.0,0.0,-0.0002702584315557033,0.0005762104410678148,-0.0018485615728423,0.9981919527053833,0.0,0.0,0.0,-1.9838757514953613,4.197986125946045,0.7916619181632996,359.08544921875,0
1907.9400000000005,0.0014384508831426501,0.00029779819305986166,0.0005612661479972303,0.0,0.0,0.0,0.0,-0.00011884883133461699,-0.00325488718226552,-0.0024366574361920357,0.9985361099243164,0.0,0.0,0.0,-1.9964900016784668,4.192931175231934,0.7925142049789429,361.36865234375,0
1917.8240000000005,0.001374701620079577,0.00037265970604494214,0.0005784672684967518,0.0,0.0,0.0,0.0,-0.0004117315402254462,-0.006466768216341734,0.001961680594831705,1.0009784698486328,0.0,0.0,0.0,-1.9964900016784668,4.192931175231934,0.7925142049789429,361.36865234375,0
1927.7160000000003,0.0014773482689633965,0.0003696743515320122,0.0005313389701768756,0.0,0.0,0.0,0.0,-0.0007550185546278954,-0.001390365301631391,0.0010456772288307548,0.999538242816925,0.0,0.0,0.0,-2.0024845600128174,4.196074962615967,0.8320429921150208,362.4537048339844,0
1937.594000000001,0.0014091884950175881,0.00042632155236788094,0.0005311078275553882,0.0,0.0,0.0,0.0,0.0006856308318674564,0.0015311947790905833,0.0005858766962774098,0.9976987242698669,0.0,0.0,0.0,-1.9964319467544556,4.206384658813477,0.8203307390213013,361.3581848144531,0
1947.4800000000014,0.0014715875731781125,0.00038189147016964853,0.0005114957457408309,0.0,0.0,0.0,0.0,-0.0025560767389833927,0.0016342919552698731,-9.0854249719996e-05,0.99915611743927,0.0,0.0,0.0,-1.9821199178695679,4.196370601654053,0.8182020783424377,358.7676696777344,0
1957.3670000000002,0.0014074922073632479,0.00044142460683360696,0.0005163450259715319,0.0,0.0,0.0,0.0,-0.000518776651006192,-0.003933727741241455,-0.0009333720081485808,1.0004841089248657,0.0,0.0,0.0,-1.9821199178695679,4.196370601654053,0.8182020783424377,358.7676696777344,0
1967.2560000000012,0.001486867549829185,0.00042038210085593164,0.0005019372911192477,0.0,0.0,0.0,0.0,0.001326026045717299,-0.001320464420132339,-0.0005027480656281114,0.9993960857391357,0.0,0.0,0.0,-1.978168249130249,4.196098804473877,0.810946524143219,358.05242919921875,0
1977.1370000000006,0.001438202103599906,0.00047683631419204175,0.0005151490913704038,0.0,0.0,0.0,0.0,0.0007026216480880976,0.0033285249955952168,-0.0016026614466682076,0.9997491240501404,0.0,0.0,0.0,-1.978168249130249,4.196098804473877,0.810946524143219,358.05242919921875,0
1987.023000000001,0.0014419944491237402,0.0003455342666711658,0.0005239364691078663,0.0,0.0,0.0,0.0,0.0006667776615358889,-0.003969601821154356,0.0024954560212790966,0.9999685883522034,0.0,0.0,0.0,-1.9870566129684448,4.173954486846924,0.8076583743095398,359.66119384765625,0
1996.9080000000013,0.0013899337500333786,0.00040408733184449375,0.0005350599531084299,0.0,0.0,0.0,0.0,0.0005780889187008142,-0.005440101493149996,-0.0019713658839464188,0.9983134269714355,0.0,0.0,0.0,-1.9807900190353394,4.184938907623291,0.7982523441314697,358.5269470214844,0
2006.7980000000007,0.0014240836026147008,0.00032379687763750553,0.0005642901523970068,0.0,0.0,0.0,0.0,-0.0016163180116564035,-0.004015481565147638,0.0019969868008047342,0.999481737613678,0.0,0.0,0.0,-1.9775360822677612,4.177331924438477,0.8186466097831726,357.9379577636719,0
2016.6800000000003,0.0013390101958066225,0.0003915099077858031,0.0005614872206933796,0.0,0.0,0.0,0.0,-0.002051660558208823,-0.0038976180367171764,-0.001503372797742486,1.0001615285873413,0.0,0.0,0.0,-1.9775360822677612,4.177331924438477,0.8186466097831726,357.9379577636719,0
2026.576000000001,0.0013983233366161585,0.00030879126279614866,0.0005421455716714263,0.0,0.0,0.0,0.0,0.000911003618966788,-0.008167576044797897,-0.0012407933827489614,0.9999932050704956,0.0,0.0,0.0,-1.9839015007019043,4.177178859710693,0.8338770866394043,359.0901184082031,0
2036.451000000001,0.0013776085106655955,0.0003280285163782537,0.0005426533170975745,0.0,0.0,0.0,0.0,0.0005052705528214574,0.0016532663721591234,-0.0011204489273950458,0.9996505975723267,0.0,0.0,0.0,-1.9839015007019043,4.177178859710693,0.8338770866394043,359.0901184082031,0
2046.3379999999997,0.0014564273878932,0.0002947006723843515,0.000544607697520405,0.0,0.0,0.0,0.0,-0.0019697502721101046,-0.001385892159305513,0.002436558250337839,0.9986290335655212,0.0,0.0,0.0,-1.9901387691497803,4.1788506507873535,0.8351166844367981,360.21905517578125,0
2056.2219999999998,0.001426553470082581,0.00031998506165109575,0.0005451121833175421,0.0,0.0,0.0,0.0,-0.001890511717647314,0.0001645312731852755,-0.0013690658379346132,0.9998377561569214,0.0,0.0,0.0,-1.9901387691497803,4.1788506507873535,0.8351166844367981,360.21905517578125,0
2066.1100000000006,0.0015287345740944147,0.00028686251607723534,0.0005152071244083345,0.0,0.0,0.0,0.0,0.0001921682123793289,0.0026038545183837414,-0.00035489784204401076,0.9988009929656982,0.0,0.0,0.0,-2.000761032104492,4.180294513702393,0.8499830365180969,362.1417541503906,0
2075.9940000000006,0.00144121830817312,0.00034422168391756713,0.0005019710515625775,0.0,0.0,0.0,0.0,0.000410211447160691,0.001937839318998158,0.002138870069757104,0.9992583990097046,0.0,0.0,0.0,-1.9946345090866089,4.190718173980713,0.8345977067947388,361.0328063964844,0
2085.8900000000012,0.0015098953153938055,0.0002858727821148932,0.0005139255663380027,0.0,0.0,0.0,0.0,-0.001480389037169516,0.0008966053137555718,0.0014301554765552282,0.9986770153045654,0.0,0.0,0.0,-2.0004823207855225,4.193358898162842,0.8251699209213257,362.0912780761719,0
2095.7750000000015,0.0014924665447324514,0.00029661066946573555,0.0005093832733109593,0.0,0.0,0.0,0.0,0.0006131234113126993,0.00312201795168221,0.0006647164700552821,0.9972875714302063,0.0,0.0,0.0,-2.0004823207855225,4.193358898162842,0.8251699209213257,362.0912780761719,0
2105.652,0.0015046981861814857,0.0002251474215881899,0.0005194178083911538,0.0,0.0,0.0,0.0,-0.0011141062714159489,-0.0020024531986564398,-0.003142948029562831,0.9998931288719177,0.0,0.0,0.0,-2.011324882507324,4.192321300506592,0.8246161937713623,364.0538330078125,0
2115.5370000000003,0.0014358427142724395,0.0002620590094011277,0.0005161938606761396,0.0,0.0,0.0,0.0,-0.00324116088449955,-0.00032398689654655755,0.0038180577103048563,1.0003668069839478,0.0,0.0,0.0,-2.009769916534424,4.179524898529053,0.8180715441703796,363.7723693847656,0
2125.4220000000005,0.0015245535178110003,0.00028959137853235006,0.0004804757481906563,0.0,0.0,0.0,0.0,0.0008673405391164124,0.00429304176941514,-0.0008635022095404565,1.0005654096603394,0.0,0.0,0.0,-2.0198583602905273,4.204243183135986,0.8290347456932068,365.5983581542969,0
2135.309000000001,0.001427387003786862,0.0003581891942303628,0.00048076504026539624,0.0,0.0,0.0,0.0,0.001467411988414824,0.001872833352535963,-0.0007184494752436876,0.9995202422142029,0.0,0.0,0.0,-2.011742115020752,4.226120471954346,0.8017834424972534,364.1293640136719,0
