timestamp,stateEstimate.x,stateEstimate.y,stateEstimate.z,controller.cmd_thrust,controller.cmd_roll,controller.cmd_pitch,controller.cmd_yaw,controller.r_roll,controller.r_pitch,controller.r_yaw,controller.accelz,controller.actuatorThrust,controller.roll,controller.pitch,controller.yaw,controller.rollRate,controller.pitchRate,controller.yawRate,controller.ctr_yaw
0.0,-0.053353242576122284,-0.05181187018752098,-0.030193230137228966,0.0,0.0,0.0,0.0,-0.002603417495265603,-0.004524358082562685,-0.0013184965355321765,0.9969727993011475,0.0,0.0,0.0,1.0890812873840332,2.579258441925049,5.197152137756348,-197.12586975097656,0
9.926000000001295,-0.05253171548247337,-0.051957905292510986,-0.029669303447008133,0.0,0.0,0.0,0.0,0.00036915039527229965,0.0017913569463416934,-0.0022623646073043346,0.9994477033615112,0.0,0.0,0.0,1.0932090282440186,2.606199264526367,5.249849796295166,-197.8730010986328,0
19.822000000000116,-0.052860669791698456,-0.05187637358903885,-0.029940566048026085,0.0,0.0,0.0,0.0,0.0005299972835928202,0.004502828232944012,-0.0013842204352840781,1.0001941919326782,0.0,0.0,0.0,1.0928632020950317,2.6025307178497314,5.236018180847168,-197.81040954589844,0
29.738000000001193,-0.05246889963746071,-0.05194859951734543,-0.02961403876543045,0.0,0.0,0.0,0.0,-0.0026134634390473366,0.0008813547319732606,-0.0035320278257131577,0.9997840523719788,0.0,0.0,0.0,1.1021636724472046,2.615596294403076,5.2418622970581055,-199.49378967285156,0
39.647000000000844,-0.05279720574617386,-0.05186665058135986,-0.029882187023758888,0.0,0.0,0.0,0.0,-0.00087932770838961,-0.0061853202059865,0.0002383830287726596,1.0010422468185425,0.0,0.0,0.0,1.1004678010940552,2.6199605464935303,5.23647928237915,-199.18687438964844,0
49.559000000001106,-0.052460212260484695,-0.051984068006277084,-0.029599936679005623,0.0,0.0,0.0,0.0,-8.580394205637276e-05,0.002277575433254242,0.0007911528809927404,0.9996840953826904,0.0,0.0,0.0,1.0988683700561523,2.618654727935791,5.230769634246826,-198.89735412597656,0
59.46200000000135,-0.052787572145462036,-0.05190643295645714,-0.029864395037293434,0.0,0.0,0.0,0.0,0.0029378680046647787,0.0025870981626212597,-0.0026481410022825003,1.0006530284881592,0.0,0.0,0.0,1.0978367328643799,2.6103925704956055,5.224514961242676,-198.71063232421875,0
69.38100000000122,-0.052289798855781555,-0.05206003412604332,-0.029445011168718338,0.0,0.0,0.0,0.0,0.00023564523144159466,0.0027918813284486532,0.0037767516914755106,0.999410092830658,0.0,0.0,0.0,1.1125272512435913,2.6026506423950195,5.225325584411621,-201.36965942382812,0
79.28400000000147,-0.05261692404747009,-0.05198608711361885,-0.02970639057457447,0.0,0.0,0.0,0.0,-0.0009059110307134688,-0.005007184110581875,-0.0001911309373099357,0.9987080097198486,0.0,0.0,0.0,1.1122137308120728,2.5894956588745117,5.219911575317383,-201.31288146972656,0
89.20600000000013,-0.052264776080846786,-0.05210565775632858,-0.02936265803873539,0.0,0.0,0.0,0.0,-0.0010197190567851067,0.0013406880898401141,0.0015327472938224673,0.9980576038360596,0.0,0.0,0.0,1.1241215467453003,2.588798761367798,5.22930383682251,-203.46823120117188,0
99.10600000000159,-0.05259612947702408,-0.05203390493988991,-0.029622625559568405,0.0,0.0,0.0,0.0,-0.00041759302257560194,-0.0006014835089445114,-0.001860272604972124,0.9990314841270447,0.0,0.0,0.0,1.1224204301834106,2.589202642440796,5.22925329208374,-203.16033935546875,0
109.02800000000025,-0.05239624157547951,-0.05209013819694519,-0.029460933059453964,0.0,0.0,0.0,0.0,-0.000794739171396941,0.003783693304285407,-0.0050405580550432205,0.9976986050605774,0.0,0.0,0.0,1.1203688383102417,2.584691047668457,5.2247185707092285,-202.7889862060547,0
118.9280000000017,-0.05239624157547951,-0.05209013819694519,-0.029460933059453964,0.0,0.0,0.0,0.0,0.002132011577486992,-0.0003881863958667964,0.00234586070291698,0.9994879364967346,0.0,0.0,0.0,1.1203688383102417,2.584691047668457,5.2247185707092285,-202.7889862060547,0
128.85200000000077,-0.05251110717654228,-0.052064377814531326,-0.029565248638391495,0.0,0.0,0.0,0.0,0.0010687797330319881,0.0008084096480160952,-4.0123726648744196e-05,0.998428225517273,0.0,0.0,0.0,1.117043375968933,2.5854058265686035,5.21424674987793,-202.1870574951172,0
138.7520000000004,-0.05251110717654228,-0.052064377814531326,-0.029565248638391495,0.0,0.0,0.0,0.0,0.0018684156239032745,0.0020525760482996702,-0.0019910517148673534,0.9993076920509338,0.0,0.0,0.0,1.117043375968933,2.5854058265686035,5.21424674987793,-202.1870574951172,0
148.67100000000028,-0.052537888288497925,-0.052062902599573135,-0.029602104797959328,0.0,0.0,0.0,0.0,-0.0011089020408689976,-0.00046350102638825774,0.0020416739862412214,1.0008128881454468,0.0,0.0,0.0,1.1136000156402588,2.5772511959075928,5.198256015777588,-201.56381225585938,0
158.57600000000093,-0.052537888288497925,-0.052062902599573135,-0.029602104797959328,0.0,0.0,0.0,0.0,0.00040533486753702164,0.006153262685984373,-0.004016141407191753,0.9983916878700256,0.0,0.0,0.0,1.1136000156402588,2.5772511959075928,5.198256015777588,-201.56381225585938,0
168.4860000000008,-0.05250241607427597,-0.052066028118133545,-0.02963053062558174,0.0,0.0,0.0,0.0,-0.0018904443131759763,0.0031225215643644333,-0.002539744134992361,0.9970037937164307,0.0,0.0,0.0,1.1113110780715942,2.5763323307037354,5.172043800354004,-201.14952087402344,0
178.40300000000025,-0.05283215641975403,-0.051993146538734436,-0.029895612969994545,0.0,0.0,0.0,0.0,-0.0003819785488303751,-0.002282423200085759,0.0019929613918066025,0.9984656572341919,0.0,0.0,0.0,1.11007559299469,2.578406810760498,5.162281513214111,-200.92588806152344,0
188.31700000000092,-0.05242325738072395,-0.052037809044122696,-0.02959269843995571,0.0,0.0,0.0,0.0,-0.0030473938677459955,-0.002297678031027317,-0.0025056153535842896,0.9996078014373779,0.0,0.0,0.0,1.1100845336914062,2.5782580375671387,5.16280460357666,-200.92752075195312,0
198.22900000000118,-0.05274924263358116,-0.05196194350719452,-0.029858792200684547,0.0,0.0,0.0,0.0,0.0015306721907109022,0.004841999616473913,-0.0004667196481022984,0.9988960027694702,0.0,0.0,0.0,1.1075636148452759,2.578747272491455,5.158586502075195,-200.47122192382812,0
208.14100000000144,-0.05239367112517357,-0.052048757672309875,-0.029617538675665855,0.0,0.0,0.0,0.0,-0.00135637482162565,-0.004862421657890081,-0.00043541420018300414,0.999426543712616,0.0,0.0,0.0,1.1054058074951172,2.5730412006378174,5.143570899963379,-200.0806427001953,0
218.04600000000028,-0.05271532014012337,-0.051975030452013016,-0.029884759336709976,0.0,0.0,0.0,0.0,-0.002206359291449189,0.0010741539299488068,-0.00225184322334826,0.9989225268363953,0.0,0.0,0.0,1.10397207736969,2.5797007083892822,5.144190788269043,-199.82115173339844,0
227.97000000000116,-0.05235154554247856,-0.0520641915500164,-0.029635002836585045,0.0,0.0,0.0,0.0,0.002094603143632412,0.0017041942337527871,-0.002464442979544401,0.9984904527664185,0.0,0.0,0.0,1.1015992164611816,2.576615571975708,5.142165184020996,-199.39163208007812,0
356.8020000000015,-0.05477605387568474,-0.05151268467307091,-0.03140687569975853,0.0,0.0,0.0,0.0,0.0004962879465892911,0.0008697015582583845,-0.0009461573208682239,0.9998025894165039,0.0,0.0,0.0,1.1072982549667358,2.5945184230804443,5.0928635597229,-200.42318725585938,0
366.7300000000014,-0.0551341250538826,-0.051438093185424805,-0.031670913100242615,0.0,0.0,0.0,0.0,-0.0016671264311298728,0.00016521292855031788,-0.0012062938185408711,0.9986597895622253,0.0,0.0,0.0,1.1068122386932373,2.5927481651306152,5.092139720916748,-200.335205078125,0
376.6270000000004,-0.055497460067272186,-0.05136340856552124,-0.031935565173625946,0.0,0.0,0.0,0.0,0.0033655494917184114,-0.0036945694591850042,0.0010259657865390182,1.0010440349578857,0.0,0.0,0.0,1.1054253578186035,2.5900485515594482,5.087141513824463,-200.0841827392578,0
386.5480000000007,-0.05586608126759529,-0.051289152354002,-0.03219994157552719,0.0,0.0,0.0,0.0,0.002230073092505336,-0.00036551812081597745,-0.0031117910984903574,0.9993083477020264,0.0,0.0,0.0,1.1043661832809448,2.585998058319092,5.09316873550415,-199.89247131347656,0
396.4470000000001,-0.05623916909098625,-0.051215365529060364,-0.032463911920785904,0.0,0.0,0.0,0.0,-0.0013629598543047905,0.002041009720414877,0.00027764926198869944,1.0007191896438599,0.0,0.0,0.0,1.1032465696334839,2.576585531234741,5.085222244262695,-199.6898193359375,0
406.3790000000008,-0.05661638453602791,-0.05114147067070007,-0.03272772207856178,0.0,0.0,0.0,0.0,0.0012923097237944603,0.00035868503618985415,0.0007772513781674206,0.9991201758384705,0.0,0.0,0.0,1.1026679277420044,2.576754331588745,5.0786285400390625,-199.58509826660156,0
416.27800000000025,-0.05699823424220085,-0.05106745660305023,-0.032991278916597366,0.0,0.0,0.0,0.0,0.0019892468117177486,0.004521016031503677,0.0006897654966451228,1.0009738206863403,0.0,0.0,0.0,1.1022812128067017,2.572165012359619,5.0736589431762695,-199.5150909423828,0
426.1910000000007,-0.05742405354976654,-0.05098586156964302,-0.03328036516904831,0.0,0.0,0.0,0.0,-0.0008949520415626466,0.001043628086335957,0.0011527894530445337,1.0009948015213013,0.0,0.0,0.0,1.100970983505249,2.562656879425049,5.055782318115234,-199.27792358398438,0
436.0970000000016,-0.05742405354976654,-0.05098586156964302,-0.03328036516904831,0.0,0.0,0.0,0.0,-0.0004433387948665768,-0.0025677543599158525,0.0014205897459760308,0.9992408752441406,0.0,0.0,0.0,1.100970983505249,2.562656879425049,5.055782318115234,-199.27792358398438,0
446.02100000000064,-0.05821056291460991,-0.050837285816669464,-0.03380454704165459,0.0,0.0,0.0,0.0,0.0034851315431296825,0.00011422398529248312,-0.005281113553792238,0.9997968077659607,0.0,0.0,0.0,1.0993537902832031,2.555039405822754,5.042257308959961,-198.9852294921875,0
455.9210000000003,-0.05821056291460991,-0.050837285816669464,-0.03380454704165459,0.0,0.0,0.0,0.0,-0.0009570498950779438,0.0016951259458437562,0.0024354211054742336,1.0008102655410767,0.0,0.0,0.0,1.0993537902832031,2.555039405822754,5.042257308959961,-198.9852294921875,0
465.8480000000018,-0.05901038646697998,-0.050691209733486176,-0.034328725188970566,0.0,0.0,0.0,0.0,0.000799679895862937,-0.0009640540229156613,-0.0019969716668128967,0.9997334480285645,0.0,0.0,0.0,1.0958327054977417,2.5480294227600098,5.024992942810059,-198.347900390625,0
475.7450000000008,-0.05901038646697998,-0.050691209733486176,-0.034328725188970566,0.0,0.0,0.0,0.0,-0.0002487589081283659,0.0018695223843678832,-0.0009575425065122545,0.9986696839332581,0.0,0.0,0.0,1.0958327054977417,2.5480294227600098,5.024992942810059,-198.347900390625,0
485.6670000000013,-0.05982806906104088,-0.050548333674669266,-0.034853022545576096,0.0,0.0,0.0,0.0,-0.0034281674306839705,-0.0008896259241737425,0.0015569913666695356,0.9995337724685669,0.0,0.0,0.0,1.0939335823059082,2.541564702987671,5.010158538818359,-198.00413513183594,0
495.5650000000005,-0.05982806906104088,-0.050548333674669266,-0.034853022545576096,0.0,0.0,0.0,0.0,-0.0014330343110486865,-0.001521681435406208,0.0038370348047465086,0.999775230884552,0.0,0.0,0.0,1.0939335823059082,2.541564702987671,5.010158538818359,-198.00413513183594,0
505.4790000000012,-0.06028622016310692,-0.050471894443035126,-0.03514189273118973,0.0,0.0,0.0,0.0,0.0016935698222368956,2.0529379980871454e-05,-0.008659151382744312,1.0002208948135376,0.0,0.0,0.0,1.0923436880111694,2.5470545291900635,5.0130181312561035,-197.71636962890625,0
515.3960000000006,-0.060706976801157,-0.0504034161567688,-0.035404469817876816,0.0,0.0,0.0,0.0,-0.004801453091204166,0.0037984447553753853,0.0015665898099541664,0.9987825751304626,0.0,0.0,0.0,1.090993046760559,2.5414469242095947,5.01508092880249,-197.471923828125,0
525.3050000000003,-0.061131443828344345,-0.050335705280303955,-0.03566690906882286,0.0,0.0,0.0,0.0,0.00042327126720920205,7.186113361967728e-05,-0.0003553025017026812,0.9989120960235596,0.0,0.0,0.0,1.0892685651779175,2.5402114391326904,5.010821342468262,-197.1597900390625,0
535.210000000001,-0.06156023219227791,-0.05026837810873985,-0.03592988848686218,0.0,0.0,0.0,0.0,-0.0006604414083994925,-0.0028328753542155027,-0.0006344236899167299,1.0013772249221802,0.0,0.0,0.0,1.0891050100326538,2.5421392917633057,4.998346328735352,-197.1301727294922,0
545.1290000000008,-0.05782781168818474,-0.05054754763841629,-0.03438134118914604,0.0,0.0,0.0,0.0,-0.0013878181343898177,0.0025510985869914293,0.005529549904167652,1.0003145933151245,0.0,0.0,0.0,1.1007459163665771,2.6374104022979736,5.219466686248779,-199.23719787597656,0
555.0370000000003,-0.05819219723343849,-0.05046685412526131,-0.03465810790657997,0.0,0.0,0.0,0.0,-0.001083611510694027,0.002095318865031004,-0.002197859575971961,0.9982039332389832,0.0,0.0,0.0,1.100105881690979,2.6388967037200928,5.2132792472839355,-199.12135314941406,0
564.9570000000003,-0.057335689663887024,-0.05059386044740677,-0.03400351479649544,0.0,0.0,0.0,0.0,0.0025619114749133587,0.0010503276716917753,0.00032240652944892645,1.000861644744873,0.0,0.0,0.0,1.1059973239898682,2.657440662384033,5.233222484588623,-200.18772888183594,0
574.862000000001,-0.05769273266196251,-0.05051068589091301,-0.03427685797214508,0.0,0.0,0.0,0.0,0.002324294298887253,0.004296401049941778,0.0006269562290981412,0.9994716048240662,0.0,0.0,0.0,1.1050143241882324,2.6577231884002686,5.223788738250732,-200.00979614257812,0
584.773000000001,-0.05718586593866348,-0.05068736895918846,-0.033845800906419754,0.0,0.0,0.0,0.0,-0.0001716995902825147,-0.001609542639926076,-0.002227523596957326,0.9982807636260986,0.0,0.0,0.0,1.0968683958053589,2.6431756019592285,5.232848644256592,-198.5353546142578,0
594.6810000000005,-0.057543907314538956,-0.05060841515660286,-0.03411570191383362,0.0,0.0,0.0,0.0,0.003742378670722246,0.0019142832607030869,0.0008307890966534615,0.9997316002845764,0.0,0.0,0.0,1.0959863662719727,2.6376380920410156,5.2253737449646,-198.37571716308594,0
604.5960000000014,-0.05662570521235466,-0.05087984353303909,-0.0333322137594223,0.0,0.0,0.0,0.0,0.0009816025849431753,-0.0007130609010346234,-0.0019852230325341225,1.0002050399780273,0.0,0.0,0.0,1.1087067127227783,2.6339402198791504,5.244783878326416,-200.67811584472656,0
614.5030000000006,-0.05698215216398239,-0.05080265924334526,-0.03359829634428024,0.0,0.0,0.0,0.0,-0.0004000868648290634,0.002126719569787383,-0.0008665022905915976,0.9983637928962708,0.0,0.0,0.0,1.1086297035217285,2.6249780654907227,5.2349114418029785,-200.66416931152344,0
624.4160000000011,-0.056078292429447174,-0.05106700584292412,-0.03281712159514427,0.0,0.0,0.0,0.0,-0.00013381283497437835,0.0012048466596752405,0.002455416601151228,1.0002237558364868,0.0,0.0,0.0,1.1207432746887207,2.6196000576019287,5.2526936531066895,-202.85675048828125,0
634.3250000000007,-0.056430209428071976,-0.05099397525191307,-0.033079225569963455,0.0,0.0,0.0,0.0,-0.0003399408014956862,-0.0006228860002011061,0.002874144585803151,0.999717116355896,0.0,0.0,0.0,1.1207382678985596,2.6163418292999268,5.2506937980651855,-202.85585021972656,0
644.2400000000016,-0.05551837012171745,-0.05124826356768608,-0.03229677304625511,0.0,0.0,0.0,0.0,-0.00028876253054477274,0.0044265189208090305,0.0022241384722292423,1.000191569328308,0.0,0.0,0.0,1.1317682266235352,2.6142985820770264,5.265193462371826,-204.852294921875,0
654.1460000000006,-0.05586450919508934,-0.051178328692913055,-0.03255471587181091,0.0,0.0,0.0,0.0,0.001672274898737669,-0.0010977552738040686,-0.0014221719466149807,1.0012632608413696,0.0,0.0,0.0,1.1309199333190918,2.6150577068328857,5.263468265533447,-204.69876098632812,0
664.0710000000017,-0.05513104051351547,-0.05133147910237312,-0.031938474625349045,0.0,0.0,0.0,0.0,-0.0005069790640845895,-0.0013073468580842018,-0.0015767895383760333,1.0009772777557373,0.0,0.0,0.0,1.138000726699829,2.6320998668670654,5.28494930267334,-205.98040771484375,0
673.9650000000001,-0.0554727204144001,-0.05125809088349342,-0.0321919210255146,0.0,0.0,0.0,0.0,0.0018150883261114359,-0.0004685453313868493,0.0016911484999582171,1.000791072845459,0.0,0.0,0.0,1.136639952659607,2.6325089931488037,5.287977695465088,-205.7340850830078,0
683.8880000000008,-0.054685093462467194,-0.0514364056289196,-0.03152787685394287,0.0,0.0,0.0,0.0,0.0018846772145479918,-0.0010710981441661716,-0.003766218200325966,1.0019255876541138,0.0,0.0,0.0,1.1358556747436523,2.63035249710083,5.2936930656433105,-205.59213256835938,0
693.7890000000007,-0.05502171441912651,-0.05136045441031456,-0.031775765120983124,0.0,0.0,0.0,0.0,0.004324698355048895,-0.001472143572755158,-0.0003629240673035383,1.0012885332107544,0.0,0.0,0.0,1.1349905729293823,2.6240973472595215,5.279677867889404,-205.435546875,0
703.7140000000018,-0.05438121408224106,-0.05150006711483002,-0.03125355392694473,0.0,0.0,0.0,0.0,-0.00014678749721497297,0.0007509816205129027,0.0003003535675816238,0.998794674873352,0.0,0.0,0.0,1.1388713121414185,2.639880418777466,5.309914588928223,-206.13795471191406,0
713.6100000000006,-0.054710615426301956,-0.05142274498939514,-0.03149688243865967,0.0,0.0,0.0,0.0,0.0008553278748877347,-0.0003356885863468051,0.003063110401853919,0.9980916380882263,0.0,0.0,0.0,1.1370172500610352,2.6267647743225098,5.292357444763184,-205.80238342285156,0
723.5410000000011,-0.054031144827604294,-0.05159768462181091,-0.030980300158262253,0.0,0.0,0.0,0.0,0.0021109129302203655,0.00200487207621336,0.000976096314843744,0.9985465407371521,0.0,0.0,0.0,1.1324527263641357,2.6242496967315674,5.329239845275879,-204.9761962890625,0
733.4330000000009,-0.05435306206345558,-0.05152234062552452,-0.03122490830719471,0.0,0.0,0.0,0.0,0.001438663573935628,0.0022404268383979797,0.0014034188352525234,0.9969614744186401,0.0,0.0,0.0,1.1321775913238525,2.6136841773986816,5.320518493652344,-204.92637634277344,0
743.3580000000002,-0.05367544665932655,-0.051652271300554276,-0.030680175870656967,0.0,0.0,0.0,0.0,-0.00028823030879721045,0.0003415264072827995,7.79463371145539e-05,0.9993509650230408,0.0,0.0,0.0,1.1363604068756104,2.633700370788574,5.3471760749816895,-205.68348693847656,0
753.2570000000014,-0.05399300903081894,-0.05157492309808731,-0.03092660754919052,0.0,0.0,0.0,0.0,0.0007237797253765166,-0.004080364014953375,0.0011734114959836006,0.9978664517402649,0.0,0.0,0.0,1.1363332271575928,2.6270837783813477,5.341300010681152,-205.67855834960938,0
763.1870000000017,-0.05364120751619339,-0.05162985250353813,-0.030684232711791992,0.0,0.0,0.0,0.0,-0.003698193235322833,0.005767372902482748,-0.0007193604251369834,1.0005583763122559,0.0,0.0,0.0,1.1370538473129272,2.6357789039611816,5.369897842407227,-205.80902099609375,0
773.0800000000017,-0.05364120751619339,-0.05162985250353813,-0.030684232711791992,0.0,0.0,0.0,0.0,0.002088372828438878,-0.00029703413019888103,-0.003569228108972311,0.9987229704856873,0.0,0.0,0.0,1.1370538473129272,2.6357789039611816,5.369897842407227,-205.80902099609375,0
783.0030000000006,-0.05353764444589615,-0.051670122891664505,-0.03058856911957264,0.0,0.0,0.0,0.0,-0.0032327829394489527,0.005213698837906122,-0.0005067087477073073,0.9995546340942383,0.0,0.0,0.0,1.1338633298873901,2.6365277767181396,5.3524169921875,-205.2315216064453,0
792.902,-0.05353764444589615,-0.051670122891664505,-0.03058856911957264,0.0,0.0,0.0,0.0,0.0004813394043594599,0.0035074122715741396,0.0003308266750536859,0.9990670680999756,0.0,0.0,0.0,1.1338633298873901,2.6365277767181396,5.3524169921875,-205.2315216064453,0
802.8260000000009,-0.05331402271986008,-0.05176418647170067,-0.030368294566869736,0.0,0.0,0.0,0.0,-0.004010982345789671,-0.0028919600881636143,0.0006729109445586801,0.9995444416999817,0.0,0.0,0.0,1.1419583559036255,2.623654842376709,5.328095436096191,-206.6967315673828,0
812.7250000000004,-0.05331402271986008,-0.05176418647170067,-0.030368294566869736,0.0,0.0,0.0,0.0,0.0031325488816946745,0.0011821583611890674,0.0062684970907866955,1.0024079084396362,0.0,0.0,0.0,1.1419583559036255,2.623654842376709,5.328095436096191,-206.6967315673828,0
822.6560000000009,-0.05320535972714424,-0.05181661993265152,-0.03025048039853573,0.0,0.0,0.0,0.0,-0.0010895909508690238,0.004992121364921331,-0.0012316477950662374,1.000146508216858,0.0,0.0,0.0,1.1420878171920776,2.6252942085266113,5.3248491287231445,-206.7201690673828,0
832.5480000000007,-0.05320535972714424,-0.05181661993265152,-0.03025048039853573,0.0,0.0,0.0,0.0,-0.0007438765023835003,0.0043020849116146564,-0.0008856903878040612,1.0004862546920776,0.0,0.0,0.0,1.1420878171920776,2.6252942085266113,5.3248491287231445,-206.7201690673828,0
842.469000000001,-0.052975669503211975,-0.051886994391679764,-0.030002474784851074,0.0,0.0,0.0,0.0,-0.0032681520096957684,0.0008768973057158291,-0.0049777948297560215,1.0003718137741089,0.0,0.0,0.0,1.132148027420044,2.626488447189331,5.309784889221191,-204.92103576660156,0
852.3690000000006,-0.053288914263248444,-0.05181286111474037,-0.030238404870033264,0.0,0.0,0.0,0.0,-0.0016218259697780013,-0.0026207498740404844,0.0036838087253272533,1.000963807106018,0.0,0.0,0.0,1.1313878297805786,2.6181843280792236,5.304322719573975,-204.783447265625,0
862.2950000000001,-0.05293918773531914,-0.05193949118256569,-0.029909931123256683,0.0,0.0,0.0,0.0,0.0013694689841941,0.0009454954997636378,-0.0008183146710507572,0.999484121799469,0.0,0.0,0.0,1.1294597387313843,2.6192493438720703,5.28573751449585,-204.43446350097656,0
872.1970000000001,-0.053255192935466766,-0.05186791718006134,-0.030141586437821388,0.0,0.0,0.0,0.0,0.0002049028844339773,-0.0028286296874284744,0.0008501620031893253,0.998820960521698,0.0,0.0,0.0,1.1280014514923096,2.6213040351867676,5.283664703369141,-204.17050170898438,0
882.1290000000008,-0.052819643169641495,-0.051973648369312286,-0.029796043410897255,0.0,0.0,0.0,0.0,0.0007925539975985885,-0.00513868685811758,6.039251456968486e-05,0.9999278783798218,0.0,0.0,0.0,1.1271406412124634,2.6218295097351074,5.287015438079834,-204.01470947265625,0
892.0280000000002,-0.05313345417380333,-0.05190308019518852,-0.030027780681848526,0.0,0.0,0.0,0.0,0.001179722836241126,0.00019920922932215035,0.0004377707082312554,1.0023483037948608,0.0,0.0,0.0,1.1261560916900635,2.6210460662841797,5.293327808380127,-203.8365020751953,0
901.9420000000009,-0.05255585163831711,-0.051985304802656174,-0.029587486758828163,0.0,0.0,0.0,0.0,-0.0003929863160010427,-0.0009919586591422558,0.0014504038263112307,0.9998544454574585,0.0,0.0,0.0,1.1324224472045898,2.6414103507995605,5.331279277801514,-204.970703125,0
911.8460000000014,-0.05286186933517456,-0.051910657435655594,-0.02981705777347088,0.0,0.0,0.0,0.0,-0.0029361394699662924,-0.002474685898050666,0.0038309020455926657,1.0011829137802124,0.0,0.0,0.0,1.1323482990264893,2.642731189727783,5.319031715393066,-204.95729064941406,0
921.7700000000004,-0.052327197045087814,-0.0520365945994854,-0.029436144977808,0.0,0.0,0.0,0.0,0.0019478893373161554,0.002528164302930236,-0.0006590874982066453,1.000828504562378,0.0,0.0,0.0,1.1317499876022339,2.6341168880462646,5.313035488128662,-204.84898376464844,0
931.6650000000009,-0.0526261068880558,-0.05196099728345871,-0.029664741829037666,0.0,0.0,0.0,0.0,0.0015308944275602698,-0.0007851301343180239,0.002739470452070236,0.9999960064888,0.0,0.0,0.0,1.130757451057434,2.6305315494537354,5.299647331237793,-204.6693572998047,0
941.5860000000011,-0.0518525056540966,-0.05217030644416809,-0.029095768928527832,0.0,0.0,0.0,0.0,-0.0014269587118178606,0.004209267906844616,-0.0014621495502069592,1.0008465051651,0.0,0.0,0.0,1.137812852859497,2.6174380779266357,5.33943510055542,-205.94638061523438,0
951.4860000000008,-0.052143342792987823,-0.05209680646657944,-0.02932359278202057,0.0,0.0,0.0,0.0,-0.0027514875400811434,-0.005190603900700808,-0.0021388037130236626,0.999449610710144,0.0,0.0,0.0,1.13717782497406,2.6198227405548096,5.336138725280762,-205.83143615722656,0
961.4120000000003,-0.051768381148576736,-0.05218666046857834,-0.029055239632725716,0.0,0.0,0.0,0.0,-0.0015525375492870808,-0.0016826433129608631,-0.0031147070694714785,1.0024595260620117,0.0,0.0,0.0,1.1359708309173584,2.621122360229492,5.334708213806152,-205.6129913330078,0
971.3090000000011,-0.0520552396774292,-0.0521153025329113,-0.029282348230481148,0.0,0.0,0.0,0.0,-0.002803391544148326,0.0027851343620568514,0.0006306185387074947,1.000270128250122,0.0,0.0,0.0,1.1352378129959106,2.627183198928833,5.339146614074707,-205.48031616210938,0
981.2210000000014,-0.05178266391158104,-0.05214746668934822,-0.02903171256184578,0.0,0.0,0.0,0.0,-0.0006017008563503623,-0.0028060448821634054,0.0022452182602137327,0.9992721676826477,0.0,0.0,0.0,1.1268144845962524,2.6466898918151855,5.343949794769287,-203.95565795898438,0
991.1290000000008,-0.052071463316679,-0.05207350105047226,-0.0292538832873106,0.0,0.0,0.0,0.0,-0.0030443614814430475,-0.0036866667214781046,0.0003931151295546442,0.9982136487960815,0.0,0.0,0.0,1.1254384517669678,2.643486499786377,5.341953277587891,-203.7065887451172,0
1001.0520000000015,-0.051828328520059586,-0.05213809013366699,-0.029036276042461395,0.0,0.0,0.0,0.0,0.000596868630964309,-0.0016576556954532862,0.003726803231984377,0.9989203810691833,0.0,0.0,0.0,1.1243817806243896,2.6376020908355713,5.33673095703125,-203.5153350830078,0
1010.9560000000001,-0.05211978033185005,-0.05206351354718208,-0.029258184134960175,0.0,0.0,0.0,0.0,-0.002474949462339282,-0.0007115413900464773,0.0013436833396553993,0.9981855154037476,0.0,0.0,0.0,1.1231180429458618,2.6404619216918945,5.338498115539551,-203.28660583496094,0
1020.8690000000006,-0.05194302648305893,-0.05209604278206825,-0.029102692380547523,0.0,0.0,0.0,0.0,0.001213773968629539,0.000982058816589415,-0.00118521717377007,0.9980106353759766,0.0,0.0,0.0,1.1234617233276367,2.6342580318450928,5.3258056640625,-203.3488006591797,0
1030.777,-0.05223722755908966,-0.052020806819200516,-0.02932610735297203,0.0,0.0,0.0,0.0,-0.0037812157534062862,-0.001349455094896257,-0.001664180075749755,0.9986482858657837,0.0,0.0,0.0,1.121864676475525,2.628474473953247,5.314351558685303,-203.0597381591797,0
1040.6890000000003,-0.05205259472131729,-0.05207841098308563,-0.029197800904512405,0.0,0.0,0.0,0.0,-5.1179515139665455e-05,0.004957424942404032,-0.0018545214552432299,0.9987906217575073,0.0,0.0,0.0,1.1202075481414795,2.629985809326172,5.304387092590332,-202.7598114013672,0
1050.5970000000016,-0.05234821140766144,-0.05200253427028656,-0.029424307867884636,0.0,0.0,0.0,0.0,0.003582562319934368,0.004128511995077133,-0.002057394478470087,0.9980438947677612,0.0,0.0,0.0,1.1192541122436523,2.6284799575805664,5.303635597229004,-202.58721923828125,0
1060.514000000001,-0.05187356472015381,-0.05209828168153763,-0.029027339071035385,0.0,0.0,0.0,0.0,-0.003432062454521656,3.185885361745022e-05,-0.001415350823663175,1.0008139610290527,0.0,0.0,0.0,1.1174087524414062,2.6269259452819824,5.288177967071533,-202.25320434570312,0
1070.4220000000005,-0.0521683432161808,-0.052020180970430374,-0.029253751039505005,0.0,0.0,0.0,0.0,-0.0015554551500827074,-0.006315188016742468,-0.003361630253493786,0.9978810548782349,0.0,0.0,0.0,1.115748643875122,2.6181955337524414,5.275262355804443,-201.9527130126953,0
1080.3390000000018,-0.051703982055187225,-0.05215194821357727,-0.028925638645887375,0.0,0.0,0.0,0.0,-0.0002122198638971895,-0.003563031554222107,0.004415033385157585,0.9982481002807617,0.0,0.0,0.0,1.1082634925842285,2.6135878562927246,5.31225061416626,-200.59788513183594,0
1090.2480000000014,-0.05199513956904411,-0.0520775280892849,-0.02915385365486145,0.0,0.0,0.0,0.0,0.0014873623149469495,0.003982464782893658,-0.003410608507692814,0.9998232126235962,0.0,0.0,0.0,1.1062066555023193,2.6119203567504883,5.3027024269104,-200.2255859375,0
1100.1620000000003,-0.052001241594552994,-0.05210113897919655,-0.029140718281269073,0.0,0.0,0.0,0.0,-0.0013278278056532145,-0.0012792644556611776,0.004082360304892063,0.9995337128639221,0.0,0.0,0.0,1.102656602859497,2.605351686477661,5.28641939163208,-199.58303833007812,0
1110.0660000000007,-0.052001241594552994,-0.05210113897919655,-0.029140718281269073,0.0,0.0,0.0,0.0,-0.0015275459736585617,0.002830089069902897,-1.1626971172518097e-05,1.0004487037658691,0.0,0.0,0.0,1.102656602859497,2.605351686477661,5.28641939163208,-199.58303833007812,0
1119.9800000000014,-0.052038636058568954,-0.05212179198861122,-0.029107049107551575,0.0,0.0,0.0,0.0,0.002150554209947586,0.004044308792799711,-0.0008898904197849333,1.000903844833374,0.0,0.0,0.0,1.1018171310424805,2.600703239440918,5.269094467163086,-199.43109130859375,0
1129.889000000001,-0.052038636058568954,-0.05212179198861122,-0.029107049107551575,0.0,0.0,0.0,0.0,-0.0027644657529890537,-0.0019985472317785025,-0.001375839114189148,0.9978548288345337,0.0,0.0,0.0,1.1018171310424805,2.600703239440918,5.269094467163086,-199.43109130859375,0
1139.8030000000017,-0.05179446190595627,-0.05220713093876839,-0.02891039475798607,0.0,0.0,0.0,0.0,-0.0006999025936238468,-0.0011883708648383617,0.00015424635785166174,0.9981632232666016,0.0,0.0,0.0,1.1088095903396606,2.5942490100860596,5.293401718139648,-200.69674682617188,0
1149.7120000000014,-0.05179446190595627,-0.05220713093876839,-0.02891039475798607,0.0,0.0,0.0,0.0,0.0003584174264688045,-0.0011866394197568297,0.002488547470420599,0.9986555576324463,0.0,0.0,0.0,1.1088095903396606,2.5942490100860596,5.293401718139648,-200.69674682617188,0
1159.6230000000014,-0.051665693521499634,-0.05223764106631279,-0.028868257999420166,0.0,0.0,0.0,0.0,-0.0002694325230550021,-0.0006980584585107863,0.001978904241696,1.0001819133758545,0.0,0.0,0.0,1.1091598272323608,2.598926067352295,5.312264442443848,-200.7601318359375,0
1169.5370000000003,-0.051665693521499634,-0.05223764106631279,-0.028868257999420166,0.0,0.0,0.0,0.0,0.0014165362808853388,0.0034721149131655693,0.002391305286437273,1.0003304481506348,0.0,0.0,0.0,1.1091598272323608,2.598926067352295,5.312264442443848,-200.7601318359375,0
1179.4460000000017,-0.05150806903839111,-0.052250172942876816,-0.028716549277305603,0.0,0.0,0.0,0.0,0.0013707871548831463,-0.0012287338031455874,-0.0020909651648253202,1.0011237859725952,0.0,0.0,0.0,1.1148279905319214,2.6021769046783447,5.320315361022949,-201.78607177734375,0
1189.3560000000016,-0.05179915577173233,-0.052177708595991135,-0.028941690921783447,0.0,0.0,0.0,0.0,0.00014256910071708262,0.000675793387927115,9.159857290796936e-05,0.9991313219070435,0.0,0.0,0.0,1.1120394468307495,2.599677562713623,5.315337181091309,-201.2813720703125,0
1199.2720000000008,-0.05141862481832504,-0.052244558930397034,-0.028680985793471336,0.0,0.0,0.0,0.0,0.003336528316140175,-0.002891258569434285,-0.003474297234788537,0.9984492063522339,0.0,0.0,0.0,1.1039551496505737,2.6045753955841064,5.332696437835693,-199.81808471679688,0
1209.1970000000001,-0.05170714110136032,-0.05217115581035614,-0.028907570987939835,0.0,0.0,0.0,0.0,0.0015328963054344058,0.005655992776155472,-0.0022587678395211697,1.00119948387146,0.0,0.0,0.0,1.1027283668518066,2.600740909576416,5.326261520385742,-199.5960235595703,0
1219.0930000000008,-0.05126011744141579,-0.052255239337682724,-0.02857358381152153,0.0,0.0,0.0,0.0,-0.002868728479370475,-0.0026822341606020927,8.971535135060549e-05,0.9990454316139221,0.0,0.0,0.0,1.1012182235717773,2.599317789077759,5.309370040893555,-199.3226776123047,0
1229.023000000001,-0.051545873284339905,-0.05217998847365379,-0.02879982627928257,0.0,0.0,0.0,0.0,0.002093147486448288,0.006550744641572237,-0.000936339667532593,0.9995517730712891,0.0,0.0,0.0,1.10040283203125,2.599336624145508,5.299905776977539,-199.17510986328125,0
1238.9280000000017,-0.051835186779499054,-0.052105143666267395,-0.029026539996266365,0.0,0.0,0.0,0.0,-0.0018670769641175866,0.0011100497795268893,-0.0010733139934018254,0.998384952545166,0.0,0.0,0.0,1.0971003770828247,2.5938398838043213,5.280392646789551,-198.5773468017578,0
1248.8390000000018,-0.0521286278963089,-0.05203065648674965,-0.029254550114274025,0.0,0.0,0.0,0.0,-0.0009272632305510342,0.0039052190259099007,0.0006269617006182671,0.9977136850357056,0.0,0.0,0.0,1.09649658203125,2.5891973972320557,5.283651351928711,-198.46807861328125,0
1258.7430000000004,-0.051526252180337906,-0.052229057997465134,-0.028776628896594048,0.0,0.0,0.0,0.0,0.0002877862425521016,0.002083557192236185,-0.0054561602883040905,0.9988414645195007,0.0,0.0,0.0,1.1077758073806763,2.576256513595581,5.283104419708252,-200.50961303710938,0
1268.67,-0.051816824823617935,-0.0521588996052742,-0.02900581806898117,0.0,0.0,0.0,0.0,-0.0029032055754214525,-0.0030565853230655193,-0.0027346794959157705,0.9991281628608704,0.0,0.0,0.0,1.1057554483413696,2.581153631210327,5.282860279083252,-200.14393615722656,0
1278.5690000000013,-0.0512622632086277,-0.052331943064928055,-0.028554238379001617,0.0,0.0,0.0,0.0,0.00022144457034301013,-0.002574286423623562,-0.003706919262185693,0.9997783899307251,0.0,0.0,0.0,1.1103830337524414,2.5724854469299316,5.304714679718018,-200.98153686523438,0
1288.4940000000006,-0.051549799740314484,-0.052266258746385574,-0.028782173991203308,0.0,0.0,0.0,0.0,0.0006591391284018755,-0.002902439795434475,0.0023964920546859503,0.9984474778175354,0.0,0.0,0.0,1.109083890914917,2.573533535003662,5.30073356628418,-200.74639892578125,0
1298.389000000001,-0.05130075290799141,-0.05233568325638771,-0.028592607006430626,0.0,0.0,0.0,0.0,-0.000315121840685606,0.0017726973164826632,-0.0015412581851705909,0.9996643662452698,0.0,0.0,0.0,1.1084038019180298,2.572300910949707,5.3013997077941895,-200.623291015625,0
1308.3120000000017,-0.05158926546573639,-0.05226994678378105,-0.028820518404245377,0.0,0.0,0.0,0.0,-0.0006134905852377415,-0.0011916693765670061,0.0007375652785412967,1.0008225440979004,0.0,0.0,0.0,1.1076668500900269,2.5688724517822266,5.291062831878662,-200.48988342285156,0
1318.2220000000016,-0.05137869715690613,-0.05227610841393471,-0.02862764336168766,0.0,0.0,0.0,0.0,-0.00025839003501459956,-0.0005775486351922154,0.0019119662465527654,1.0012906789779663,0.0,0.0,0.0,1.10664963722229,2.5685925483703613,5.2813401222229,-200.30577087402344,0
1328.1380000000008,-0.05166975408792496,-0.05220713093876839,-0.028851691633462906,0.0,0.0,0.0,0.0,-0.0006119036115705967,0.004634739365428686,-0.004447221290320158,0.9986940622329712,0.0,0.0,0.0,1.1046429872512817,2.565253496170044,5.268777847290039,-199.9425811767578,0
1338.041000000001,-0.05139335244894028,-0.052305325865745544,-0.02861897274851799,0.0,0.0,0.0,0.0,-0.001976895611733198,-0.000990243279375136,-0.00237476360052824,0.9985027313232422,0.0,0.0,0.0,1.1019471883773804,2.5656023025512695,5.266451358795166,-199.45462036132812,0
1347.960000000001,-0.051685091108083725,-0.052239615470170975,-0.028842799365520477,0.0,0.0,0.0,0.0,0.002195743378251791,-0.002649125410243869,-0.0010989700676873326,1.0012726783752441,0.0,0.0,0.0,1.1013835668563843,2.5624377727508545,5.251394271850586,-199.3526153564453,0
1357.8650000000016,-0.051318611949682236,-0.052348747849464417,-0.028550324961543083,0.0,0.0,0.0,0.0,0.00034356789547018707,0.005417973268777132,-0.005555195268243551,1.0002998113632202,0.0,0.0,0.0,1.0924609899520874,2.554581880569458,5.275710105895996,-197.73760986328125,0
1367.7920000000013,-0.05160994455218315,-0.05228636413812637,-0.028771959245204926,0.0,0.0,0.0,0.0,-0.0017233389662578702,0.0005121834110468626,-0.003617210080847144,0.9991838932037354,0.0,0.0,0.0,1.0898728370666504,2.5518245697021484,5.251486301422119,-197.26914978027344,0
1377.6890000000003,-0.05116378515958786,-0.05234779044985771,-0.028439857065677643,0.0,0.0,0.0,0.0,7.63627394917421e-05,0.0012848309706896544,0.0027113757096230984,1.0009227991104126,0.0,0.0,0.0,1.0886176824569702,2.5536606311798096,5.245208263397217,-197.04197692871094,0
1387.594000000001,-0.051450859755277634,-0.0522836372256279,-0.028660748153924942,0.0,0.0,0.0,0.0,0.00014939522952772677,-0.0024908962659537792,-0.0003536762378644198,0.9995350241661072,0.0,0.0,0.0,1.0882225036621094,2.542907476425171,5.238004207611084,-196.97044372558594,0
1397.5040000000008,-0.051200300455093384,-0.05233244597911835,-0.028452858328819275,0.0,0.0,0.0,0.0,-0.001674531726166606,0.0036999329458922148,0.0014499407261610031,0.9990246295928955,0.0,0.0,0.0,1.085537075996399,2.5433027744293213,5.236539363861084,-196.48435974121094,0
1407.4220000000005,-0.051488373428583145,-0.05226921662688255,-0.028672438114881516,0.0,0.0,0.0,0.0,-0.002570387441664934,-0.0011189528740942478,-0.0005601011216640472,0.9986929297447205,0.0,0.0,0.0,1.0855567455291748,2.543976068496704,5.232326507568359,-196.4879150390625,0
1417.3330000000005,-0.05118243023753166,-0.05235212668776512,-0.0284265223890543,0.0,0.0,0.0,0.0,-0.0033583203330636024,0.0034106941893696785,0.00021525270130950958,0.9970267415046692,0.0,0.0,0.0,1.082887887954712,2.5440261363983154,5.222306728363037,-196.00486755371094,0
1427.2450000000008,-0.05147303640842438,-0.05229150876402855,-0.02864844724535942,0.0,0.0,0.0,0.0,-0.00026524043641984463,0.003101640846580267,-0.0022518299520015717,0.9988787174224854,0.0,0.0,0.0,1.082472324371338,2.5423052310943604,5.205115795135498,-195.9296417236328,0
1437.1530000000002,-0.051038529723882675,-0.05236373841762543,-0.028322752565145493,0.0,0.0,0.0,0.0,-0.00010869431571336463,9.595222945790738e-05,-0.0024903349112719297,0.9987589716911316,0.0,0.0,0.0,1.091209053993225,2.5631165504455566,5.2412848472595215,-197.51100158691406,0
1447.0740000000005,-0.05132749304175377,-0.05230217054486275,-0.02854674868285656,0.0,0.0,0.0,0.0,0.001570233260281384,0.0012097482103854418,-0.004462300334125757,0.9991394877433777,0.0,0.0,0.0,1.090847373008728,2.558521032333374,5.227722644805908,-197.44554138183594,0
1456.9750000000004,-0.05123323202133179,-0.05234510824084282,-0.028471369296312332,0.0,0.0,0.0,0.0,0.0008449762244708836,-4.0070088289212435e-05,0.0022072559222579002,0.9961681365966797,0.0,0.0,0.0,1.0884541273117065,2.559004068374634,5.222084045410156,-197.0123748779297,0
1466.8900000000012,-0.05123323202133179,-0.05234510824084282,-0.028471369296312332,0.0,0.0,0.0,0.0,0.0018892199732363224,-0.0007448865217156708,-7.922175427665934e-06,0.9972984790802002,0.0,0.0,0.0,1.0884541273117065,2.559004068374634,5.222084045410156,-197.0123748779297,0
1476.8070000000007,-0.05093656852841377,-0.05244176462292671,-0.028224950656294823,0.0,0.0,0.0,0.0,0.002176861045882106,0.0014202402671799064,-0.0037223014514893293,0.9993116855621338,0.0,0.0,0.0,1.0868887901306152,2.5513904094696045,5.216541290283203,-196.72903442382812,0
1486.7160000000003,-0.05122542008757591,-0.0523843839764595,-0.028452852740883827,0.0,0.0,0.0,0.0,-0.0025558818597346544,0.00020546119776554406,0.0010870532132685184,1.0003881454467773,0.0,0.0,0.0,1.086205005645752,2.549034595489502,5.216808795928955,-196.60525512695312,0
1496.6310000000012,-0.05075864866375923,-0.05250422656536102,-0.02812436781823635,0.0,0.0,0.0,0.0,-0.002345605753362179,-0.00055981200421229,-7.921134238131344e-05,0.9983969926834106,0.0,0.0,0.0,1.0857869386672974,2.5510873794555664,5.215482234954834,-196.5295867919922,0
1506.550000000001,-0.05104316771030426,-0.05244828388094902,-0.02835317701101303,0.0,0.0,0.0,0.0,0.000466696365037933,0.0017939498648047447,0.002534657483920455,0.9989434480667114,0.0,0.0,0.0,1.0846651792526245,2.55224609375,5.208693504333496,-196.32656860351562,0
1516.4490000000005,-0.05071499943733215,-0.05248598754405975,-0.02811698243021965,0.0,0.0,0.0,0.0,-0.002543197711929679,-0.007121730595827103,0.0022031839471310377,0.9989644885063171,0.0,0.0,0.0,1.084473967552185,2.5530893802642822,5.209559440612793,-196.29193115234375,0
1526.3610000000008,-0.050997789949178696,-0.05242763087153435,-0.028347311541438103,0.0,0.0,0.0,0.0,0.0018685141112655401,0.004861078690737486,-0.0036376994103193283,0.9980536699295044,0.0,0.0,0.0,1.0837260484695435,2.553823709487915,5.209535598754883,-196.15655517578125,0
1536.2700000000004,-0.05060146749019623,-0.052488941699266434,-0.028032401576638222,0.0,0.0,0.0,0.0,-0.0005543511942960322,0.0010282015427947044,0.00010610166646074504,0.9986780285835266,0.0,0.0,0.0,1.0821202993392944,2.553205966949463,5.204001426696777,-195.8659210205078,0
1546.179,-0.05088447779417038,-0.052428048104047775,-0.028263932093977928,0.0,0.0,0.0,0.0,0.0013013116549700499,0.0008417689823545516,-0.0009586867527104914,0.9997473359107971,0.0,0.0,0.0,1.0806399583816528,2.5499119758605957,5.188908576965332,-195.59799194335938,0
1556.0900000000001,-0.050539951771497726,-0.05250045657157898,-0.02801942452788353,0.0,0.0,0.0,0.0,-9.224043606081977e-05,0.002821673871949315,-0.003605383448302746,0.998715877532959,0.0,0.0,0.0,1.0803664922714233,2.547478437423706,5.180243492126465,-195.54849243164062,0
1566.0110000000004,-0.05081974342465401,-0.05243901163339615,-0.02825251780450344,0.0,0.0,0.0,0.0,-0.0005198849248699844,-0.001002379460260272,0.004611561540514231,0.9995205998420715,0.0,0.0,0.0,1.0783792734146118,2.535848379135132,5.167092323303223,-195.1887969970703,0
1575.9030000000002,-0.050675686448812485,-0.052486568689346313,-0.028118014335632324,0.0,0.0,0.0,0.0,-0.0001779142185114324,-0.0005542004946619272,-0.0004892362630926073,0.9955440163612366,0.0,0.0,0.0,1.076781988143921,2.539365291595459,5.157705783843994,-194.89968872070312,0
1585.8230000000003,-0.05096092075109482,-0.05242278054356575,-0.02835088223218918,0.0,0.0,0.0,0.0,-0.001060553127899766,-0.0011799458879977465,-0.002441392745822668,0.9993923902511597,0.0,0.0,0.0,1.076159954071045,2.5404160022735596,5.150836944580078,-194.78709411621094,0
1595.7470000000012,-0.050702136009931564,-0.05249219015240669,-0.02812197618186474,0.0,0.0,0.0,0.0,-0.00038268856587819755,0.0005235563730821013,0.0005749367410317063,0.9980355501174927,0.0,0.0,0.0,1.0751150846481323,2.539619207382202,5.154022216796875,-194.59796142578125,0
1605.657000000001,-0.05099256709218025,-0.05242748185992241,-0.028356825932860374,0.0,0.0,0.0,0.0,-0.0003209714777767658,0.004759596660733223,-0.00288924272172153,0.9992648363113403,0.0,0.0,0.0,1.0737509727478027,2.5369927883148193,5.145327091217041,-194.35107421875,0
1615.5660000000007,-0.05062355101108551,-0.05248783528804779,-0.02808130718767643,0.0,0.0,0.0,0.0,0.0030686985701322556,0.0031496495939791203,-0.0019649432506412268,0.9998356699943542,0.0,0.0,0.0,1.0846587419509888,2.558108329772949,5.166447639465332,-196.32537841796875,0
1625.4710000000014,-0.05091231316328049,-0.05242052301764488,-0.028317147865891457,0.0,0.0,0.0,0.0,-0.001424295362085104,-0.004217120818793774,0.0004444947699084878,0.9999299049377441,0.0,0.0,0.0,1.0830638408660889,2.558443307876587,5.158698558807373,-196.03671264648438,0
1635.3810000000012,-0.05048517882823944,-0.05255768820643425,-0.027947379276156425,0.0,0.0,0.0,0.0,0.0009859995916485786,0.004572052042931318,-0.0009686953271739185,0.9993334412574768,0.0,0.0,0.0,1.0947716236114502,2.54499888420105,5.165652275085449,-198.1558380126953,0
1645.2960000000003,-0.05077589303255081,-0.05249222368001938,-0.028180411085486412,0.0,0.0,0.0,0.0,-0.0018232688307762146,0.0020698057487607002,-0.001030367217026651,0.9994309544563293,0.0,0.0,0.0,1.0936799049377441,2.541818380355835,5.157796382904053,-197.95822143554688,0
1655.2080000000005,-0.050675805658102036,-0.05252664163708687,-0.02807602845132351,0.0,0.0,0.0,0.0,0.001783262938261032,-0.0004716016701422632,-0.0016452514100819826,0.9991517066955566,0.0,0.0,0.0,1.0934748649597168,2.5413050651550293,5.141902923583984,-197.92112731933594,0
1665.1130000000012,-0.050973281264305115,-0.05246400460600853,-0.028307849541306496,0.0,0.0,0.0,0.0,-0.0013657404342666268,-0.0048805600963532925,-0.000706446182448417,1.0015946626663208,0.0,0.0,0.0,1.0909271240234375,2.5443716049194336,5.131360054016113,-197.45999145507812,0
1675.0210000000006,-0.05074835941195488,-0.052478402853012085,-0.028139986097812653,0.0,0.0,0.0,0.0,0.003957537934184074,0.0026353192515671253,-0.002032698830589652,0.999411940574646,0.0,0.0,0.0,1.0953059196472168,2.563580274581909,5.157097339630127,-198.2525634765625,0
1684.9350000000013,-0.05104874074459076,-0.05241496115922928,-0.028370307758450508,0.0,0.0,0.0,0.0,-0.0016405335627496243,0.0035217003896832466,-0.0005585207254625857,0.9963786005973816,0.0,0.0,0.0,1.0940021276474,2.554691791534424,5.151252746582031,-198.0165557861328,0
1694.8520000000008,-0.050735898315906525,-0.05247087404131889,-0.02809508517384529,0.0,0.0,0.0,0.0,0.000781864975579083,-0.0032470240257680416,6.466019112849608e-05,0.9994373321533203,0.0,0.0,0.0,1.1012576818466187,2.5715701580047607,5.149200439453125,-199.329833984375,0
1704.759,-0.051038309931755066,-0.052405696362257004,-0.02832617796957493,0.0,0.0,0.0,0.0,-0.00250021880492568,0.0007451909477822483,0.0008362115477211773,0.9991921186447144,0.0,0.0,0.0,1.1004351377487183,2.57102108001709,5.14519739151001,-199.18093872070312,0
1714.674000000001,-0.05073675885796547,-0.05250503867864609,-0.028058193624019623,0.0,0.0,0.0,0.0,-0.0011235749116167426,-0.001855345326475799,0.0012517699506133795,0.9971831440925598,0.0,0.0,0.0,1.1128560304641724,2.5674166679382324,5.163026809692383,-201.4291534423828,0
1724.5890000000018,-0.05104343965649605,-0.052440933883190155,-0.0282891932874918,0.0,0.0,0.0,0.0,-0.00017967572784982622,0.002014348516240716,-0.000585109693929553,1.0016753673553467,0.0,0.0,0.0,1.1121649742126465,2.5683753490448,5.154623031616211,-201.3040771484375,0
1734.5010000000002,-0.050719067454338074,-0.05254151672124863,-0.028014270588755608,0.0,0.0,0.0,0.0,-0.0014714522985741496,6.25805405434221e-05,-0.003677546279504895,1.001423954963684,0.0,0.0,0.0,1.1234982013702393,2.5638341903686523,5.164267063140869,-203.35540771484375,0
1744.4030000000002,-0.05102688819169998,-0.05247717723250389,-0.02824374847114086,0.0,0.0,0.0,0.0,0.00046641123481094837,0.0015402247663587332,-0.003182419575750828,0.9992103576660156,0.0,0.0,0.0,1.1234956979751587,2.5657715797424316,5.163190841674805,-203.3549346923828,0
1754.3180000000011,-0.05084878206253052,-0.052527036517858505,-0.028047895058989525,0.0,0.0,0.0,0.0,-0.0011832303134724498,0.0015096835559234023,0.0007940579089336097,0.9992849826812744,0.0,0.0,0.0,1.1213825941085815,2.5638842582702637,5.155360698699951,-202.9724884033203,0
1764.2240000000002,-0.051160577684640884,-0.05246056616306305,-0.028274230659008026,0.0,0.0,0.0,0.0,2.8605823899852112e-05,-0.002244038973003626,0.0009120844770222902,1.0000799894332886,0.0,0.0,0.0,1.1200668811798096,2.5613958835601807,5.139756202697754,-202.7343292236328,0
1774.1380000000008,-0.05065244063735008,-0.05259311571717262,-0.027872657403349876,0.0,0.0,0.0,0.0,-0.0005273964488878846,0.0033457742538303137,0.00046908785589039326,1.000213384628296,0.0,0.0,0.0,1.128359317779541,2.5595285892486572,5.169122695922852,-204.2352752685547,0
1784.0570000000007,-0.0509604774415493,-0.052526261657476425,-0.028097864240407944,0.0,0.0,0.0,0.0,-0.0019448314560577273,0.0003115142753813416,0.0009124824427999556,1.0000734329223633,0.0,0.0,0.0,1.1259406805038452,2.5572454929351807,5.160644054412842,-203.79751586914062,0
1793.9660000000003,-0.05050152167677879,-0.05261142551898956,-0.02779243141412735,0.0,0.0,0.0,0.0,-0.0003699947556015104,0.002745515899732709,-0.003909317310899496,1.0004289150238037,0.0,0.0,0.0,1.1287124156951904,2.570566415786743,5.184146404266357,-204.29920959472656,0
1803.8810000000012,-0.050803739577531815,-0.052540697157382965,-0.028017370030283928,0.0,0.0,0.0,0.0,0.002824553055688739,-0.0015414238441735506,-0.0026492448523640633,1.0006853342056274,0.0,0.0,0.0,1.1272121667861938,2.563138008117676,5.175867080688477,-204.0276641845703,0
1813.786,-0.05042792484164238,-0.05257326364517212,-0.02775295078754425,0.0,0.0,0.0,0.0,-0.0005048860912211239,0.0014002856332808733,-0.001340730581432581,1.000082015991211,0.0,0.0,0.0,1.1270112991333008,2.5773813724517822,5.198921203613281,-203.9912872314453,0
1823.6950000000015,-0.050728145986795425,-0.052497126162052155,-0.027976952493190765,0.0,0.0,0.0,0.0,-0.0015946142375469208,0.002689302433282137,-0.0005447946605272591,0.9990789294242859,0.0,0.0,0.0,1.1255944967269897,2.5801656246185303,5.200663089752197,-203.73486328125,0
1833.6040000000012,-0.050334569066762924,-0.05254305154085159,-0.027679355815052986,0.0,0.0,0.0,0.0,-0.0011121768038719893,0.0012109598610550165,0.0008473462658002973,0.9994992017745972,0.0,0.0,0.0,1.1308128833770752,2.6017186641693115,5.211994647979736,-204.67938232421875,0
1843.5200000000004,-0.050634145736694336,-0.05246438831090927,-0.02790326252579689,0.0,0.0,0.0,0.0,-0.0012936500133946538,-0.00400927197188139,0.0011458946391940117,0.9998834729194641,0.0,0.0,0.0,1.1292070150375366,2.5962953567504883,5.209666728973389,-204.38870239257812,0
1853.429,-0.050302065908908844,-0.052520912140607834,-0.027664899826049805,0.0,0.0,0.0,0.0,0.0015000490238890052,0.0028419424779713154,-0.0011046241270378232,0.9991516470909119,0.0,0.0,0.0,1.1289836168289185,2.598391532897949,5.196793079376221,-204.3482666015625,0
1863.3410000000003,-0.050600335001945496,-0.052443306893110275,-0.027889598160982132,0.0,0.0,0.0,0.0,-0.0016242964193224907,-0.0015977678121998906,-0.0027523539029061794,1.0017067193984985,0.0,0.0,0.0,1.1269513368606567,2.593883752822876,5.19249153137207,-203.98043823242188,0
1873.2580000000016,-0.050471238791942596,-0.05249776318669319,-0.027779854834079742,0.0,0.0,0.0,0.0,-0.0009286615531891584,-0.0005913247587159276,0.0008615300757810473,1.000016450881958,0.0,0.0,0.0,1.124605417251587,2.589381694793701,5.183521270751953,-203.55581665039062,0
1883.1640000000007,-0.050800710916519165,-0.05241537466645241,-0.02802455425262451,0.0,0.0,0.0,0.0,0.00245237210765481,-0.00178724795114249,0.0018136347644031048,0.9990504384040833,0.0,0.0,0.0,1.1229310035705566,2.5875887870788574,5.181031703948975,-203.2527313232422,0
1893.0740000000005,-0.05052901431918144,-0.052511680871248245,-0.027796875685453415,0.0,0.0,0.0,0.0,0.002678615041077137,0.003524139989167452,0.0026140969712287188,0.9988148212432861,0.0,0.0,0.0,1.1219441890716553,2.5876147747039795,5.171747207641602,-203.07411193847656,0
1902.9800000000014,-0.050831347703933716,-0.05243948847055435,-0.02801898866891861,0.0,0.0,0.0,0.0,-0.0033928819466382265,0.004078373778611422,0.0018792747287079692,1.0002788305282593,0.0,0.0,0.0,1.1212443113327026,2.5840792655944824,5.166594982147217,-202.94744873046875,0
1912.8990000000013,-0.05030294507741928,-0.052597980946302414,-0.027592042461037636,0.0,0.0,0.0,0.0,-0.0022571475710719824,0.0015707139391452074,0.0013468645047396421,1.0002110004425049,0.0,0.0,0.0,1.1204034090042114,2.591905117034912,5.1516594886779785,-202.7952423095703,0
1922.8070000000007,-0.05060287564992905,-0.052528999745845795,-0.027812892571091652,0.0,0.0,0.0,0.0,0.0016388206277042627,-0.005624967627227306,-0.0004302083689253777,0.9981657266616821,0.0,0.0,0.0,1.1188627481460571,2.590235471725464,5.147853374481201,-202.51638793945312,0
1932.7110000000011,-0.050156548619270325,-0.052660636603832245,-0.027451617643237114,0.0,0.0,0.0,0.0,0.0013492084108293056,-0.0029736545402556658,-0.004470940679311752,1.0010746717453003,0.0,0.0,0.0,1.1312533617019653,2.580103635787964,5.172209739685059,-204.7591094970703,0
1942.6420000000016,-0.05045652389526367,-0.052593253552913666,-0.027671903371810913,0.0,0.0,0.0,0.0,-0.002252286532893777,-0.0025131271686404943,-0.0020071682520210743,1.000733494758606,0.0,0.0,0.0,1.1307268142700195,2.5775952339172363,5.167359352111816,-204.66380310058594,0
1952.5390000000007,-0.05016087368130684,-0.0526275560259819,-0.027454150840640068,0.0,0.0,0.0,0.0,-0.005678318906575441,0.002187189180403948,0.0007673069485463202,0.9992104768753052,0.0,0.0,0.0,1.1294870376586914,2.5835764408111572,5.178433418273926,-204.43939208984375,0
1962.4500000000007,-0.05045892298221588,-0.05255724862217903,-0.027672935277223587,0.0,0.0,0.0,0.0,0.0005022503901273012,-0.0033259072806686163,-0.0007878050091676414,1.000480055809021,0.0,0.0,0.0,1.1287732124328613,2.58880352973938,5.1807684898376465,-204.31021118164062,0
1972.3610000000008,-0.050084684044122696,-0.05264189466834068,-0.02743704617023468,0.0,0.0,0.0,0.0,-0.002369464607909322,0.006066568195819855,-0.004732978530228138,0.9995536804199219,0.0,0.0,0.0,1.1268585920333862,2.584312677383423,5.1726861000061035,-203.96365356445312,0
1982.268,-0.050380755215883255,-0.05257343873381615,-0.027657419443130493,0.0,0.0,0.0,0.0,0.0020876664202660322,0.0008515566005371511,-0.0004504862008616328,0.9987051486968994,0.0,0.0,0.0,1.125138282775879,2.5873496532440186,5.162890911102295,-203.65225219726562,0
1992.1870000000017,-0.04992610961198807,-0.05265258252620697,-0.027359604835510254,0.0,0.0,0.0,0.0,0.002365254331380129,0.006250948645174503,-0.0012753736227750778,1.0003362894058228,0.0,0.0,0.0,1.1312087774276733,2.5944161415100098,5.18859338760376,-204.75103759765625,0
2002.0920000000006,-0.050218336284160614,-0.052583079785108566,-0.027582135051488876,0.0,0.0,0.0,0.0,0.0007667039171792567,-0.0013845076318830252,0.0010900826891884208,0.9996892809867859,0.0,0.0,0.0,1.130002737045288,2.5924713611602783,5.176821231842041,-204.53274536132812,0
2012.0020000000004,-0.04983167350292206,-0.05264302343130112,-0.027309797704219818,0.0,0.0,0.0,0.0,0.0015495899133384228,0.0004736901610158384,-0.0016626407159492373,0.9978005290031433,0.0,0.0,0.0,1.1289194822311401,2.588306188583374,5.169762134552002,-204.336669921875,0
2021.92,-0.050121840089559555,-0.05257224291563034,-0.02753313072025776,0.0,0.0,0.0,0.0,0.00010107021807925776,-0.003209881717339158,-0.0030969069339334965,0.9986986517906189,0.0,0.0,0.0,1.128463864326477,2.583256959915161,5.157051086425781,-204.25421142578125,0
2031.8280000000013,-0.04979793727397919,-0.05267362669110298,-0.027290767058730125,0.0,0.0,0.0,0.0,0.0024693903978914022,0.0004573494370561093,0.0016256287926808,1.002315878868103,0.0,0.0,0.0,1.1266107559204102,2.579524040222168,5.1544623374938965,-203.91879272460938,0
2041.7450000000008,-0.05008727312088013,-0.052603717893362045,-0.027515405789017677,0.0,0.0,0.0,0.0,-0.0010657854145392776,0.0016334601677954197,-0.0008971690549515188,1.001279354095459,0.0,0.0,0.0,1.1264539957046509,2.575437068939209,5.146381378173828,-203.8904266357422,0
2051.6530000000002,-0.05000102147459984,-0.0526445172727108,-0.027425603941082954,0.0,0.0,0.0,0.0,-0.0020192747469991446,0.0035831243731081486,0.0009631139691919088,0.9988327026367188,0.0,0.0,0.0,1.1243040561676025,2.5671541690826416,5.131725311279297,-203.50125122070312,0
2061.576000000001,-0.05029426887631416,-0.052575405687093735,-0.02764608897268772,0.0,0.0,0.0,0.0,-0.0005287878448143601,-0.007525795605033636,-6.244888209039345e-05,0.9981920719146729,0.0,0.0,0.0,1.1233999729156494,2.571807384490967,5.118762016296387,-203.33763122558594,0
2071.470000000001,-0.05018089339137077,-0.0526062436401844,-0.0275567714124918,0.0,0.0,0.0,0.0,0.005032163113355637,0.0020414807368069887,-0.0005911304033361375,0.9990316033363342,0.0,0.0,0.0,1.1215040683746338,2.571974515914917,5.122109889984131,-202.9944610595703,0
2081.388000000001,-0.050478316843509674,-0.05253826454281807,-0.02777896448969841,0.0,0.0,0.0,0.0,-0.00027190829860046506,0.001970321638509631,-0.001348503166809678,1.0015153884887695,0.0,0.0,0.0,1.1199144124984741,2.5642318725585938,5.115095138549805,-202.70672607421875,0
2091.2940000000017,-0.050138331949710846,-0.0526067316532135,-0.027515141293406487,0.0,0.0,0.0,0.0,-5.777139085694216e-05,-0.002237023087218404,-0.0014066621661186218,1.00156831741333,0.0,0.0,0.0,1.11923348903656,2.5551111698150635,5.10393762588501,-202.58348083496094,0
2101.2170000000006,-0.05043693259358406,-0.05253678187727928,-0.0277345422655344,0.0,0.0,0.0,0.0,-0.0009491918026469648,0.00039527728222310543,0.00010458302858751267,0.9984826445579529,0.0,0.0,0.0,1.1176241636276245,2.5592496395111084,5.101434707641602,-202.29220581054688,0
2111.1140000000014,-0.05007530376315117,-0.05261079967021942,-0.02742590568959713,0.0,0.0,0.0,0.0,0.0010821149917319417,0.0009622915531508625,0.0039609940722584724,0.9973159432411194,0.0,0.0,0.0,1.1243878602981567,2.5640249252319336,5.118152141571045,-203.5164337158203,0
2121.040000000001,-0.05037439242005348,-0.05254221707582474,-0.027643823996186256,0.0,0.0,0.0,0.0,5.0947146519320086e-05,-0.0015367005253210664,0.002970874309539795,0.9988409280776978,0.0,0.0,0.0,1.1231250762939453,2.5681920051574707,5.115860939025879,-203.28787231445312,0
2130.9440000000013,-0.04987924173474312,-0.0526488721370697,-0.02728547342121601,0.0,0.0,0.0,0.0,-0.0029999297112226486,0.0012711957097053528,-0.0030474793165922165,0.9992415904998779,0.0,0.0,0.0,1.129570484161377,2.5688116550445557,5.151163578033447,-204.45449829101562,0
2140.862000000001,-0.050172559916973114,-0.05258209630846977,-0.027505824342370033,0.0,0.0,0.0,0.0,-0.0044093504548072815,0.004405456129461527,-0.00045620399760082364,1.0013049840927124,0.0,0.0,0.0,1.1293591260910034,2.571202516555786,5.139687538146973,-204.416259765625,0
2150.76,-0.04977772384881973,-0.05270791053771973,-0.027230363339185715,0.0,0.0,0.0,0.0,0.0007966588018462062,-0.0014059226959943771,0.0009564301581121981,0.999713659286499,0.0,0.0,0.0,1.1216168403625488,2.5629420280456543,5.157827854156494,-203.014892578125,0
2160.6800000000003,-0.050068095326423645,-0.052645064890384674,-0.02745000272989273,0.0,0.0,0.0,0.0,0.0025164580438286066,0.0004144991107750684,0.0011841257801279426,0.9992544054985046,0.0,0.0,0.0,1.1207025051116943,2.5635480880737305,5.15859842300415,-202.849365234375,0
2170.5830000000005,-0.049602583050727844,-0.05275504291057587,-0.027040090411901474,0.0,0.0,0.0,0.0,0.001406021066941321,-0.00017882992688100785,-0.0009117585723288357,0.999403178691864,0.0,0.0,0.0,1.1297005414962769,2.5663986206054688,5.1695733070373535,-204.47802734375,0
2180.5080000000016,-0.04989251866936684,-0.05269109085202217,-0.02725750394165516,0.0,0.0,0.0,0.0,7.626142905792221e-05,0.003289696993306279,0.0013334372779354453,1.0005942583084106,0.0,0.0,0.0,1.1292942762374878,2.563493013381958,5.15884256362915,-204.40451049804688,0
2190.4090000000015,-0.04963560774922371,-0.05279506370425224,-0.02699354477226734,0.0,0.0,0.0,0.0,0.00036206754157319665,0.0031556575559079647,-0.002105208346620202,1.000633955001831,0.0,0.0,0.0,1.1210227012634277,2.55190110206604,5.15519905090332,-202.9073486328125,0
2200.3290000000015,-0.0499286949634552,-0.052734192460775375,-0.027207575738430023,0.0,0.0,0.0,0.0,-0.002529471181333065,-0.0018000773852691054,-0.0036023082211613655,0.999491810798645,0.0,0.0,0.0,1.1194571256637573,2.547706365585327,5.142017364501953,-202.62396240234375,0
2210.237000000001,-0.04958019033074379,-0.05283688008785248,-0.026941798627376556,0.0,0.0,0.0,0.0,0.0005600336589850485,-0.0008594043320044875,0.0015864211600273848,0.9983363747596741,0.0,0.0,0.0,1.1305257081985474,2.5511386394500732,5.157352447509766,-204.6273956298828,0
2220.1540000000005,-0.0499027818441391,-0.052773039788007736,-0.027177009731531143,0.0,0.0,0.0,0.0,-0.002743988996371627,0.0041718739084899426,5.388603676692583e-05,0.998742401599884,0.0,0.0,0.0,1.1299691200256348,2.542267322540283,5.143797397613525,-204.52667236328125,0
2230.0570000000007,-0.049563631415367126,-0.05286948010325432,-0.026917407289147377,0.0,0.0,0.0,0.0,-0.0024950215592980385,-0.0020346713718026876,0.0017286160727962852,0.9998789429664612,0.0,0.0,0.0,1.1292399168014526,2.543488025665283,5.134460926055908,-204.39466857910156,0
2239.9800000000014,-0.049858640879392624,-0.052813250571489334,-0.027132144197821617,0.0,0.0,0.0,0.0,-0.0025194177869707346,0.003950690384954214,-0.00010869708785321563,0.9989655613899231,0.0,0.0,0.0,1.1292399168014526,2.541703224182129,5.131622791290283,-204.39466857910156,0
2249.881000000001,-0.04933811351656914,-0.05295577645301819,-0.026720521971583366,0.0,0.0,0.0,0.0,-0.0036298036575317383,-0.0011656556744128466,0.0016030723927542567,0.9985213875770569,0.0,0.0,0.0,1.1360012292861938,2.5475871562957764,5.146414756774902,-205.61849975585938,0
2259.799000000001,-0.04963114857673645,-0.05290057510137558,-0.026935584843158722,0.0,0.0,0.0,0.0,0.0006967791123315692,-0.00032708104117773473,0.0001829105895012617,0.9988638758659363,0.0,0.0,0.0,1.1347365379333496,2.5550010204315186,5.134288787841797,-205.3895721435547,0
2269.697,-0.04928841069340706,-0.052958425134420395,-0.026728658005595207,0.0,0.0,0.0,0.0,-0.00016183880507014692,0.00698675075545907,0.0013258822727948427,0.9976068735122681,0.0,0.0,0.0,1.1303517818450928,2.5710437297821045,5.169996738433838,-204.5959014892578,0
2279.625,-0.04891836270689964,-0.05300458148121834,-0.02651347778737545,0.0,0.0,0.0,0.0,0.0004056612669955939,0.0016106527764350176,0.0029694114346057177,0.9994763135910034,0.0,0.0,0.0,1.1321607828140259,2.5932321548461914,5.189629554748535,-204.92335510253906,0
