timestamp,stateEstimate.x,stateEstimate.y,stateEstimate.z,controller.cmd_thrust,controller.cmd_roll,controller.cmd_pitch,controller.cmd_yaw,controller.r_roll,controller.r_pitch,controller.r_yaw,controller.accelz,controller.actuatorThrust,controller.roll,controller.pitch,controller.yaw,controller.rollRate,controller.pitchRate,controller.yawRate,controller.ctr_yaw
0.0,-0.028969688341021538,-0.027404988184571266,0.0008279943722300231,0.0,0.0,0.0,0.0,-0.0012390307383611798,0.0014402327360585332,-0.001969774952158332,1.0002524852752686,0.0,0.0,0.0,0.9518862962722778,2.3991003036499023,5.598573684692383,-172.29331970214844,0
9.917999999999665,-0.028999535366892815,-0.027412286028265953,0.0008110397029668093,0.0,0.0,0.0,0.0,0.00020009804575238377,-0.0015029748901724815,0.002459048293530941,1.0023587942123413,0.0,0.0,0.0,0.951101541519165,2.39663028717041,5.595037460327148,-172.15127563476562,0
19.82499999999891,-0.029031066223978996,-0.02742048166692257,0.000795069383457303,0.0,0.0,0.0,0.0,0.0026723819319158792,0.0009879679419100285,0.002303777728229761,1.0008119344711304,0.0,0.0,0.0,0.9509084820747375,2.398049831390381,5.59197473526001,-172.1163330078125,0
29.74499999999898,-0.029025886207818985,-0.027392232790589333,0.0007338120485655963,0.0,0.0,0.0,0.0,-0.003938670270144939,-0.002746864687651396,0.005334892775863409,0.999477207660675,0.0,0.0,0.0,0.9387199878692627,2.3970375061035156,5.588461875915527,-169.91018676757812,0
39.64899999999943,-0.02905869111418724,-0.027398671954870224,0.0007169081945903599,0.0,0.0,0.0,0.0,0.00018384293070994318,-0.001008017803542316,0.0016322251176461577,1.000591516494751,0.0,0.0,0.0,0.9391554594039917,2.399322271347046,5.586213111877441,-169.98899841308594,0
49.5679999999993,-0.029085442423820496,-0.027390973642468452,0.0006922331522218883,0.0,0.0,0.0,0.0,-0.0007181261898949742,-0.002128987107425928,0.0004592842306010425,0.9998340606689453,0.0,0.0,0.0,0.9480019211769104,2.400101900100708,5.575474262237549,-171.59024047851562,0
59.469999999999345,-0.02912128157913685,-0.027394836768507957,0.0006753297057002783,0.0,0.0,0.0,0.0,0.0021923088934272528,0.0016319015994668007,0.0006797509267926216,1.0007896423339844,0.0,0.0,0.0,0.9469859600067139,2.393279790878296,5.572112560272217,-171.40634155273438,0
69.38899999999921,-0.029165493324398994,-0.027408774942159653,0.0006696603959426284,0.0,0.0,0.0,0.0,-0.0016990130534395576,0.00453034695237875,-0.0012188346590846777,1.0010465383529663,0.0,0.0,0.0,0.9467650055885315,2.3890974521636963,5.5756049156188965,-171.36634826660156,0
79.29299999999967,-0.029204104095697403,-0.027411820366978645,0.000654663541354239,0.0,0.0,0.0,0.0,0.0009246632689610124,0.0041221617721021175,0.0019846868235617876,0.999963104724884,0.0,0.0,0.0,0.9460054636001587,2.3788702487945557,5.551855087280273,-171.2288818359375,0
89.22600000000057,-0.02924453280866146,-0.02740401402115822,0.0006484193727374077,0.0,0.0,0.0,0.0,0.00011967591126449406,0.0023926629219204187,0.0009343241108581424,0.9987475275993347,0.0,0.0,0.0,0.9448655843734741,2.3762056827545166,5.534518241882324,-171.02255249023438,0
99.11700000000019,-0.029283924028277397,-0.027408897876739502,0.0006346894078887999,0.0,0.0,0.0,0.0,-0.0011424648109823465,-0.0017427074490115047,0.0017291688127443194,0.9991978406906128,0.0,0.0,0.0,0.9434435367584229,2.37156081199646,5.528655529022217,-170.76515197753906,0
109.04800000000068,-0.02930118516087532,-0.027397997677326202,0.000564462854526937,0.0,0.0,0.0,0.0,0.0008555089007131755,0.00392658868804574,-0.0012563082855194807,0.9986515045166016,0.0,0.0,0.0,0.9425094127655029,2.3722147941589355,5.528456687927246,-170.59608459472656,0
118.9419999999991,-0.02934078313410282,-0.02740395814180374,0.0005448099691420794,0.0,0.0,0.0,0.0,-0.001653678365983069,0.0009413688676431775,0.0022526527754962444,1.0016813278198242,0.0,0.0,0.0,0.940197765827179,2.3700878620147705,5.511382102966309,-170.1776580810547,0
128.86299999999937,-0.029361937195062637,-0.02736026979982853,0.0004933414165861905,0.0,0.0,0.0,0.0,-0.000994327710941434,-0.009093414060771465,0.0017168447375297546,1.0023677349090576,0.0,0.0,0.0,0.9388949275016785,2.3698060512542725,5.5010666847229,-169.9418487548828,0
138.762999999999,-0.029401246458292007,-0.02736414410173893,0.0004723755409941077,0.0,0.0,0.0,0.0,2.3329197574639693e-05,0.00233414932154119,-0.001661438960582018,1.0006823539733887,0.0,0.0,0.0,0.9388556480407715,2.363267183303833,5.512092590332031,-169.9347381591797,0
148.6869999999999,-0.029426343739032745,-0.027351001277565956,0.0004195344226900488,0.0,0.0,0.0,0.0,-0.0009790527401492,0.0013452478451654315,0.0021614176221191883,0.9995998740196228,0.0,0.0,0.0,0.9370003938674927,2.3611767292022705,5.494319915771484,-169.5989532470703,0
158.59200000000055,-0.02946689911186695,-0.027356097474694252,0.00039892768836580217,0.0,0.0,0.0,0.0,0.0004060502687934786,-0.004863975569605827,0.0024094097316265106,1.0005711317062378,0.0,0.0,0.0,0.9367943406105042,2.3604629039764404,5.494058609008789,-169.5616455078125,0
168.5069999999996,-0.02948850952088833,-0.027326229959726334,0.0003465612535364926,0.0,0.0,0.0,0.0,0.002558779437094927,-0.0015838732942938805,-0.0004459367773961276,1.0002589225769043,0.0,0.0,0.0,0.9353905320167542,2.3548362255096436,5.486729621887207,-169.30755615234375,0
178.40999999999985,-0.029529068619012833,-0.027328630909323692,0.00032365269726142287,0.0,0.0,0.0,0.0,0.004864803981035948,0.004810248501598835,-0.0018729158909991384,1.0010106563568115,0.0,0.0,0.0,0.9348857402801514,2.3466618061065674,5.4811835289001465,-169.2161865234375,0
188.33300000000054,-0.0295270886272192,-0.02729993313550949,0.00023378137848339975,0.0,0.0,0.0,0.0,-0.0013940754579380155,-0.002316066063940525,-0.0024478482082486153,1.0011273622512817,0.0,0.0,0.0,0.9451584219932556,2.3581125736236572,5.488718509674072,-171.07554626464844,0
198.23400000000038,-0.029567644000053406,-0.02730058692395687,0.00020668591605499387,0.0,0.0,0.0,0.0,-0.001339418813586235,-0.0027623039204627275,-0.00032136650406755507,1.001883625984192,0.0,0.0,0.0,0.944118082523346,2.3514373302459717,5.480899333953857,-170.8872528076172,0
208.15400000000045,-0.029611404985189438,-0.027275294065475464,0.00018434521916788071,0.0,0.0,0.0,0.0,0.0021552422549575567,0.0006377766840159893,-0.0032603158615529537,0.9998393058776855,0.0,0.0,0.0,0.9503063559532166,2.36545991897583,5.481762409210205,-172.00735473632812,0
218.0560000000005,-0.029658222571015358,-0.027275316417217255,0.00016056282038334757,0.0,0.0,0.0,0.0,-0.002043967368081212,-0.0037066692020744085,-0.000186568868230097,0.9997454285621643,0.0,0.0,0.0,0.9485630393028259,2.3617138862609863,5.477024078369141,-171.69178771972656,0
227.98500000000058,-0.029727710410952568,-0.027264436706900597,0.00015525521303061396,0.0,0.0,0.0,0.0,0.0006266201380640268,0.005893929861485958,0.0011947884922847152,0.9992483258247375,0.0,0.0,0.0,0.948000967502594,2.3682477474212646,5.482361316680908,-171.59005737304688,0
237.8799999999992,-0.029781043529510498,-0.02726597525179386,0.00013361255696509033,0.0,0.0,0.0,0.0,-0.003583761164918542,3.773830394493416e-05,1.4720717445015907e-05,0.9985091686248779,0.0,0.0,0.0,0.9471700191497803,2.36045241355896,5.461706161499023,-171.4396514892578,0
247.8040000000001,-0.02986213192343712,-0.02726151794195175,0.00010790553642436862,0.0,0.0,0.0,0.0,-0.0006531472317874432,0.0011025709100067616,-0.0013200098183006048,0.9997262954711914,0.0,0.0,0.0,0.9460208415985107,2.3624813556671143,5.451209545135498,-171.23165893554688,0
257.7089999999989,-0.029923848807811737,-0.02726277895271778,8.509538020007312e-05,0.0,0.0,0.0,0.0,0.0004315109981689602,0.0012775325449183583,0.0009584155632182956,1.0012458562850952,0.0,0.0,0.0,0.9451087117195129,2.3633248805999756,5.440713882446289,-171.06655883789062,0
267.6309999999994,-0.029988817870616913,-0.027264345437288284,6.282955291680992e-05,0.0,0.0,0.0,0.0,-0.0019219823880121112,0.0024822731502354145,0.001559048774652183,0.999830961227417,0.0,0.0,0.0,0.9432578086853027,2.3606467247009277,5.431459426879883,-170.73153686523438,0
277.52599999999984,-0.02900364249944687,-0.027422677725553513,0.0010558327194303274,0.0,0.0,0.0,0.0,-0.001881416654214263,-0.0025971243157982826,0.0005992063088342547,0.9979571104049683,0.0,0.0,0.0,0.9359447360038757,2.3514938354492188,5.588255882263184,-169.40785217285156,0
287.4480000000003,-0.029030920937657356,-0.02742551825940609,0.001072738436050713,0.0,0.0,0.0,0.0,0.004249474499374628,-0.000758540874812752,-0.0004866878443863243,1.000443696975708,0.0,0.0,0.0,0.935351550579071,2.3539161682128906,5.585838794708252,-169.3004913330078,0
297.35000000000036,-0.029060183092951775,-0.02742745354771614,0.00108917779289186,0.0,0.0,0.0,0.0,0.0019453364657238126,-0.0019994990434497595,0.00017777523316908628,1.0011762380599976,0.0,0.0,0.0,0.9360909461975098,2.344541549682617,5.579808712005615,-169.434326171875,0
307.27100000000064,-0.029091035947203636,-0.027428999543190002,0.0011064009740948677,0.0,0.0,0.0,0.0,-0.00020039656374137849,0.005747407209128141,-0.0019361790036782622,1.0017951726913452,0.0,0.0,0.0,0.9349310994148254,2.3395450115203857,5.5802388191223145,-169.22439575195312,0
317.1730000000007,-0.02912336215376854,-0.027429865673184395,0.0011250709649175406,0.0,0.0,0.0,0.0,-0.003378055291250348,-0.0030190949328243732,-0.003936029504984617,1.0002079010009766,0.0,0.0,0.0,0.9343732595443726,2.3398942947387695,5.562751770019531,-169.1234130859375,0
327.0849999999991,-0.029157206416130066,-0.027430716902017593,0.0011448832228779793,0.0,0.0,0.0,0.0,-0.0021665929816663265,0.001928545068949461,0.0007353445398621261,0.9994882941246033,0.0,0.0,0.0,0.9331636428833008,2.342190980911255,5.5640716552734375,-168.9044647216797,0
337.0020000000004,-0.029192661866545677,-0.027432436123490334,0.0011649057269096375,0.0,0.0,0.0,0.0,0.0022120140492916107,0.001058704685419798,-0.0026053304318338633,0.9983997344970703,0.0,0.0,0.0,0.9333235025405884,2.345521926879883,5.553117752075195,-168.93341064453125,0
346.91100000000006,-0.029230723157525063,-0.027435466647148132,0.0011843660613521934,0.0,0.0,0.0,0.0,-0.00126871676184237,-0.0039525520987808704,-0.0012440027203410864,0.9970155954360962,0.0,0.0,0.0,0.9318529963493347,2.3402435779571533,5.541526794433594,-168.667236328125,0
356.8259999999991,-0.02927507273852825,-0.027440223842859268,0.001203637570142746,0.0,0.0,0.0,0.0,0.0026040065567940474,-0.0005662921466864645,-0.0031930175609886646,1.001299262046814,0.0,0.0,0.0,0.9318749904632568,2.3401546478271484,5.538599491119385,-168.6712188720703,0
366.7379999999994,-0.02931622602045536,-0.027445726096630096,0.0012201534118503332,0.0,0.0,0.0,0.0,-0.00017565723101142794,-0.0059495349414646626,0.002894447185099125,0.9994984865188599,0.0,0.0,0.0,0.9303650856018066,2.3341827392578125,5.533825397491455,-168.39793395996094,0
376.646999999999,-0.029358211904764175,-0.027451571077108383,0.0012372347991913557,0.0,0.0,0.0,0.0,-0.0016698220279067755,-0.005169590003788471,0.0014117445098236203,0.9997438192367554,0.0,0.0,0.0,0.9306102395057678,2.3304808139801025,5.530107498168945,-168.4423065185547,0
386.5570000000007,-0.029402606189250946,-0.027457425370812416,0.0012544600758701563,0.0,0.0,0.0,0.0,0.000804558745585382,0.000820012588519603,-0.003883276367560029,0.9989622235298157,0.0,0.0,0.0,0.9289559125900269,2.332878828048706,5.533901214599609,-168.1428680419922,0
396.47099999999955,-0.029449468478560448,-0.027464039623737335,0.0012711791787296534,0.0,0.0,0.0,0.0,0.0013818941079080105,-0.0027866323944181204,0.0012550518149510026,1.0008667707443237,0.0,0.0,0.0,0.927004873752594,2.3278698921203613,5.521344184875488,-167.78973388671875,0
406.378999999999,-0.02949775569140911,-0.027471311390399933,0.0012877515982836485,0.0,0.0,0.0,0.0,0.001321626827120781,0.0015788991004228592,-0.004415364470332861,1.0005074739456177,0.0,0.0,0.0,0.9261966347694397,2.3267951011657715,5.523353576660156,-167.64341735839844,0
416.29899999999907,-0.02954730950295925,-0.027479253709316254,0.001305233221501112,0.0,0.0,0.0,0.0,0.002333334181457758,-0.00024484176537953317,0.0009769361931830645,0.9992143511772156,0.0,0.0,0.0,0.9238536953926086,2.3196141719818115,5.510239601135254,-167.21934509277344,0
426.20600000000013,-0.02959902212023735,-0.0274885855615139,0.001323131611570716,0.0,0.0,0.0,0.0,-0.0001604284334462136,0.0005250489339232445,-0.0021794531494379044,0.9993504881858826,0.0,0.0,0.0,0.9235610365867615,2.309124708175659,5.50167179107666,-167.1663818359375,0
436.1229999999996,-0.029653463512659073,-0.027499783784151077,0.0013404826167970896,0.0,0.0,0.0,0.0,-0.0005765314563177526,0.004564048256725073,0.0029301289469003677,0.9985958933830261,0.0,0.0,0.0,0.9221590757369995,2.305948495864868,5.48801326751709,-166.9126434326172,0
446.02499999999964,-0.029710015282034874,-0.02751326933503151,0.0013569629518315196,0.0,0.0,0.0,0.0,0.0005095915403217077,0.0019604950211942196,0.0015015139942988753,1.0007264614105225,0.0,0.0,0.0,0.9223424792289734,2.301100492477417,5.471322059631348,-166.94581604003906,0
455.9470000000001,-0.02976941503584385,-0.027529096230864525,0.0013731878716498613,0.0,0.0,0.0,0.0,-0.003024236997589469,-0.002328981412574649,-9.311671601608396e-05,1.0011416673660278,0.0,0.0,0.0,0.9210440516471863,2.292762041091919,5.462845325469971,-166.71080017089844,0
465.85000000000036,-0.02983184903860092,-0.027546655386686325,0.001390301389619708,0.0,0.0,0.0,0.0,0.00040627759881317616,0.003004546044394374,-0.0016054910374805331,0.9994599223136902,0.0,0.0,0.0,0.9197955131530762,2.295593023300171,5.4637579917907715,-166.4848175048828,0
495.59299999999894,-0.030032001435756683,-0.027609776705503464,0.0014429816510528326,0.0,0.0,0.0,0.0,-0.003105252981185913,0.0002672826813068241,-0.00023373750445898622,1.0004688501358032,0.0,0.0,0.0,0.9156349301338196,2.2918214797973633,5.451420307159424,-165.7317352294922,0
505.4989999999998,-0.030102942138910294,-0.027635646983981133,0.00146042974665761,0.0,0.0,0.0,0.0,0.002087473403662443,0.0035190796479582787,-0.002560464898124337,1.001459002494812,0.0,0.0,0.0,0.9155117869377136,2.2922677993774414,5.451921463012695,-165.70945739746094,0
515.4239999999991,-0.030176326632499695,-0.02766338735818863,0.0014789189444854856,0.0,0.0,0.0,0.0,-0.00237320177257061,0.001634366693906486,0.0009183173533529043,1.0003911256790161,0.0,0.0,0.0,0.9145709276199341,2.279845952987671,5.431437969207764,-165.53915405273438,0
525.3189999999995,-0.030251404270529747,-0.02769310399889946,0.00149852829053998,0.0,0.0,0.0,0.0,0.004883865360170603,0.0017066228901967406,0.0009668440325185657,1.001175045967102,0.0,0.0,0.0,0.9146475791931152,2.2812976837158203,5.420549392700195,-165.5530242919922,0
535.241,-0.030327819287776947,-0.02772517316043377,0.0015191631391644478,0.0,0.0,0.0,0.0,-0.001875376794487238,-0.002829862991347909,-0.001670963829383254,1.0007739067077637,0.0,0.0,0.0,0.9144078493118286,2.273346424102783,5.409750938415527,-165.5096435546875,0
545.1489999999994,-0.030405990779399872,-0.027758261188864708,0.0015409754123538733,0.0,0.0,0.0,0.0,0.0022144322283566,0.0011867262655869126,-8.71425072546117e-05,0.9988701939582825,0.0,0.0,0.0,0.9135102033615112,2.2744667530059814,5.405153751373291,-165.34716796875,0
555.0709999999999,-0.03048623912036419,-0.027790898457169533,0.0015628394903615117,0.0,0.0,0.0,0.0,-0.0020776293240487576,0.00257847155444324,-0.0016858625458553433,0.9992409348487854,0.0,0.0,0.0,0.9132876992225647,2.2678937911987305,5.39933443069458,-165.306884765625,0
564.9670000000006,-0.03056795336306095,-0.027823559939861298,0.0015839512925595045,0.0,0.0,0.0,0.0,0.0012399189872667193,-0.004377870820462704,0.0012920397566631436,1.0004483461380005,0.0,0.0,0.0,0.9124190807342529,2.273773431777954,5.393388271331787,-165.14968872070312,0
574.8780000000006,-0.03065091371536255,-0.027857229113578796,0.0016049044206738472,0.0,0.0,0.0,0.0,0.0022557098418474197,-0.0001362411567242816,-0.0011260861065238714,1.0002621412277222,0.0,0.0,0.0,0.9123647809028625,2.270340919494629,5.394079208374023,-165.1398468017578,0
584.7880000000005,-0.030736815184354782,-0.02789234183728695,0.0016264350851997733,0.0,0.0,0.0,0.0,0.0009728539153002203,0.0009148365934379399,2.1454778106999584e-05,0.9978492856025696,0.0,0.0,0.0,0.9117065072059631,2.2649521827697754,5.380171775817871,-165.02069091796875,0
594.7080000000005,-0.03082609735429287,-0.027928868308663368,0.0016476609744131565,0.0,0.0,0.0,0.0,-0.0013608328299596906,0.0021316194906830788,0.0023376222234219313,0.9987607598304749,0.0,0.0,0.0,0.9100625514984131,2.258058547973633,5.3717756271362305,-164.72312927246094,0
604.6119999999992,-0.030024219304323196,-0.02716664969921112,7.003687642281875e-05,0.0,0.0,0.0,0.0,-0.0014858606737107038,-0.0015800705878064036,0.0008652910473756492,1.0011653900146484,0.0,0.0,0.0,0.9208003878593445,2.3587112426757812,5.499117374420166,-166.6667022705078,0
654.1849999999995,-0.03034602664411068,-0.027238115668296814,-6.266075797611848e-05,0.0,0.0,0.0,0.0,0.0012365835718810558,0.0009159194305539131,-0.0011383560486137867,1.0024465322494507,0.0,0.0,0.0,0.9170876145362854,2.3473877906799316,5.45290470123291,-165.99468994140625,0
664.0859999999993,-0.030415263026952744,-0.027251852676272392,-8.609088399680331e-05,0.0,0.0,0.0,0.0,-0.0009695907356217504,0.0006333407363854349,-0.0004041879146825522,1.0016756057739258,0.0,0.0,0.0,0.9162506461143494,2.342571258544922,5.445554256439209,-165.8431854248047,0
674.0149999999994,-0.03048633225262165,-0.027264773845672607,-0.00010757303243735805,0.0,0.0,0.0,0.0,-0.002196364104747772,0.004113792907446623,0.0003767746384255588,0.9987818598747253,0.0,0.0,0.0,0.9163609743118286,2.345194101333618,5.443709850311279,-165.8631591796875,0
683.9159999999993,-0.030559172853827477,-0.027277803048491478,-0.00012825036537833512,0.0,0.0,0.0,0.0,-0.00046583637595176697,-0.0002346207620576024,0.0016090585850179195,0.9981105923652649,0.0,0.0,0.0,0.9160597920417786,2.342949151992798,5.430944442749023,-165.8086395263672,0
693.8369999999995,-0.03041253052651882,-0.027074091136455536,-0.0003732156765181571,0.0,0.0,0.0,0.0,0.0017458464717492461,0.006635715253651142,-0.0011759550543501973,0.9995917081832886,0.0,0.0,0.0,0.9305118322372437,2.395669937133789,5.47755241394043,-168.4244842529297,0
703.7399999999998,-0.030478347092866898,-0.02707804925739765,-0.00040773133514449,0.0,0.0,0.0,0.0,-0.00011067737068515271,-0.0011598931159824133,-0.0024361880496144295,0.9994590878486633,0.0,0.0,0.0,0.9288914799690247,2.390122175216675,5.460789680480957,-168.13121032714844,0
713.6679999999997,-0.030501294881105423,-0.02701794169843197,-0.00048553087981417775,0.0,0.0,0.0,0.0,-0.0006738670053891838,0.0008293558494187891,0.0007885703817009926,1.000312328338623,0.0,0.0,0.0,0.9439555406570435,2.405876874923706,5.462813854217529,-170.8578338623047,0
723.5630000000001,-0.030566073954105377,-0.027021432295441628,-0.0005233640549704432,0.0,0.0,0.0,0.0,-2.76199534710031e-06,0.0010447044624015689,0.0015882925363257527,1.0001262426376343,0.0,0.0,0.0,0.9432463049888611,2.4046738147735596,5.453465938568115,-170.72947692871094,0
733.4869999999992,-0.03059828281402588,-0.02701820433139801,-0.0006238693604245782,0.0,0.0,0.0,0.0,0.0007321019656956196,0.002677744021639228,-0.004265035968273878,1.0000684261322021,0.0,0.0,0.0,0.9433374404907227,2.4018213748931885,5.442995548248291,-170.74595642089844,0
743.3850000000002,-0.030663812533020973,-0.027021562680602074,-0.0006650086143054068,0.0,0.0,0.0,0.0,0.001054069260135293,0.0027308999560773373,-0.0007571887108497322,1.0004442930221558,0.0,0.0,0.0,0.9416433572769165,2.395191192626953,5.434960842132568,-170.43931579589844,0
753.3089999999993,-0.030753707513213158,-0.027018632739782333,-0.0007109216530807316,0.0,0.0,0.0,0.0,-0.00027523006428964436,-0.00252165668644011,0.0004040792991872877,1.0012701749801636,0.0,0.0,0.0,0.9558485150337219,2.399014472961426,5.4182939529418945,-173.01048278808594,0
763.2080000000005,-0.030820591375231743,-0.027024444192647934,-0.0007503735250793397,0.0,0.0,0.0,0.0,-0.0018497389974072576,-0.0020385116804391146,-5.157534178579226e-05,0.9994378685951233,0.0,0.0,0.0,0.9552603960037231,2.402682065963745,5.4180169105529785,-172.90403747558594,0
773.128999999999,-0.030906235799193382,-0.02699759043753147,-0.0007930301944725215,0.0,0.0,0.0,0.0,0.0002548697520978749,-9.147800301434472e-05,0.0032205008901655674,0.9996443390846252,0.0,0.0,0.0,0.9709034562110901,2.4172754287719727,5.422608852386475,-175.73545837402344,0
802.848,-0.02898099645972252,-0.027480926364660263,0.0010139531223103404,0.0,0.0,0.0,0.0,-0.002036981051787734,0.004341912921518087,-0.0016095712780952454,1.001542329788208,0.0,0.0,0.0,0.9473344087600708,2.3787038326263428,5.594462871551514,-171.4694061279297,0
812.768,-0.02896680124104023,-0.027487274259328842,0.0009628437110222876,0.0,0.0,0.0,0.0,0.003026521299034357,0.001552237430587411,-0.0008083410793915391,0.9985052943229675,0.0,0.0,0.0,0.9577232003211975,2.379657030105591,5.597064018249512,-173.3498077392578,0
822.6700000000001,-0.0289860051125288,-0.027499394491314888,0.0009686219855211675,0.0,0.0,0.0,0.0,-0.0024811953771859407,0.0006299691158346832,0.002514553489163518,0.9990832805633545,0.0,0.0,0.0,0.9571388959884644,2.3693649768829346,5.5767340660095215,-173.24403381347656,0
832.601999999999,-0.028973940759897232,-0.02749481610953808,0.000913115858566016,0.0,0.0,0.0,0.0,0.0002909292234107852,-0.0011399867944419384,-0.0009749381570145488,1.000643253326416,0.0,0.0,0.0,0.9685081839561462,2.370110511779785,5.577507972717285,-175.30191040039062,0
842.4989999999998,-0.02899426408112049,-0.02750634402036667,0.0009131656843237579,0.0,0.0,0.0,0.0,0.00042190213571302593,0.0014222175814211369,0.0023645502515137196,1.0004802942276,0.0,0.0,0.0,0.9668774604797363,2.361274480819702,5.5808916091918945,-175.0067596435547,0
852.4189999999999,-0.028966093435883522,-0.02741110883653164,0.0008420257363468409,0.0,0.0,0.0,0.0,-0.001232754671946168,0.0013791256351396441,-0.0006381088751368225,0.9981839060783386,0.0,0.0,0.0,0.9773209095001221,2.379673957824707,5.593378067016602,-176.8970184326172,0
862.3289999999997,-0.02898610383272171,-0.027419330552220345,0.0008368570124730468,0.0,0.0,0.0,0.0,0.001372995669953525,0.0028531181160360575,-0.0005950760678388178,1.0001806020736694,0.0,0.0,0.0,0.9764009714126587,2.379615545272827,5.579232692718506,-176.73052978515625,0
872.2420000000002,-0.02899356558918953,-0.027406468987464905,0.0007978826761245728,0.0,0.0,0.0,0.0,-0.0022298770491033792,-0.003275002120062709,-0.0005356509354896843,0.9995065927505493,0.0,0.0,0.0,0.9864373207092285,2.3847620487213135,5.570163726806641,-178.54710388183594,0
882.1409999999996,-0.029016168788075447,-0.02741682529449463,0.0007892000721767545,0.0,0.0,0.0,0.0,0.0003793284413404763,0.00034717441303655505,0.0011127826292067766,0.9982534050941467,0.0,0.0,0.0,0.9865128993988037,2.3914759159088135,5.575854301452637,-178.56080627441406,0
892.0619999999999,-0.029011616483330727,-0.02740533836185932,0.0007033768342807889,0.0,0.0,0.0,0.0,0.0038050052244216204,0.0007215784280560911,0.0014309091493487358,0.9992837905883789,0.0,0.0,0.0,0.9985635876655579,2.3948259353637695,5.582137584686279,-180.7419891357422,0
901.9639999999999,-0.029033537954092026,-0.027415134012699127,0.0006870846264064312,0.0,0.0,0.0,0.0,0.0017027598805725574,0.0022445865906774998,0.00210330612026155,0.9976657032966614,0.0,0.0,0.0,0.9979724287986755,2.3858132362365723,5.573666095733643,-180.63499450683594,0
911.884,-0.029034439474344254,-0.02740231715142727,0.0006087165093049407,0.0,0.0,0.0,0.0,0.0006153577123768628,0.0012086248025298119,-1.762271858751774e-05,0.9979889988899231,0.0,0.0,0.0,1.0042113065719604,2.388643264770508,5.571374893188477,-181.76425170898438,0
961.4339999999993,-0.028908509761095047,-0.02742437645792961,0.0007413773564621806,0.0,0.0,0.0,0.0,-0.002219889545813203,0.00444446736946702,-0.0024356371723115444,1.001333236694336,0.0,0.0,0.0,0.9712607264518738,2.3948264122009277,5.600191116333008,-175.80010986328125,0
971.3549999999996,-0.028957081958651543,-0.027470991015434265,0.0007741666049696505,0.0,0.0,0.0,0.0,0.0016258415998890996,-0.002474662847816944,-0.002480482216924429,1.0007061958312988,0.0,0.0,0.0,0.9773222208023071,2.3868513107299805,5.580848693847656,-176.89727783203125,0
981.2559999999994,-0.028982574120163918,-0.027483772486448288,0.0007639448158442974,0.0,0.0,0.0,0.0,0.0023814646992832422,0.0016021388582885265,-0.0028332099318504333,1.000117540359497,0.0,0.0,0.0,0.9760211706161499,2.3820271492004395,5.579905986785889,-176.66177368164062,0
991.1829999999991,-0.029040034860372543,-0.0275353342294693,0.0008177874842658639,0.0,0.0,0.0,0.0,0.0025080209597945213,0.00442505581304431,-0.00693135941401124,0.9992550015449524,0.0,0.0,0.0,0.9833541512489319,2.363858938217163,5.547494411468506,-177.98907470703125,0
1001.0859999999993,-0.02907138504087925,-0.02754952572286129,0.0008133150404319167,0.0,0.0,0.0,0.0,0.00013760091678705066,-0.0018217642791569233,-0.0014104553265497088,0.9998065829277039,0.0,0.0,0.0,0.9810109734535217,2.3579983711242676,5.534757614135742,-177.56494140625,0
1011.0139999999992,-0.02910103090107441,-0.027526209130883217,0.0008143666200339794,0.0,0.0,0.0,0.0,-0.0006454808171838522,0.001455758698284626,-0.0007796952850185335,0.9990243315696716,0.0,0.0,0.0,0.9883222579956055,2.363887310028076,5.54404354095459,-178.8883056640625,0
1020.9089999999997,-0.029001234099268913,-0.027426915243268013,0.001018216833472252,0.0,0.0,0.0,0.0,0.0009829532355070114,-0.002266703872010112,0.0015323598636314273,1.000332236289978,0.0,0.0,0.0,0.9677245020866394,2.388253927230835,5.5650105476379395,-175.16006469726562,0
1030.825999999999,-0.02898559346795082,-0.027428114786744118,0.0009539220482110977,0.0,0.0,0.0,0.0,0.0008984948508441448,0.003540649777278304,-0.0018103320617228746,1.0008822679519653,0.0,0.0,0.0,0.9657098054885864,2.3887341022491455,5.5638861656188965,-174.79541015625,0
1040.7279999999992,-0.029015740379691124,-0.02743922360241413,0.0009577780147083104,0.0,0.0,0.0,0.0,-0.0015129420207813382,-0.0024358127266168594,-0.0020713796839118004,1.0023622512817383,0.0,0.0,0.0,0.9646125435829163,2.39037823677063,5.555258274078369,-174.59678649902344,0
1050.646999999999,-0.029008883982896805,-0.02743491530418396,0.0009031488443724811,0.0,0.0,0.0,0.0,0.003347506048157811,0.0010339139262214303,-0.00036707919207401574,1.0021475553512573,0.0,0.0,0.0,0.9625971913337708,2.3881020545959473,5.545432090759277,-174.2320098876953,0
1060.5550000000003,-0.029039952903985977,-0.027447426691651344,0.0009058551513589919,0.0,0.0,0.0,0.0,0.0006813390064053237,0.0005845050909556448,0.000442608812591061,1.0006020069122314,0.0,0.0,0.0,0.9613382816314697,2.3806958198547363,5.537284851074219,-174.004150390625,0
1070.4750000000004,-0.029041439294815063,-0.027418116107583046,0.000858975516166538,0.0,0.0,0.0,0.0,0.002299327403306961,0.0009179127519018948,0.0027182484045624733,0.9989141821861267,0.0,0.0,0.0,0.9473398327827454,2.3878588676452637,5.546448707580566,-171.4703826904297,0
1080.375,-0.029074370861053467,-0.027429550886154175,0.0008596731349825859,0.0,0.0,0.0,0.0,-0.0016247726744040847,0.0013643098063766956,0.0024248710833489895,0.9975132346153259,0.0,0.0,0.0,0.9473096132278442,2.3831934928894043,5.5314507484436035,-171.4649200439453,0
1090.2919999999995,-0.02907901257276535,-0.027390779927372932,0.0008016109932214022,0.0,0.0,0.0,0.0,0.0008554428932256997,-0.0036380356177687645,0.004045476671308279,1.0011118650436401,0.0,0.0,0.0,0.9413215517997742,2.394009828567505,5.53591251373291,-170.38107299804688,0
1100.2129999999997,-0.02911284752190113,-0.027398070320487022,0.0007952338783070445,0.0,0.0,0.0,0.0,-0.00276763504371047,0.001094469684176147,0.0012840876588597894,1.0020747184753418,0.0,0.0,0.0,0.9414362907409668,2.3919622898101807,5.533866882324219,-170.40184020996094,0
1110.1170000000002,-0.029131634160876274,-0.027399329468607903,0.0007408590754494071,0.0,0.0,0.0,0.0,0.00022236288350541145,-0.0037118650507181883,0.0039450800977647305,0.9988101720809937,0.0,0.0,0.0,0.9410258531570435,2.384140968322754,5.529313564300537,-170.32754516601562,0
1120.0239999999994,-0.02916863188147545,-0.02740686945617199,0.0007325428887270391,0.0,0.0,0.0,0.0,0.000748479797039181,-0.0013090564170852304,-0.00317359552718699,0.998518705368042,0.0,0.0,0.0,0.93895024061203,2.3851523399353027,5.530930995941162,-169.9518585205078,0
1129.950999999999,-0.02919185161590576,-0.027384014800190926,0.0006915094563737512,0.0,0.0,0.0,0.0,0.0033691786229610443,0.00510095339268446,-0.0010603427654132247,1.0000697374343872,0.0,0.0,0.0,0.9475234746932983,2.391521692276001,5.540619373321533,-171.50363159179688,0
1139.8559999999998,-0.02922995761036873,-0.027391521260142326,0.0006789352046325803,0.0,0.0,0.0,0.0,0.0023496912326663733,0.0011152992956340313,-0.00043472720426507294,0.9977642297744751,0.0,0.0,0.0,0.9475258588790894,2.3861186504364014,5.530341625213623,-171.50405883789062,0
1149.7569999999996,-0.029251379892230034,-0.027364423498511314,0.0006259260699152946,0.0,0.0,0.0,0.0,-0.0003636186884250492,0.0048872861079871655,-0.003065536729991436,1.0009828805923462,0.0,0.0,0.0,0.9567223787307739,2.3937010765075684,5.532645225524902,-173.1686553955078,0
1159.687,-0.029290873557329178,-0.027371874079108238,0.000608498346991837,0.0,0.0,0.0,0.0,-0.0005699187167920172,-0.0012635543243959546,0.0007098266505636275,1.0013983249664307,0.0,0.0,0.0,0.9557732939720154,2.39460825920105,5.522153854370117,-172.99685668945312,0
1169.5789999999997,-0.029313938692212105,-0.027346696704626083,0.0005568543565459549,0.0,0.0,0.0,0.0,-0.0009819165570661426,0.0002481526171322912,0.0033657767344266176,0.998974621295929,0.0,0.0,0.0,0.9661003351211548,2.40444016456604,5.531274795532227,-174.8660888671875,0
1179.5059999999994,-0.02935529686510563,-0.0273539200425148,0.0005384613759815693,0.0,0.0,0.0,0.0,0.0014034492196515203,-0.00041184661677107215,0.0034601381048560143,1.0009773969650269,0.0,0.0,0.0,0.9654500484466553,2.402899742126465,5.52382755279541,-174.74838256835938,0
1189.4030000000002,-0.029384879395365715,-0.027332797646522522,0.0004957459168508649,0.0,0.0,0.0,0.0,0.0022217880468815565,0.0006481658201664686,0.005136147607117891,0.9996335506439209,0.0,0.0,0.0,0.9736238718032837,2.407060146331787,5.521229267120361,-176.22787475585938,0
1199.3220000000001,-0.029427310451865196,-0.02733873948454857,0.00047621442354284227,0.0,0.0,0.0,0.0,0.004184798337519169,0.004793001338839531,0.002077630488201976,0.9995211362838745,0.0,0.0,0.0,0.9741955995559692,2.4037113189697266,5.512540340423584,-176.3313446044922,0
1209.232,-0.02947155199944973,-0.027350550517439842,0.00044892600271850824,0.0,0.0,0.0,0.0,-0.0010808072984218597,0.001432483084499836,-0.00568019412457943,0.9980669617652893,0.0,0.0,0.0,0.9805935621261597,2.391239643096924,5.49658203125,-177.48939514160156,0
1219.1460000000006,-0.029517019167542458,-0.02735721692442894,0.0004280507273506373,0.0,0.0,0.0,0.0,-0.0006878257263451815,-0.00030192662961781025,-0.0008817546768113971,0.9998262524604797,0.0,0.0,0.0,0.9787692427635193,2.3876454830169678,5.486112594604492,-177.1591796875,0
1229.048999999999,-0.02956421673297882,-0.027346355840563774,0.00040601464570499957,0.0,0.0,0.0,0.0,0.0017411260632798076,0.00024593801936134696,2.0438303181435913e-05,0.9983067512512207,0.0,0.0,0.0,0.984639048576355,2.3912994861602783,5.4804558753967285,-178.22161865234375,0
1238.9719999999998,-0.029615500941872597,-0.02735334448516369,0.00038341121398843825,0.0,0.0,0.0,0.0,-0.0008020621025934815,0.001854972681030631,0.000842777022626251,1.0012568235397339,0.0,0.0,0.0,0.9847018122673035,2.3857502937316895,5.470821380615234,-178.2329864501953,0
1248.8760000000002,-0.029639096930623055,-0.027345115318894386,0.0003063227341044694,0.0,0.0,0.0,0.0,-0.000258607673458755,0.0017314389115199447,-0.0005807679845020175,1.002021074295044,0.0,0.0,0.0,0.9929981231689453,2.391432762145996,5.4823808670043945,-179.73463439941406,0
1258.7919999999995,-0.029693758115172386,-0.027350779622793198,0.00027976534329354763,0.0,0.0,0.0,0.0,0.001981482608243823,0.0016074698651209474,-0.002329170471057296,1.0009756088256836,0.0,0.0,0.0,0.9913948774337769,2.392425537109375,5.461533069610596,-179.44444274902344,0
1268.6970000000001,-0.029714122414588928,-0.027306893840432167,0.00021445109450723976,0.0,0.0,0.0,0.0,0.00045483000576496124,0.005382537376135588,-3.426239709369838e-05,1.001240849494934,0.0,0.0,0.0,0.9905809760093689,2.3896901607513428,5.447143077850342,-179.297119140625,0
1278.619999999999,-0.029768506065011024,-0.02730913832783699,0.00018728578288573772,0.0,0.0,0.0,0.0,-0.0003324629506096244,0.0008402709499932826,0.000997518771328032,1.000487208366394,0.0,0.0,0.0,0.9893114566802979,2.3917627334594727,5.436758995056152,-179.0673370361328,0
1288.527,-0.029796943068504333,-0.027283281087875366,0.00012070756929460913,0.0,0.0,0.0,0.0,-0.0016801566816866398,-0.0005030642496421933,0.004574993625283241,1.0012173652648926,0.0,0.0,0.0,0.9883807301521301,2.389763593673706,5.423825263977051,-178.8988800048828,0
1298.4400000000005,-0.029854396358132362,-0.027285609394311905,9.256125485990196e-05,0.0,0.0,0.0,0.0,-0.0017537374515086412,0.0002531350473873317,-0.0033103807363659143,0.9980564713478088,0.0,0.0,0.0,0.9884480834007263,2.3862149715423584,5.416080951690674,-178.9110870361328,0
1308.3420000000006,-0.029891882091760635,-0.027240341529250145,4.723165329778567e-05,0.0,0.0,0.0,0.0,-0.000497737608384341,0.0026183640584349632,0.0016540777869522572,0.9988225102424622,0.0,0.0,0.0,0.9977366924285889,2.4075558185577393,5.421045780181885,-180.5923309326172,0
1318.2659999999996,-0.029951931908726692,-0.027240073308348656,1.6983460227493197e-05,0.0,0.0,0.0,0.0,0.001159962615929544,0.0010076719336211681,0.0019676927477121353,0.9988568425178528,0.0,0.0,0.0,0.9983935356140137,2.403411865234375,5.412026405334473,-180.71121215820312,0
1328.1730000000007,-0.029986562207341194,-0.027194317430257797,-5.386903285398148e-05,0.0,0.0,0.0,0.0,-0.0032832794822752476,0.00018605975492391735,-0.00036963436286896467,1.0007929801940918,0.0,0.0,0.0,0.997179388999939,2.391899585723877,5.402305603027344,-180.491455078125,0
1338.0859999999993,-0.030048204585909843,-0.02718987688422203,-8.893630001693964e-05,0.0,0.0,0.0,0.0,0.00035030851722694933,0.0009398146066814661,-0.0005406218697316945,0.9990390539169312,0.0,0.0,0.0,0.9962510466575623,2.391947031021118,5.39117956161499,-180.32342529296875,0
1347.9959999999992,-0.03009508177638054,-0.027171095833182335,-0.0001543917169328779,0.0,0.0,0.0,0.0,-0.0024731536395847797,0.0017879604129120708,-0.00025692585040815175,1.0000765323638916,0.0,0.0,0.0,0.9881493449211121,2.3963043689727783,5.386646270751953,-178.85699462890625,0
1357.9159999999993,-0.03015889599919319,-0.027167534455657005,-0.0001923794043250382,0.0,0.0,0.0,0.0,-0.002522400114685297,-0.0056990389712154865,0.000985202845185995,0.999708354473114,0.0,0.0,0.0,0.9868929982185364,2.395735502243042,5.384307384490967,-178.6295928955078,0
1367.816999999999,-0.03020883910357952,-0.02716648019850254,-0.0002637811121530831,0.0,0.0,0.0,0.0,0.002843933179974556,0.00328501733019948,0.0005284861545078456,0.9990324378013611,0.0,0.0,0.0,0.9978803396224976,2.390286922454834,5.384289264678955,-180.6183319091797,0
1377.7389999999996,-0.03027685359120369,-0.027165474370121956,-0.0003047887294087559,0.0,0.0,0.0,0.0,-0.000631366390734911,-0.0005196680431254208,-0.0012341062538325787,1.0021268129348755,0.0,0.0,0.0,0.9964393973350525,2.3876891136169434,5.374695777893066,-180.35751342773438,0
1387.6479999999992,-0.030327828601002693,-0.02714994177222252,-0.00037407560739666224,0.0,0.0,0.0,0.0,0.00018853828078135848,-0.0015191772254183888,0.0014697224833071232,1.0018260478973389,0.0,0.0,0.0,1.0008289813995361,2.3980884552001953,5.373115062713623,-181.15203857421875,0
1397.5560000000005,-0.03039730340242386,-0.027148647233843803,-0.00041594734648242593,0.0,0.0,0.0,0.0,-0.0012089668307453394,0.0007503379019908607,0.0011694097192957997,1.0022717714309692,0.0,0.0,0.0,1.000794529914856,2.3976659774780273,5.369011402130127,-181.1457977294922,0
1407.4599999999991,-0.030447091907262802,-0.027102675288915634,-0.0004786525387316942,0.0,0.0,0.0,0.0,0.0010087002301588655,0.0006444406462833285,-0.002801115857437253,1.0002878904342651,0.0,0.0,0.0,1.0017274618148804,2.393691062927246,5.362703800201416,-181.3146514892578,0
1417.3819999999996,-0.030518589541316032,-0.027099058032035828,-0.0005187829374335706,0.0,0.0,0.0,0.0,-2.0087578377570026e-05,-0.000333700590999797,-0.0003521750622894615,1.0000922679901123,0.0,0.0,0.0,0.9999796748161316,2.390289545059204,5.3549065589904785,-180.99830627441406,0
1427.289999999999,-0.030570948496460915,-0.027051175013184547,-0.0005871771718375385,0.0,0.0,0.0,0.0,0.0018640757771208882,0.0011553415097296238,0.0003798348770942539,1.0003793239593506,0.0,0.0,0.0,0.9929063320159912,2.408890724182129,5.360835552215576,-179.71803283691406,0
1437.2060000000001,-0.028900666162371635,-0.027437938377261162,0.0009767815936356783,0.0,0.0,0.0,0.0,-0.0010298137785866857,0.002085748827084899,-0.0009308729786425829,1.000970482826233,0.0,0.0,0.0,0.9738295078277588,2.370788335800171,5.541676044464111,-176.26507568359375,0
1447.110999999999,-0.02890922874212265,-0.027462918311357498,0.0009391097701154649,0.0,0.0,0.0,0.0,0.0009604355436749756,0.0036380458623170853,0.0009763474809005857,1.0019103288650513,0.0,0.0,0.0,0.9794272780418396,2.372249126434326,5.540558815002441,-177.2782745361328,0
1457.0329999999994,-0.02885587513446808,-0.027390131726861,0.0010363614419475198,0.0,0.0,0.0,0.0,0.0026315494906157255,-0.0014057374792173505,-0.001671666745096445,1.0012977123260498,0.0,0.0,0.0,0.9609317779541016,2.3803329467773438,5.535444736480713,-173.93057250976562,0
1466.9390000000003,-0.028851555660367012,-0.027413753792643547,0.000993244000710547,0.0,0.0,0.0,0.0,-0.0021765364799648523,-0.005920845083892345,-0.0001931719743879512,1.0018441677093506,0.0,0.0,0.0,0.9591186046600342,2.375286340713501,5.531584739685059,-173.6023712158203,0
1476.851999999999,-0.028876762837171555,-0.027424385771155357,0.0010035710874944925,0.0,0.0,0.0,0.0,-0.0001957305648829788,0.00010998169454978779,-0.001139096450060606,1.002779483795166,0.0,0.0,0.0,0.958001971244812,2.3665988445281982,5.531034469604492,-173.40028381347656,0
1486.7569999999996,-0.028872717171907425,-0.02742496319115162,0.0009787078015506268,0.0,0.0,0.0,0.0,0.0004511622537393123,0.0028697610832750797,-0.0008516943198628724,1.0027351379394531,0.0,0.0,0.0,0.9572201371192932,2.367387294769287,5.5242791175842285,-173.2587432861328,0
1496.679,-0.02889755368232727,-0.027438146993517876,0.0009912841487675905,0.0,0.0,0.0,0.0,-0.0025851086247712374,-0.005527826026082039,0.001106270239688456,0.9998182654380798,0.0,0.0,0.0,0.956667959690094,2.3636083602905273,5.5181355476379395,-173.15879821777344,0
1506.5810000000001,-0.02890094742178917,-0.027435028925538063,0.0009663903620094061,0.0,0.0,0.0,0.0,0.001898161950521171,0.002700003795325756,0.00031556145404465497,0.9984612464904785,0.0,0.0,0.0,0.9667478203773499,2.3680756092071533,5.524667263031006,-174.98329162597656,0
1516.5069999999996,-0.028928562998771667,-0.027446800842881203,0.000977813731878996,0.0,0.0,0.0,0.0,0.0016819180455058813,0.0005597857525572181,0.00048643245827406645,1.0005710124969482,0.0,0.0,0.0,0.9664381742477417,2.3670992851257324,5.522339820861816,-174.92723083496094,0
1526.3989999999994,-0.028947869315743446,-0.027453944087028503,0.0009611825807951391,0.0,0.0,0.0,0.0,-0.0004539577930700034,-0.001644864329136908,-0.0016439474420621991,1.0018953084945679,0.0,0.0,0.0,0.9718339443206787,2.3603310585021973,5.52223014831543,-175.9038848876953,0
1536.3320000000003,-0.02897847257554531,-0.027297915890812874,0.0010775926057249308,0.0,0.0,0.0,0.0,0.0025565752293914557,0.0010794567642733455,-0.0010294028325006366,1.0012775659561157,0.0,0.0,0.0,0.9713317155838013,2.35679030418396,5.5233917236328125,-175.81295776367188,0
1546.2299999999996,-0.02897743694484234,-0.027320612221956253,0.0010343851754441857,0.0,0.0,0.0,0.0,-7.96283784438856e-05,-0.002712744288146496,0.0008621309534646571,0.9997097849845886,0.0,0.0,0.0,0.9786085486412048,2.3459584712982178,5.523799419403076,-177.13009643554688,0
1556.1419999999998,-0.029010027647018433,-0.027334554120898247,0.0010500123025849462,0.0,0.0,0.0,0.0,-0.0007514466415159404,-0.004529798869043589,-0.002670894144102931,0.9984406232833862,0.0,0.0,0.0,0.9785166382789612,2.343639850616455,5.525326251983643,-177.1134490966797,0
1566.0529999999999,-0.029011065140366554,-0.027384545654058456,0.0009914352558553219,0.0,0.0,0.0,0.0,0.0016081308713182807,0.0015022183069959283,0.0033336563501507044,1.0006530284881592,0.0,0.0,0.0,0.9840801358222961,2.3396120071411133,5.540984630584717,-178.12045288085938,0
1575.9660000000003,-0.029045894742012024,-0.027401229366660118,0.0010013427818194032,0.0,0.0,0.0,0.0,0.0031725463923066854,0.003935950808227062,0.0032506154384464025,1.0000773668289185,0.0,0.0,0.0,0.9834886193275452,2.334084987640381,5.53806209564209,-178.01339721679688,0
1585.875,-0.02904629521071911,-0.027397189289331436,0.0009464777540415525,0.0,0.0,0.0,0.0,-0.0022547252010554075,0.00014358831685967743,0.0003337549860589206,1.0015571117401123,0.0,0.0,0.0,0.9891265034675598,2.3333988189697266,5.534310340881348,-179.0338592529297,0
1595.7909999999993,-0.029080625623464584,-0.027415072545409203,0.0009528569062240422,0.0,0.0,0.0,0.0,0.0019379440927878022,-0.001923724077641964,0.0012901682639494538,1.000390887260437,0.0,0.0,0.0,0.9888148903846741,2.3344783782958984,5.521146297454834,-178.9774627685547,0
1605.6949999999997,-0.02908938191831112,-0.027382057160139084,0.0009151215781457722,0.0,0.0,0.0,0.0,-0.0015747027937322855,0.0014182463055476546,0.0006410018540918827,0.9992307424545288,0.0,0.0,0.0,0.993975818157196,2.3412554264068604,5.536402702331543,-179.91159057617188,0
1615.6209999999992,-0.029123719781637192,-0.02739720419049263,0.0009194467565976083,0.0,0.0,0.0,0.0,0.002016271697357297,0.0004396457807160914,0.002650980604812503,0.9999516606330872,0.0,0.0,0.0,0.9929443597793579,2.3426709175109863,5.527514934539795,-179.72491455078125,0
1625.5159999999996,-0.02913263998925686,-0.027390168979763985,0.0008638017461635172,0.0,0.0,0.0,0.0,-0.002456279704347253,0.001638547983020544,-0.0006362252170220017,0.9990458488464355,0.0,0.0,0.0,1.0031582117080688,2.3422353267669678,5.532991409301758,-181.57362365722656,0
1635.4400000000005,-0.029165251180529594,-0.02740471251308918,0.0008635453414171934,0.0,0.0,0.0,0.0,0.000836635532323271,-0.001178450882434845,0.00015363247075583786,1.0011390447616577,0.0,0.0,0.0,1.000916838645935,2.336139678955078,5.524303436279297,-181.16795349121094,0
1645.3459999999995,-0.029170192778110504,-0.027386819943785667,0.0008055923972278833,0.0,0.0,0.0,0.0,0.0018159074243158102,-0.0062862662598490715,0.0016747798072174191,0.9998000264167786,0.0,0.0,0.0,1.0006283521652222,2.3330397605895996,5.529834270477295,-181.11572265625,0
1655.259,-0.02920202724635601,-0.027403531596064568,0.0008020141394808888,0.0,0.0,0.0,0.0,0.0010667762253433466,-0.0040950351394712925,0.000553250836674124,0.9992324113845825,0.0,0.0,0.0,1.0003174543380737,2.3260412216186523,5.540940761566162,-181.0594482421875,0
1665.1640000000007,-0.02920684963464737,-0.027415893971920013,0.0007251658826135099,0.0,0.0,0.0,0.0,-0.003369745798408985,-0.002137958537787199,-0.0001075603868230246,0.9998555183410645,0.0,0.0,0.0,0.9998108148574829,2.3246724605560303,5.550507068634033,-180.96775817871094,0
1675.089,-0.029240550473332405,-0.0274356622248888,0.0007158996304497123,0.0,0.0,0.0,0.0,-0.0013032241258770227,0.004695999436080456,-0.002890615724027157,1.0013047456741333,0.0,0.0,0.0,0.9989192485809326,2.326582193374634,5.545161724090576,-180.80636596679688,0
1684.9899999999998,-0.029265733435750008,-0.027436120435595512,0.0006865168688818812,0.0,0.0,0.0,0.0,-0.0006732548936270177,-0.0062604728154838085,0.004868877585977316,1.0020325183868408,0.0,0.0,0.0,0.9972012639045715,2.3269567489624023,5.5346503257751465,-180.4954071044922,0
1694.9079999999994,-0.029302220791578293,-0.02745833434164524,0.0006782945129089057,0.0,0.0,0.0,0.0,0.0017583477310836315,0.004231346771121025,-0.00017182966985274106,1.001300573348999,0.0,0.0,0.0,0.9965521693229675,2.32731294631958,5.5422821044921875,-180.3779296875,0
1704.813,-0.02932925336062908,-0.02744976431131363,0.0006555534200742841,0.0,0.0,0.0,0.0,0.002669934183359146,0.0024740539956837893,0.00020087420125491917,1.0006771087646484,0.0,0.0,0.0,0.9962460994720459,2.322514533996582,5.527073860168457,-180.32252502441406,0
1714.735999999999,-0.029368018731474876,-0.027469735592603683,0.0006491123931482434,0.0,0.0,0.0,0.0,-0.0006468851934187114,0.0013427422381937504,0.0037142043001949787,0.9986039996147156,0.0,0.0,0.0,0.9957304000854492,2.312171459197998,5.519584655761719,-180.22918701171875,0
1724.634,-0.029390912503004074,-0.027457676827907562,0.0006199997151270509,0.0,0.0,0.0,0.0,-0.0018966118805110455,-0.00044591515325009823,-0.0006292213220149279,0.9992813467979431,0.0,0.0,0.0,1.0020370483398438,2.3206400871276855,5.5186991691589355,-181.37069702148438,0
1734.5560000000005,-0.029432427138090134,-0.027477219700813293,0.0006111640250310302,0.0,0.0,0.0,0.0,-9.813638462219387e-05,-0.0022520702332258224,-0.0021091958042234182,1.00031578540802,0.0,0.0,0.0,1.0010950565338135,2.3176236152648926,5.516798973083496,-181.20021057128906,0
1744.4570000000003,-0.029453611001372337,-0.027468841522932053,0.0005726062809117138,0.0,0.0,0.0,0.0,-0.000585488392971456,-0.0009038445423357189,0.004498729016631842,1.000539779663086,0.0,0.0,0.0,0.9990057349205017,2.3180606365203857,5.509542942047119,-180.822021484375,0
1754.3809999999994,-0.029497778043150902,-0.02749047428369522,0.0005617128917947412,0.0,0.0,0.0,0.0,-0.0009430486243218184,0.00662677688524127,0.00037910061655566096,1.0011667013168335,0.0,0.0,0.0,0.9998593926429749,2.315826892852783,5.5097832679748535,-180.97654724121094,0
1764.2839999999997,-0.029492303729057312,-0.027485501021146774,0.0004802485927939415,0.0,0.0,0.0,0.0,0.00010231742635369301,-0.0005918287206441164,-0.004727154038846493,1.0016200542449951,0.0,0.0,0.0,1.0081498622894287,2.333644151687622,5.509917259216309,-182.47714233398438,0
1774.1939999999995,-0.029005397111177444,-0.027484849095344543,0.0010431099217385054,0.0,0.0,0.0,0.0,-0.0010698472615331411,-0.0018492122180759907,0.00147267896682024,1.0003544092178345,0.0,0.0,0.0,0.9968005418777466,2.3485007286071777,5.591301918029785,-180.42288208007812,0
1784.1119999999992,-0.028969615697860718,-0.02744838409125805,0.0009817208629101515,0.0,0.0,0.0,0.0,-0.0002972693764604628,-0.0010945518733933568,0.0014178885612636805,0.9979352355003357,0.0,0.0,0.0,0.9846307039260864,2.3612401485443115,5.596010684967041,-178.22012329101562,0
1794.0190000000002,-0.02899143286049366,-0.027463873848319054,0.0009889773791655898,0.0,0.0,0.0,0.0,-0.0026646368205547333,-0.0023664713371545076,-0.003071485087275505,0.9974324107170105,0.0,0.0,0.0,0.9845943450927734,2.3548662662506104,5.5921173095703125,-178.21353149414062,0
1803.9339999999993,-0.02897901087999344,-0.02746758610010147,0.0009310146560892463,0.0,0.0,0.0,0.0,0.0012674243189394474,0.004575778730213642,0.0003035340632777661,0.9995798468589783,0.0,0.0,0.0,0.9834800362586975,2.3545639514923096,5.593042373657227,-178.0118408203125,0
1813.8490000000002,-0.02900267392396927,-0.027482394129037857,0.0009303943370468915,0.0,0.0,0.0,0.0,-0.002133116824552417,-0.002298645908012986,-0.0013322491431608796,1.0008972883224487,0.0,0.0,0.0,0.9819148778915405,2.354616165161133,5.590316295623779,-177.7285614013672,0
1823.762999999999,-0.02900189720094204,-0.027428170666098595,0.0008974962402135134,0.0,0.0,0.0,0.0,0.0027737263590097427,0.005380307789891958,-0.006502171047031879,1.0012948513031006,0.0,0.0,0.0,0.9921563267707825,2.3692550659179688,5.593087673187256,-179.58226013183594,0
1833.6810000000005,-0.02889561466872692,-0.027383532375097275,0.0010432845447212458,0.0,0.0,0.0,0.0,-0.000639819132629782,0.005449824966490269,-2.1612486307276413e-05,1.0013333559036255,0.0,0.0,0.0,0.9724557995796204,2.3748905658721924,5.590346813201904,-176.01641845703125,0
1843.5869999999995,-0.02889912575483322,-0.027419470250606537,0.0010013949358835816,0.0,0.0,0.0,0.0,9.380669507663697e-05,-0.0012054594699293375,0.0020537814125418663,0.9991974234580994,0.0,0.0,0.0,0.9719411134719849,2.3701441287994385,5.57699728012085,-175.9232635498047,0
1853.503999999999,-0.028924791142344475,-0.027432069182395935,0.001006830483675003,0.0,0.0,0.0,0.0,0.00014398485654965043,0.006278235465288162,-0.0017777668545022607,1.0024932622909546,0.0,0.0,0.0,0.9710418581962585,2.361618757247925,5.5712199211120605,-175.760498046875,0
1863.4089999999997,-0.028928950428962708,-0.027432141825556755,0.0009806932648643851,0.0,0.0,0.0,0.0,-0.00031071831472218037,0.0002187142672482878,0.0004109746078029275,1.0016409158706665,0.0,0.0,0.0,0.9785802364349365,2.3592658042907715,5.5603156089782715,-177.1249542236328,0
1873.3240000000005,-0.028955921530723572,-0.027446450665593147,0.0009870638605207205,0.0,0.0,0.0,0.0,-0.0002864855632651597,-0.005625210702419281,-0.0006186970276758075,1.0003281831741333,0.0,0.0,0.0,0.9777858257293701,2.353020429611206,5.552629470825195,-176.98117065429688,0
1883.2309999999998,-0.028958085924386978,-0.02741040103137493,0.0009603512589819729,0.0,0.0,0.0,0.0,-0.002895956626161933,0.0005659215385094285,0.0029612346552312374,0.9988763332366943,0.0,0.0,0.0,0.9774514436721802,2.3523576259613037,5.554981231689453,-176.92066955566406,0
1893.143,-0.028986338526010513,-0.02742690220475197,0.0009654889581725001,0.0,0.0,0.0,0.0,0.0003154279838781804,-0.002767851110547781,0.001454068231396377,0.9992443919181824,0.0,0.0,0.0,0.9767898917198181,2.350701093673706,5.543206691741943,-176.8009033203125,0
1903.054,-0.028996257111430168,-0.02745455503463745,0.0009156502783298492,0.0,0.0,0.0,0.0,0.001681281952187419,-2.368685272813309e-05,0.0017775228479877114,1.000974416732788,0.0,0.0,0.0,0.9759880900382996,2.3445117473602295,5.536165237426758,-176.65577697753906,0
1912.9699999999993,-0.02902471087872982,-0.027474218979477882,0.0009161695488728583,0.0,0.0,0.0,0.0,0.0012420319253578782,0.0009631191496737301,0.00035027251578867435,1.0022544860839844,0.0,0.0,0.0,0.9749847054481506,2.3436813354492188,5.523787975311279,-176.47418212890625,0
1922.875,-0.029029957950115204,-0.027482682839035988,0.0008541141869500279,0.0,0.0,0.0,0.0,0.001311719068326056,-0.002311191288754344,-0.0032959983218461275,0.9988831281661987,0.0,0.0,0.0,0.973714292049408,2.3402867317199707,5.507012367248535,-176.24423217773438,0
1932.7880000000005,-0.028969183564186096,-0.02737700752913952,0.0010205074213445187,0.0,0.0,0.0,0.0,-0.00020919075177516788,-0.00349964271299541,-0.00020799027697648853,0.9997015595436096,0.0,0.0,0.0,0.964751660823822,2.363243579864502,5.525680065155029,-174.62196350097656,0
1942.705,-0.0289995726197958,-0.027428166940808296,0.001014947658404708,0.0,0.0,0.0,0.0,0.0048109982162714005,0.002232729224488139,0.0006224137614481151,0.9998413920402527,0.0,0.0,0.0,0.9636591672897339,2.3637681007385254,5.516468048095703,-174.42422485351562,0
1952.610999999999,-0.029027633368968964,-0.02744637243449688,0.0010220970725640655,0.0,0.0,0.0,0.0,0.0006969840615056455,-0.00013340487203095108,-0.001414179801940918,1.0012876987457275,0.0,0.0,0.0,0.9631933569908142,2.3502206802368164,5.5074782371521,-174.33990478515625,0
1962.521999999999,-0.029023706912994385,-0.027467850595712662,0.0009644010569900274,0.0,0.0,0.0,0.0,0.0007179964450187981,0.006687633227556944,-0.0007010368281044066,1.0001709461212158,0.0,0.0,0.0,0.9713151454925537,2.3465969562530518,5.506172180175781,-175.8099822998047,0
1972.4349999999995,-0.029055975377559662,-0.02748631313443184,0.0009684186079539359,0.0,0.0,0.0,0.0,0.0035210626665502787,0.001069278921931982,0.0014705497305840254,0.9997726082801819,0.0,0.0,0.0,0.9694958925247192,2.347303867340088,5.491678237915039,-175.48068237304688,0
1982.3449999999993,-0.02907455340027809,-0.027450840920209885,0.0009609257103875279,0.0,0.0,0.0,0.0,-0.0019281012937426567,0.0006335743819363415,-0.005150679964572191,1.0028713941574097,0.0,0.0,0.0,0.9751143455505371,2.3559014797210693,5.492056846618652,-176.49765014648438,0
1992.2620000000006,-0.02911006286740303,-0.027468398213386536,0.0009652169537730515,0.0,0.0,0.0,0.0,-0.0004866965173278004,-0.004345069173723459,-0.0017963905120268464,0.9999241232872009,0.0,0.0,0.0,0.9728553891181946,2.35245680809021,5.4864501953125,-176.08876037597656,0
2002.1689999999999,-0.029111983254551888,-0.02749079093337059,0.0008843798423185945,0.0,0.0,0.0,0.0,-0.0036319419741630554,-0.00036976957926526666,0.001451856573112309,0.9989169239997864,0.0,0.0,0.0,0.9713023900985718,2.3478922843933105,5.484889507293701,-175.8076629638672,0
2012.0849999999991,-0.029147446155548096,-0.027512051165103912,0.0008843005634844303,0.0,0.0,0.0,0.0,-0.0006995699950493872,0.003069905564188957,-0.0030562449246644974,1.0010327100753784,0.0,0.0,0.0,0.97104412317276,2.358955144882202,5.486611843109131,-175.7609100341797,0
2021.9979999999996,-0.029154136776924133,-0.027487829327583313,0.0008187630446627736,0.0,0.0,0.0,0.0,0.0030983800534158945,0.004202153999358416,-0.0006956550641916692,1.002651572227478,0.0,0.0,0.0,0.9697483777999878,2.354207754135132,5.4893975257873535,-175.52639770507812,0
2031.9120000000003,-0.02919125370681286,-0.027507975697517395,0.0008152226218953729,0.0,0.0,0.0,0.0,0.0030723847448825836,-0.00014678153092972934,0.0033838744275271893,1.000818133354187,0.0,0.0,0.0,0.9689881205558777,2.342677354812622,5.4776611328125,-175.3887939453125,0
2041.8320000000003,-0.02919873222708702,-0.027489863336086273,0.0007427622913382947,0.0,0.0,0.0,0.0,-0.00026988485478796065,-0.0018982250476256013,0.0003772648924496025,0.9980244040489197,0.0,0.0,0.0,0.9692487120628357,2.3373608589172363,5.475627422332764,-175.43594360351562,0
2051.732,-0.02901877462863922,-0.027411475777626038,0.001024020602926612,0.0,0.0,0.0,0.0,0.0015375505900010467,0.0002060475671896711,0.00394015945494175,1.0006252527236938,0.0,0.0,0.0,0.9569620490074158,2.3561980724334717,5.508857250213623,-173.21202087402344,0
2061.642,-0.029004255309700966,-0.02743581123650074,0.0009379236144013703,0.0,0.0,0.0,0.0,0.0020670501980930567,-0.0059156399220228195,-0.0026132718194276094,1.000410795211792,0.0,0.0,0.0,0.9643506407737732,2.3425674438476562,5.514626979827881,-174.54937744140625,0
2071.5519999999997,-0.02903611585497856,-0.02744850516319275,0.0009405099553987384,0.0,0.0,0.0,0.0,0.000453901884611696,-0.0011772445868700743,-0.002743552904576063,0.9992141723632812,0.0,0.0,0.0,0.9631755352020264,2.3403573036193848,5.516762733459473,-174.33668518066406,0
2081.4709999999995,-0.029034430161118507,-0.027411283925175667,0.0009036526898853481,0.0,0.0,0.0,0.0,0.004349823575466871,0.0027562782634049654,-0.0020065801218152046,1.0002785921096802,0.0,0.0,0.0,0.9692642092704773,2.34812331199646,5.516892910003662,-175.43875122070312,0
2091.378999999999,-0.029067937284708023,-0.02742420881986618,0.0009032828966155648,0.0,0.0,0.0,0.0,0.002498142421245575,-0.002819043816998601,-0.0014841742813587189,1.0007435083389282,0.0,0.0,0.0,0.9678148031234741,2.337480068206787,5.510727882385254,-175.17640686035156,0
2101.2919999999995,-0.02907661721110344,-0.027405641973018646,0.0008599162101745605,0.0,0.0,0.0,0.0,-0.00045665446668863297,-0.002197831403464079,-9.776480874279514e-05,1.0008034706115723,0.0,0.0,0.0,0.9722564816474915,2.3363311290740967,5.507716178894043,-175.9803466796875,0
2111.205,-0.028967546299099922,-0.027356553822755814,0.0010095175821334124,0.0,0.0,0.0,0.0,0.0010714669479057193,-0.0024376187939196825,0.0004096091724932194,0.9995668530464172,0.0,0.0,0.0,0.9714375734329224,2.326385498046875,5.51344633102417,-175.83212280273438,0
2121.125,-0.028913935646414757,-0.027311677113175392,0.000915828044526279,0.0,0.0,0.0,0.0,-0.003170345677062869,-0.0009233910241164267,0.002203045878559351,1.0013912916183472,0.0,0.0,0.0,0.9595403671264648,2.3354220390319824,5.52108907699585,-173.67872619628906,0
2131.0239999999994,-0.028941942378878593,-0.027325628325343132,0.0009174564038403332,0.0,0.0,0.0,0.0,0.0005881030228920281,-0.0023879706859588623,-0.002501977374777198,1.0004286766052246,0.0,0.0,0.0,0.9585838913917542,2.343520164489746,5.521876811981201,-173.50559997558594,0
2140.9349999999995,-0.028921999037265778,-0.027310822159051895,0.0008498189854435623,0.0,0.0,0.0,0.0,-0.0011264217318966985,3.410991848795675e-05,0.0038916231133043766,0.9993502497673035,0.0,0.0,0.0,0.9661006331443787,2.34869647026062,5.531793117523193,-174.8661346435547,0
2150.8449999999993,-0.028951220214366913,-0.027325186878442764,0.0008478308445774019,0.0,0.0,0.0,0.0,-0.0008784721721895039,-0.004569429438561201,0.00035128885065205395,1.0019712448120117,0.0,0.0,0.0,0.9653658866882324,2.346776247024536,5.531569957733154,-174.733154296875,0
2160.76,-0.028951527550816536,-0.02729795314371586,0.0008003281545825303,0.0,0.0,0.0,0.0,-0.0008124796440824866,-0.004162514116615057,0.0032640353310853243,1.0011738538742065,0.0,0.0,0.0,0.9786714911460876,2.354382276535034,5.536354064941406,-177.1414794921875,0
2170.669,-0.028980670496821404,-0.02731185033917427,0.0007964852266013622,0.0,0.0,0.0,0.0,0.0006038471474312246,0.002214231062680483,0.0034672750625759363,1.0017242431640625,0.0,0.0,0.0,0.9790866374969482,2.3515572547912598,5.548497676849365,-177.2166290283203,0
2180.5740000000005,-0.02900625765323639,-0.02734445035457611,0.000775255961343646,0.0,0.0,0.0,0.0,-0.003321673721075058,-0.001414189930073917,-0.0006639511557295918,1.0011215209960938,0.0,0.0,0.0,0.977679431438446,2.351600170135498,5.538074016571045,-176.9619140625,0
2190.5030000000006,-0.02903781831264496,-0.027359765022993088,0.0007731362129561603,0.0,0.0,0.0,0.0,-0.0007222131825983524,0.0009155818843282759,-0.0005164953763596714,1.0012940168380737,0.0,0.0,0.0,0.9773514866828918,2.3518052101135254,5.538717269897461,-176.90255737304688,0
2200.3979999999992,-0.02906278520822525,-0.02737092599272728,0.0007545789703726768,0.0,0.0,0.0,0.0,-0.0022537140175700188,-0.0018778976518660784,-0.0023386951070278883,1.00093412399292,0.0,0.0,0.0,0.9586901068687439,2.350072145462036,5.5313873291015625,-173.52481079101562,0
2210.3140000000003,-0.029094144701957703,-0.027384914457798004,0.0007539413054473698,0.0,0.0,0.0,0.0,3.037333590327762e-05,0.0008654167759232223,-0.004079415462911129,1.0000451803207397,0.0,0.0,0.0,0.9566230177879333,2.3410799503326416,5.524958610534668,-173.15066528320312,0
2220.2209999999995,-0.0291302353143692,-0.027417466044425964,0.000754979089833796,0.0,0.0,0.0,0.0,0.0003785681910812855,0.0033554669935256243,-0.0014291101833805442,0.9979881644248962,0.0,0.0,0.0,0.9552992582321167,2.334785223007202,5.520228862762451,-172.9110565185547,0
2230.1360000000004,-0.029163427650928497,-0.027432939037680626,0.0007550338050350547,0.0,0.0,0.0,0.0,-2.442871846142225e-05,-0.0004907138645648956,2.027357004408259e-05,1.0000932216644287,0.0,0.0,0.0,0.9542040824890137,2.330997943878174,5.511898517608643,-172.71282958984375,0
2240.0409999999993,-0.029172779992222786,-0.02743588574230671,0.00069440808147192,0.0,0.0,0.0,0.0,0.0008895349455997348,0.002043922897428274,-0.0030929874628782272,1.0014426708221436,0.0,0.0,0.0,0.9541848301887512,2.3297622203826904,5.507932662963867,-172.70936584472656,0
2249.9750000000004,-0.029019029811024666,-0.02731730230152607,0.0009800660191103816,0.0,0.0,0.0,0.0,0.002257406711578369,0.0025633671320974827,-0.0006977249286137521,1.001603364944458,0.0,0.0,0.0,0.9380176663398743,2.359936237335205,5.543115139007568,-169.7830810546875,0
2259.867,-0.029055269435048103,-0.027378641068935394,0.0009735215571708977,0.0,0.0,0.0,0.0,0.00030318714561872184,0.0007318626157939434,0.003505740314722061,1.0016690492630005,0.0,0.0,0.0,0.9362850785255432,2.355816125869751,5.527342796325684,-169.46946716308594,0
2269.777,-0.029084041714668274,-0.02738822065293789,0.000987494713626802,0.0,0.0,0.0,0.0,0.001747262547723949,0.0017588803311809897,0.002584988484159112,0.9995898604393005,0.0,0.0,0.0,0.936625063419342,2.353982925415039,5.518950462341309,-169.531005859375,0
