timestamp,stateEstimate.x,stateEstimate.y,stateEstimate.z,controller.cmd_thrust,controller.cmd_roll,controller.cmd_pitch,controller.cmd_yaw,controller.r_roll,controller.r_pitch,controller.r_yaw,controller.accelz,controller.actuatorThrust,controller.roll,controller.pitch,controller.yaw,controller.rollRate,controller.pitchRate,controller.yawRate,controller.ctr_yaw
0.0,-0.0013982289237901568,0.00022500331397168338,-0.0013072178699076176,0.0,0.0,0.0,0.0,0.002039397833868861,0.0004941205843351781,-0.0035663326270878315,1.0002342462539673,0.0,0.0,0.0,0.27294349670410156,1.8278089761734009,4.964190483093262,-49.403316497802734,0
9.922999999998865,-0.0014593631494790316,0.00021667337568942457,-0.001347253331914544,0.0,0.0,0.0,0.0,0.002396486233919859,-0.0040407986380159855,-0.001018528244458139,0.9989291429519653,0.0,0.0,0.0,0.27310097217559814,1.8199691772460938,4.94431734085083,-49.431819915771484,0
19.829999999999927,-0.0015071176458150148,0.0002381585945840925,-0.001398846972733736,0.0,0.0,0.0,0.0,-0.0029287731740623713,0.001953959697857499,0.0005077158566564322,0.9990478754043579,0.0,0.0,0.0,0.27172765135765076,1.8156741857528687,4.953403472900391,-49.18324279785156,0
29.743000000000393,-0.0015726994024589658,0.00023086313740350306,-0.0014407688286155462,0.0,0.0,0.0,0.0,0.003189870622009039,-0.006619648542255163,0.0009547029039822519,0.9995356798171997,0.0,0.0,0.0,0.2724359929561615,1.8121271133422852,4.945250034332275,-49.311458587646484,0
39.64899999999943,-0.0016185869462788105,0.0002539115084800869,-0.0014981344575062394,0.0,0.0,0.0,0.0,-0.0018934436375275254,0.0004455626767594367,-0.001475110067985952,0.9992711544036865,0.0,0.0,0.0,0.27261701226234436,1.8140925168991089,4.951777935028076,-49.34421920776367,0
49.57999999999993,-0.0016869005048647523,0.0002474807552061975,-0.001543099875561893,0.0,0.0,0.0,0.0,0.002243153052404523,0.0028924557846039534,-0.0020873581524938345,0.9989110827445984,0.0,0.0,0.0,0.27257049083709717,1.8109992742538452,4.954238414764404,-49.33579635620117,0
59.469999999999345,-0.001738778897561133,0.000308879476506263,-0.001593412016518414,0.0,0.0,0.0,0.0,0.0023610496427863836,0.0056607830338180065,-0.0034449335653334856,0.9989166259765625,0.0,0.0,0.0,0.27217063307762146,1.8130437135696411,4.948614597320557,-49.263427734375,0
69.39099999999962,-0.001806836575269699,0.00030423933640122414,-0.0016407709335908294,0.0,0.0,0.0,0.0,-0.0017291794065386057,0.0006295674829743803,-0.0005096013774164021,0.9995831847190857,0.0,0.0,0.0,0.2717439830303192,1.8095511198043823,4.935596466064453,-49.186195373535156,0
79.29399999999987,-0.0018586859805509448,0.0003655744658317417,-0.0016925833187997341,0.0,0.0,0.0,0.0,0.0018936323467642069,0.00022492933203466237,0.0004917691694572568,0.99973464012146,0.0,0.0,0.0,0.27173274755477905,1.8071467876434326,4.926923751831055,-49.184165954589844,0
89.21600000000035,-0.0019270561169832945,0.0003598915645852685,-0.0017421015072613955,0.0,0.0,0.0,0.0,-0.00032208801712840796,0.004052546340972185,-0.0004675170930568129,1.0009702444076538,0.0,0.0,0.0,0.27251845598220825,1.806227684020996,4.925758361816406,-49.326377868652344,0
99.125,-0.00205551041290164,0.0004068230336997658,-0.0018483526073396206,0.0,0.0,0.0,0.0,0.0019690582994371653,0.0007796949939802289,0.0001613413041923195,1.0013014078140259,0.0,0.0,0.0,0.2716579735279083,1.8024030923843384,4.90287446975708,-49.170631408691406,0
109.04199999999946,-0.00205551041290164,0.0004068230336997658,-0.0018483526073396206,0.0,0.0,0.0,0.0,-0.0008293201681226492,0.00015392532804980874,0.0002662783663254231,0.9974753856658936,0.0,0.0,0.0,0.2716579735279083,1.8024030923843384,4.90287446975708,-49.170631408691406,0
118.9409999999989,-0.0022160590160638094,0.0004307486233301461,-0.001957143656909466,0.0,0.0,0.0,0.0,-0.00011587762855924666,-0.005776504520326853,0.0005557687254622579,0.9999229311943054,0.0,0.0,0.0,0.2714654803276062,1.7942906618118286,4.8855133056640625,-49.13578796386719,0
128.87099999999919,-0.0022160590160638094,0.0004307486233301461,-0.001957143656909466,0.0,0.0,0.0,0.0,-0.0006289934972301126,-9.232843876816332e-05,0.0032489297445863485,1.001255989074707,0.0,0.0,0.0,0.2714654803276062,1.7942906618118286,4.8855133056640625,-49.13578796386719,0
138.76499999999942,-0.0023779505863785744,0.0004953928873874247,-0.0020697929430752993,0.0,0.0,0.0,0.0,-0.003672332502901554,-0.004871709737926722,0.0017173511441797018,0.9988076090812683,0.0,0.0,0.0,0.2705428898334503,1.7907798290252686,4.881729602813721,-48.96879959106445,0
148.6900000000005,0.00015443944721482694,-0.00032789254328235984,0.00010238824324915186,0.0,0.0,0.0,0.0,-0.0035463718231767416,-0.0019095842726528645,-0.0003666758711915463,0.9988758563995361,0.0,0.0,0.0,0.2733670473098755,1.7167845964431763,5.070815086364746,-49.479976654052734,0
158.58699999999953,0.00017723842756822705,-0.00025019419263117015,7.806983194313943e-05,0.0,0.0,0.0,0.0,0.0012598178582265973,-0.0010578562505543232,-0.0005764596280641854,0.9973933696746826,0.0,0.0,0.0,0.2742506265640259,1.7206076383590698,5.079366683959961,-49.63990783691406,0
168.51599999999962,0.0001555652852403,-0.00027632169076241553,6.708328146487474e-05,0.0,0.0,0.0,0.0,0.0016350497025996447,-0.0001177450394607149,0.0037854057736694813,0.9991021156311035,0.0,0.0,0.0,0.2735375761985779,1.7231184244155884,5.078111171722412,-49.510841369628906,0
178.41399999999885,0.00015733657346572727,-0.00022155851183924824,5.608930587186478e-05,0.0,0.0,0.0,0.0,0.003087095683440566,0.00102542107924819,-0.0025905189104378223,0.9987889528274536,0.0,0.0,0.0,0.27398648858070374,1.7193660736083984,5.074821949005127,-49.59210205078125,0
188.34399999999914,0.00016797485295683146,-0.0002616317942738533,3.849408312817104e-05,0.0,0.0,0.0,0.0,-0.00048182945465669036,0.0018723305547609925,-0.0023403940722346306,1.0015578269958496,0.0,0.0,0.0,0.2738758325576782,1.7133632898330688,5.071727752685547,-49.57207107543945,0
198.23799999999937,0.00017213176761288196,-0.0002223269984824583,2.1616615413222462e-05,0.0,0.0,0.0,0.0,0.0020579462870955467,0.003525473177433014,0.0003773299395106733,0.9996223449707031,0.0,0.0,0.0,0.2734076976776123,1.7119207382202148,5.058315277099609,-49.487335205078125,0
208.16200000000026,0.0001488917914684862,-0.0002493947686161846,7.030066626612097e-06,0.0,0.0,0.0,0.0,0.00038460252108052373,-0.001299878116697073,0.0037723451387137175,0.9991136789321899,0.0,0.0,0.0,0.2735467553138733,1.7038534879684448,5.054676055908203,-49.512508392333984,0
218.05799999999908,0.0001639951951801777,-0.0001820093166315928,-2.5220866518793628e-05,0.0,0.0,0.0,0.0,-0.0011958633549511433,0.0009223814122378826,0.0009830050403252244,0.9993261098861694,0.0,0.0,0.0,0.27370747923851013,1.7013452053070068,5.035304069519043,-49.54159927368164,0
227.98099999999977,0.00013955790200270712,-0.00020822940859943628,-4.157611328992061e-05,0.0,0.0,0.0,0.0,-0.0011988076148554683,-0.0019573234021663666,-0.0005629920051433146,0.9995056390762329,0.0,0.0,0.0,0.2746028006076813,1.6972509622573853,5.040350914001465,-49.703651428222656,0
356.8230000000003,5.977362525300123e-05,-0.0003145548398606479,-0.0001315578556386754,0.0,0.0,0.0,0.0,0.001114963903091848,0.007348241750150919,0.0019220926333218813,1.000791311264038,0.0,0.0,0.0,0.2774404287338257,1.665028691291809,4.98553991317749,-50.21726989746094,0
366.7479999999996,1.5881159924902022e-05,-0.0003471121599432081,-0.00014483059931080788,0.0,0.0,0.0,0.0,-0.0013538533821702003,-0.002094437601044774,-2.7945623514824547e-05,0.9991000890731812,0.0,0.0,0.0,0.27652525901794434,1.6584895849227905,4.976157188415527,-50.05162048339844,0
376.65400000000045,-2.3467757273465395e-05,-0.0002884655841626227,-0.00013994275650475174,0.0,0.0,0.0,0.0,-0.0023110376205295324,0.000294054567348212,-0.0006600935594178736,1.000079870223999,0.0,0.0,0.0,0.2763536870479584,1.655715823173523,4.967763900756836,-50.02056884765625,0
386.5730000000003,-6.80375233059749e-05,-0.0003183302469551563,-0.00015190035628620535,0.0,0.0,0.0,0.0,-0.0005280601908452809,0.002246591728180647,0.0009318303782492876,0.9990893006324768,0.0,0.0,0.0,0.27588358521461487,1.6556872129440308,4.969265460968018,-49.93547821044922,0
396.47600000000057,-0.00010340153676224872,-0.00022782421729061753,-0.00014802110672462732,0.0,0.0,0.0,0.0,0.0020407589618116617,-0.004011152312159538,0.0026124175637960434,0.9995869994163513,0.0,0.0,0.0,0.2760871350765228,1.6913002729415894,4.963250160217285,-49.97232437133789,0
406.39400000000023,-0.00014845342957414687,-0.00025239118258468807,-0.00016001310723368078,0.0,0.0,0.0,0.0,-0.0025652165059000254,-0.006113223731517792,-0.00047790969256311655,1.0005067586898804,0.0,0.0,0.0,0.274948388338089,1.6851692199707031,4.961118698120117,-49.76620101928711,0
416.2999999999993,-0.00018043005547951907,-0.00020098293316550553,-0.00017878776998259127,0.0,0.0,0.0,0.0,0.00012156400771345943,0.00396978622302413,0.0015682833036407828,0.9989906549453735,0.0,0.0,0.0,0.276456743478775,1.683327078819275,4.966233730316162,-50.03921890258789,0
426.21799999999894,-0.00022788092610426247,-0.0002223709598183632,-0.0001915757020469755,0.0,0.0,0.0,0.0,-0.001225064741447568,0.0003049120423384011,-0.0010007652454078197,0.997111976146698,0.0,0.0,0.0,0.2756524085998535,1.6816612482070923,4.96304988861084,-49.893638610839844,0
436.1270000000004,-0.0002322273066965863,-0.00015138111484702677,-0.00025897432351484895,0.0,0.0,0.0,0.0,-0.0013103411765769124,-0.002216550288721919,9.462257730774581e-05,0.9994425773620605,0.0,0.0,0.0,0.27486300468444824,1.6765137910842896,4.953268527984619,-49.75075149536133,0
446.0519999999997,-0.00027749533182941377,-0.0001690983190201223,-0.00027950984076596797,0.0,0.0,0.0,0.0,-0.0004046386166010052,0.001538192154839635,-0.002436098176985979,1.0004374980926514,0.0,0.0,0.0,0.2755783200263977,1.6775622367858887,4.9523024559021,-49.88022232055664,0
455.9519999999993,-0.00032204834860749543,-7.388668018393219e-05,-0.0003491942770779133,0.0,0.0,0.0,0.0,-0.0014281143667176366,0.0023944037966430187,0.0010662515414878726,1.0007938146591187,0.0,0.0,0.0,0.2727493941783905,1.717307686805725,4.953830718994141,-49.368186950683594,0
465.8629999999994,-0.00032204834860749543,-7.388668018393219e-05,-0.0003491942770779133,0.0,0.0,0.0,0.0,-0.0007937375921756029,-0.004854080267250538,0.003310250584036112,0.999433696269989,0.0,0.0,0.0,0.2727493941783905,1.717307686805725,4.953830718994141,-49.368186950683594,0
475.77700000000004,-0.00033849390456452966,-4.2616749851731583e-05,-0.00040443966281600296,0.0,0.0,0.0,0.0,0.0035240240395069122,-0.0006508236401714385,0.0006164341466501355,0.9999074935913086,0.0,0.0,0.0,0.2725064754486084,1.7212409973144531,4.953511714935303,-49.32421875,0
485.6970000000001,-0.0003783260763157159,-5.4596464906353503e-05,-0.0004302803718019277,0.0,0.0,0.0,0.0,0.0014276013243943453,-0.0013222526758909225,0.0018449272029101849,1.0013973712921143,0.0,0.0,0.0,0.2729175388813019,1.722435474395752,4.964549541473389,-49.39861297607422,0
495.60699999999997,-0.00039424706483259797,-7.562519385828637e-06,-0.0004716748371720314,0.0,0.0,0.0,0.0,-0.0010486786486580968,-7.269109482876956e-05,-0.0016403455520048738,0.9995374083518982,0.0,0.0,0.0,0.2722221910953522,1.7154362201690674,4.961733341217041,-49.27275466918945,0
505.52900000000045,-0.00043569423723965883,-1.670041456236504e-05,-0.0004983005346730351,0.0,0.0,0.0,0.0,-0.0026622035074979067,0.00045121763832867146,-0.0020713666453957558,1.0002167224884033,0.0,0.0,0.0,0.27359384298324585,1.7126400470733643,4.958744049072266,-49.52103042602539,0
515.4329999999991,-0.0004943178500980139,1.3420455616142135e-05,-0.0004888278199359775,0.0,0.0,0.0,0.0,0.0013078711926937103,0.000755986082367599,-0.0027630573604255915,0.9991917014122009,0.0,0.0,0.0,0.27337610721588135,1.7119563817977905,4.94650411605835,-49.48161697387695,0
525.3459999999995,-0.0005426077404990792,3.167389877489768e-06,-0.0005124496528878808,0.0,0.0,0.0,0.0,0.0009982842020690441,0.0024450859054923058,-0.0012633745791390538,0.9980505704879761,0.0,0.0,0.0,0.272091805934906,1.7083755731582642,4.936455249786377,-49.2491569519043,0
535.2690000000002,-0.000617805402725935,-1.702421468507964e-05,-0.000520676898304373,0.0,0.0,0.0,0.0,-0.0008089304901659489,-4.111773887416348e-05,-0.0006481970776803792,0.9989190697669983,0.0,0.0,0.0,0.2718530595302582,1.7052706480026245,4.9261794090271,-49.20594787597656,0
545.1630000000005,-0.0006725158891640604,-3.245723928557709e-05,-0.0005452261539176106,0.0,0.0,0.0,0.0,0.0017500976100564003,-0.0014212924288585782,-0.0008104428416118026,1.0007492303848267,0.0,0.0,0.0,0.2709042727947235,1.7069056034088135,4.928743362426758,-49.03421401977539,0
555.0830000000005,-0.0007604454294778407,-3.892365930369124e-05,-0.0005322549259290099,0.0,0.0,0.0,0.0,-0.0029094566125422716,0.002300341846421361,-0.0007773512043058872,1.0008970499038696,0.0,0.0,0.0,0.27123332023620605,1.705084204673767,4.926727294921875,-49.09376907348633,0
564.9930000000004,-0.000821030989754945,-5.687250450137071e-05,-0.00055336719378829,0.0,0.0,0.0,0.0,0.0025721988640725613,-0.0029272132087498903,-0.0007385105127468705,0.9989339113235474,0.0,0.0,0.0,0.27133801579475403,1.7085325717926025,4.915771961212158,-49.11272048950195,0
574.9069999999992,-0.0008662740583531559,-3.370172271388583e-05,-0.0005812447052448988,0.0,0.0,0.0,0.0,-0.002929444657638669,0.0013614307390525937,-0.00029969625757075846,0.9968973398208618,0.0,0.0,0.0,0.2713255286216736,1.7053066492080688,4.914494514465332,-49.11045455932617,0
584.8159999999989,-0.0009296986972913146,-5.117902037454769e-05,-0.0006037892890162766,0.0,0.0,0.0,0.0,0.0007522774394601583,-0.001293768989853561,0.0019146250560879707,0.9972456097602844,0.0,0.0,0.0,0.2701629400253296,1.7077568769454956,4.900599956512451,-48.90003204345703,0
594.7309999999998,-0.0009498185245320201,-1.3095440408505965e-05,-0.0006640702486038208,0.0,0.0,0.0,0.0,-0.0012160162441432476,-0.000331119226757437,0.00020217847486492246,0.9979589581489563,0.0,0.0,0.0,0.271213561296463,1.709647536277771,4.903266906738281,-49.09019470214844,0
604.6489999999994,-0.0010149297304451466,-2.765262615866959e-05,-0.0006947028450667858,0.0,0.0,0.0,0.0,0.0008728406392037868,0.0010308031924068928,0.003032508073374629,1.000934362411499,0.0,0.0,0.0,0.2712937295436859,1.7068679332733154,4.897304058074951,-49.104705810546875,0
614.5550000000003,-0.0009987575467675924,6.000170833431184e-05,-0.0007834063144400716,0.0,0.0,0.0,0.0,-0.0011360968928784132,-7.082939555402845e-05,0.001994732767343521,1.0000925064086914,0.0,0.0,0.0,0.271083801984787,1.748838186264038,4.926464557647705,-49.066707611083984,0
624.4670000000006,-0.0010649074101820588,5.239210440777242e-05,-0.0008207906503230333,0.0,0.0,0.0,0.0,8.416210221184883e-06,0.0024984644260257483,-0.00040862782043404877,1.000079870223999,0.0,0.0,0.0,0.27156028151512146,1.749184250831604,4.923122406005859,-49.152950286865234,0
634.3909999999996,-0.0010795271955430508,0.00011324147635605186,-0.0008923400309868157,0.0,0.0,0.0,0.0,0.0007410093094222248,-0.003905164310708642,-0.0018815333023667336,0.9999606609344482,0.0,0.0,0.0,0.27188506722450256,1.7498822212219238,4.908833980560303,-49.211734771728516,0
644.2790000000005,-0.0011479409877210855,0.00011036841897293925,-0.0009330869652330875,0.0,0.0,0.0,0.0,-0.0011984843295067549,-0.003572012297809124,0.0011851657181978226,0.9998077154159546,0.0,0.0,0.0,0.2715131938457489,1.7483404874801636,4.910368919372559,-49.14442443847656,0
654.2029999999995,-0.001179349608719349,0.00017623332678340375,-0.0009926159400492907,0.0,0.0,0.0,0.0,0.0007640352705493569,0.00018610796541906893,-0.0021685482934117317,0.9988747239112854,0.0,0.0,0.0,0.27152979373931885,1.744058609008789,4.91417932510376,-49.147430419921875,0
664.1010000000006,0.0001429347030352801,-0.00032742126495577395,9.326700092060491e-05,0.0,0.0,0.0,0.0,-0.0014696224825456738,-0.0025559281930327415,-0.0016583530232310295,0.9998983144760132,0.0,0.0,0.0,0.2789129614830017,1.6682164669036865,5.094536781311035,-50.483795166015625,0
674.0149999999994,0.00016733573284000158,-0.00023812214203644544,6.556313746841624e-05,0.0,0.0,0.0,0.0,-0.0014740620972588658,-0.001760267885401845,0.0019433641573414207,1.000248908996582,0.0,0.0,0.0,0.2790291905403137,1.661361813545227,5.097682952880859,-50.50483703613281,0
683.9259999999995,0.00014430005103349686,-0.00025746721075847745,5.3527743148151785e-05,0.0,0.0,0.0,0.0,-0.00219868216663599,0.0004443968937266618,0.00019038861501030624,1.000230312347412,0.0,0.0,0.0,0.27945947647094727,1.6583008766174316,5.102334976196289,-50.582725524902344,0
693.8590000000004,0.00014937727246433496,-0.00023404146486427635,1.0663326975191012e-05,0.0,0.0,0.0,0.0,0.0033839656971395016,0.0009064269834198058,-0.0006060815649107099,1.0018506050109863,0.0,0.0,0.0,0.27932989597320557,1.6521804332733154,5.100709915161133,-50.559268951416016,0
703.75,0.00019518483895808458,-0.00031633878825232387,-1.368752054986544e-05,0.0,0.0,0.0,0.0,0.0004576888750307262,0.0031255644280463457,0.0006980299367569387,0.9989379644393921,0.0,0.0,0.0,0.2858770787715912,1.640870213508606,5.092757225036621,-51.74432373046875,0
713.6669999999995,0.00019973251619376242,-0.00028716021915897727,-3.9424987335223705e-05,0.0,0.0,0.0,0.0,-0.0005589962238445878,0.0041262428276240826,0.004498761147260666,1.000093698501587,0.0,0.0,0.0,0.28620898723602295,1.6392532587051392,5.083318710327148,-51.80439758300781,0
723.5720000000001,0.00017629473586566746,-0.0003129987744614482,-5.424541450338438e-05,0.0,0.0,0.0,0.0,0.0022072179708629847,0.0012029269710183144,0.0025212038308382034,1.001685619354248,0.0,0.0,0.0,0.28686413168907166,1.6326175928115845,5.072747230529785,-51.9229736328125,0
733.4989999999998,0.00017460010712966323,-0.0002808493154589087,-7.706652104388922e-05,0.0,0.0,0.0,0.0,0.00023106136359274387,-7.847968663554639e-05,0.0005720304325222969,1.0011906623840332,0.0,0.0,0.0,0.285751074552536,1.6340415477752686,5.061230659484863,-51.72151565551758,0
743.4030000000002,0.00017910895985551178,-0.0002884774876292795,-7.194514910224825e-05,0.0,0.0,0.0,0.0,-0.00029033387545496225,0.00026799397892318666,-0.0034629274159669876,0.9997499585151672,0.0,0.0,0.0,0.2847093939781189,1.6264004707336426,5.049427509307861,-51.53296661376953,0
753.3150000000005,0.00017423077952116728,-0.0002640320162754506,-8.971802162704989e-05,0.0,0.0,0.0,0.0,0.0012536097783595324,0.00019712014182005078,0.0016845520585775375,0.9982281923294067,0.0,0.0,0.0,0.28408318758010864,1.6295918226242065,5.048632621765137,-51.419620513916016,0
763.2179999999989,0.00016726732428651303,-0.0002851159079000354,-9.492319077253342e-05,0.0,0.0,0.0,0.0,0.001845736289396882,0.005055125802755356,-0.001127301249653101,0.9984455704689026,0.0,0.0,0.0,0.28310027718544006,1.6243916749954224,5.043785572052002,-51.24170684814453,0
773.137999999999,0.00015656866889912635,-0.00027497889823280275,-0.00011915554205188528,0.0,0.0,0.0,0.0,0.0005249296664260328,-0.0016971438890323043,0.001603360753506422,0.9994328618049622,0.0,0.0,0.0,0.2813115417957306,1.6163541078567505,5.03198766708374,-50.917945861816406,0
783.0460000000003,0.00012243411038070917,-0.0003057129797525704,-0.0001339096634183079,0.0,0.0,0.0,0.0,-0.001346492674201727,-0.0022328097838908434,0.0006891362136229873,0.9979006052017212,0.0,0.0,0.0,0.28135836124420166,1.6213151216506958,5.0286359786987305,-50.926422119140625,0
792.9660000000003,7.874763832660392e-05,-0.00029482095851562917,-0.00011918738891836256,0.0,0.0,0.0,0.0,-0.002189174061641097,0.003478369442746043,-0.002545161172747612,0.9982425570487976,0.0,0.0,0.0,0.2818704843521118,1.6214075088500977,5.031667709350586,-51.01912307739258,0
802.8549999999996,0.0001120117012760602,-0.00032283432665281,-9.650091669755057e-05,0.0,0.0,0.0,0.0,0.003129716729745269,0.0024678416084498167,0.0014084047870710492,0.9997191429138184,0.0,0.0,0.0,0.28147828578948975,1.619674563407898,5.028939723968506,-50.9481315612793,0
812.7739999999994,0.00012058533320669085,-0.00023219689319375902,-0.00011285249638604,0.0,0.0,0.0,0.0,-0.0006585816736333072,-0.000549723394215107,-5.817861529067159e-05,0.9984909296035767,0.0,0.0,0.0,0.2821356952190399,1.6106759309768677,5.014673233032227,-51.06712341308594,0
822.6939999999995,8.05594609118998e-05,-0.0002659616875462234,-0.00012688443530350924,0.0,0.0,0.0,0.0,0.006208386737853289,-0.002352818613871932,0.00018536696734372526,0.996303141117096,0.0,0.0,0.0,0.2813655138015747,1.6123430728912354,5.009256362915039,-50.9277229309082,0
832.5990000000002,6.295683124335483e-05,-0.0002050858165603131,-0.00013808059156872332,0.0,0.0,0.0,0.0,-0.0010066619142889977,0.00110528152436018,-0.001967355143278837,0.9991015791893005,0.0,0.0,0.0,0.2811714708805084,1.6070042848587036,5.001096248626709,-50.8925895690918,0
842.5059999999994,0.0001688688062131405,-0.0003104181378148496,-0.00011982176511082798,0.0,0.0,0.0,0.0,-0.0021309840958565474,0.0023818006739020348,-0.0014437619829550385,0.999305248260498,0.0,0.0,0.0,0.2810155153274536,1.59906005859375,4.989667892456055,-50.86436462402344,0
852.4229999999989,0.00010905459930654615,-0.0003161104104947299,-9.506582136964425e-05,0.0,0.0,0.0,0.0,0.003280626842752099,-0.00038206620956771076,0.0014569617342203856,0.999626636505127,0.0,0.0,0.0,0.2800934314727783,1.5957773923873901,4.981115341186523,-50.69746780395508,0
862.3320000000003,0.0001656145032029599,-0.0003796028613578528,-8.586164040025324e-05,0.0,0.0,0.0,0.0,0.001883470918983221,0.0011294422438368201,0.00013270301860757172,1.0003907680511475,0.0,0.0,0.0,0.28570085763931274,1.5830411911010742,4.982716083526611,-51.712425231933594,0
872.2529999999988,0.00014561472926288843,-0.0003046466445084661,-6.841875438112766e-05,0.0,0.0,0.0,0.0,0.003530060639604926,-0.0034114776644855738,-0.0013762699672952294,1.000041127204895,0.0,0.0,0.0,0.2863289415836334,1.5758633613586426,4.9732561111450195,-51.82610321044922,0
882.155999999999,0.00017100627883337438,-0.0003639475617092103,-6.891573139000684e-05,0.0,0.0,0.0,0.0,0.0024003812577575445,0.002781510818749666,0.0034414827823638916,1.000131607055664,0.0,0.0,0.0,0.2846609950065613,1.572266936302185,4.970972537994385,-51.52420425415039,0
892.0619999999999,0.00014127280155662447,-0.0003114482678938657,-4.687528780777939e-05,0.0,0.0,0.0,0.0,1.5469609934370965e-05,-0.0003437834675423801,-0.0037039555609226227,0.999926745891571,0.0,0.0,0.0,0.2868252694606781,1.5706721544265747,4.955977439880371,-51.91594314575195,0
901.9799999999996,9.948220395017415e-05,-0.00035202832077629864,-5.269381290418096e-05,0.0,0.0,0.0,0.0,-0.0028333798982203007,-0.0013317512348294258,-0.0004522995441220701,1.0013692378997803,0.0,0.0,0.0,0.2846587002277374,1.5683726072311401,4.951507568359375,-51.52378845214844,0
911.8869999999988,6.57896016491577e-05,-0.00028321953141130507,-2.6222569431411102e-05,0.0,0.0,0.0,0.0,0.0006944157648831606,-1.5624907973688096e-05,-0.00022638545488007367,0.9994407892227173,0.0,0.0,0.0,0.285216361284256,1.57099187374115,4.949830055236816,-51.62472915649414,0
921.8119999999999,2.024781861109659e-05,-0.00032302580075338483,-2.8376543923513964e-05,0.0,0.0,0.0,0.0,-0.004655216354876757,0.00019196812354493886,-0.0018410161137580872,0.9998343586921692,0.0,0.0,0.0,0.2859609127044678,1.5718681812286377,4.9461588859558105,-51.759498596191406,0
931.7089999999989,1.668194090598263e-05,-0.00025116215692833066,-6.287622090894729e-05,0.0,0.0,0.0,0.0,0.0028958714101463556,0.0010248868493363261,-0.00097592145903036,0.9992149472236633,0.0,0.0,0.0,0.28488537669181824,1.5721014738082886,4.941488265991211,-51.5648193359375,0
941.6229999999996,-2.8340382414171472e-05,-0.00028762174770236015,-6.763431883882731e-05,0.0,0.0,0.0,0.0,-0.0005488101742230356,-0.006914223078638315,-0.0009480191511102021,0.9983415007591248,0.0,0.0,0.0,0.28496965765953064,1.5674538612365723,4.940158367156982,-51.580074310302734,0
951.5360000000001,-3.625830868259072e-05,-0.00019820085435640067,-9.889673674479127e-05,0.0,0.0,0.0,0.0,-0.0033264418598264456,-0.0007362226606346667,0.0036205605138093233,0.9964359998703003,0.0,0.0,0.0,0.2846987247467041,1.6069062948226929,4.965764045715332,-51.53103256225586,0
961.4490000000005,-7.912275032140315e-05,-0.0002294516161782667,-0.0001092072925530374,0.0,0.0,0.0,0.0,0.0029554939828813076,0.0008084284490905702,0.0005035944050177932,0.999651312828064,0.0,0.0,0.0,0.28489014506340027,1.6057765483856201,4.974828720092773,-51.56568145751953,0
971.3689999999988,-0.00011185217590536922,-0.000170088853337802,-0.00011043224367313087,0.0,0.0,0.0,0.0,0.0019609269220381975,0.002483550924807787,0.0018668505363166332,0.9995192289352417,0.0,0.0,0.0,0.2839029133319855,1.6016831398010254,4.971948146820068,-51.386993408203125,0
981.271999999999,-0.0001433544821338728,-0.00010572555765975267,-0.0001120005181292072,0.0,0.0,0.0,0.0,0.004038424696773291,0.0025038314051926136,-0.006291605532169342,1.001538872718811,0.0,0.0,0.0,0.284744530916214,1.5969765186309814,4.959946155548096,-51.53932189941406,0
991.1839999999993,-0.00018708297284319997,-0.00012986978981643915,-0.00012383413559291512,0.0,0.0,0.0,0.0,0.001960884081199765,-0.00339534436352551,0.004072493873536587,0.9987543821334839,0.0,0.0,0.0,0.2831527590751648,1.5952402353286743,4.949413776397705,-51.2512092590332,0
1001.0969999999998,-0.00020084099378436804,-7.30501560610719e-05,-0.00015798535605426878,0.0,0.0,0.0,0.0,8.883261762093753e-05,-0.0012086372589692473,0.0010372352553531528,0.9995022416114807,0.0,0.0,0.0,0.28336387872695923,1.5886305570602417,4.948425769805908,-51.2894287109375,0
1011.003999999999,-0.00024651610874570906,-9.175501327263191e-05,-0.00017186907643917948,0.0,0.0,0.0,0.0,-0.002614312106743455,0.0008383957901969552,0.0007195131038315594,0.9994782209396362,0.0,0.0,0.0,0.28389933705329895,1.5883480310440063,4.933894634246826,-51.38634490966797,0
1020.9179999999997,0.00017438820214010775,-0.00022820323647465557,4.329884177423082e-05,0.0,0.0,0.0,0.0,-0.00017041113460436463,0.00011275303404545411,0.0008229404338635504,0.9965401887893677,0.0,0.0,0.0,0.2920304238796234,1.5377484560012817,5.033161163330078,-52.85808563232422,0
1030.825999999999,0.00014976950478740036,-0.00025665154680609703,3.8869326090207323e-05,0.0,0.0,0.0,0.0,0.0004435080336406827,-0.0011388469720259309,0.00504768081009388,0.9973931312561035,0.0,0.0,0.0,0.291839599609375,1.5294991731643677,5.025597095489502,-52.823551177978516,0
1040.7459999999992,0.0001931691076606512,-0.00029022610397078097,2.6117151719518006e-05,0.0,0.0,0.0,0.0,-0.00033266295213252306,0.0015387770254164934,0.0008026477298699319,1.0003982782363892,0.0,0.0,0.0,0.2976859211921692,1.5208693742752075,5.029289245605469,-53.881744384765625,0
1050.6509999999998,0.00019995840557385236,-0.00034581145155243576,1.1320211342535913e-05,0.0,0.0,0.0,0.0,0.0013983843382447958,0.0009340193355455995,0.00014992976502981037,1.002053141593933,0.0,0.0,0.0,0.297006219625473,1.5102207660675049,5.025424480438232,-53.75871276855469,0
1060.562,0.0002015359204960987,-0.00026164352311752737,1.7027288777171634e-05,0.0,0.0,0.0,0.0,-0.0008059939136728644,0.0011893403716385365,0.001036620931699872,1.0006883144378662,0.0,0.0,0.0,0.2964506149291992,1.507921576499939,5.02035665512085,-53.658145904541016,0
1070.485999999999,0.00021355837816372514,-0.00032422953518107533,4.059879756823648e-06,0.0,0.0,0.0,0.0,-0.0007550506852567196,0.00164171087089926,-0.000341596023645252,0.9987360835075378,0.0,0.0,0.0,0.3029146194458008,1.501732349395752,5.020122528076172,-54.82815170288086,0
1080.3869999999988,0.00020096416119486094,-0.0003134601574856788,-7.108150839485461e-06,0.0,0.0,0.0,0.0,-0.000730689789634198,0.004166978877037764,0.0021038944832980633,1.001113772392273,0.0,0.0,0.0,0.30293676257133484,1.4989722967147827,5.003564357757568,-54.8321533203125,0
1090.3099999999995,0.00019400852033868432,-0.00035915864282287657,-1.746493398968596e-05,0.0,0.0,0.0,0.0,0.0011998952832072973,4.92372055305168e-05,-9.840487473411486e-05,1.0000473260879517,0.0,0.0,0.0,0.3025864362716675,1.4939625263214111,4.988400936126709,-54.76874923706055,0
1100.2160000000003,0.00018851393542718142,-0.00033053214428946376,-3.066084536840208e-05,0.0,0.0,0.0,0.0,-0.0005544050363823771,0.0005285238730721176,0.001236050738953054,0.9979405403137207,0.0,0.0,0.0,0.30358242988586426,1.4998306035995483,4.983665943145752,-54.94902420043945,0
1110.1219999999994,0.00015611412527505308,-0.000365384912583977,-3.737684528459795e-05,0.0,0.0,0.0,0.0,0.001736912177875638,0.0027797312941402197,-0.0020117065869271755,1.000494122505188,0.0,0.0,0.0,0.30417266488075256,1.4973547458648682,4.977192401885986,-55.055850982666016,0
1120.0370000000003,0.00017554149962961674,-0.00026598427211865783,-6.716074130963534e-05,0.0,0.0,0.0,0.0,0.000695565075147897,-0.0012436230899766088,-0.0001935077307280153,0.9981484413146973,0.0,0.0,0.0,0.3032132685184479,1.4931915998458862,4.972614765167236,-54.882205963134766,0
1129.946,0.0001413061108905822,-0.0002995591494254768,-7.70694314269349e-05,0.0,0.0,0.0,0.0,0.0003176830941811204,0.005233259871602058,-0.004527326673269272,0.9985867142677307,0.0,0.0,0.0,0.30285805463790894,1.487295389175415,4.961700439453125,-54.81791305541992,0
1139.8600000000006,0.00013302404840942472,-0.00021192578424233943,-9.392519132234156e-05,0.0,0.0,0.0,0.0,0.0016695233061909676,-0.0015401126584038138,0.0003312065382488072,0.9990649223327637,0.0,0.0,0.0,0.3020240366458893,1.4898765087127686,4.956831455230713,-54.66695022583008,0
1149.7690000000002,9.679361392045394e-05,-0.00024330307496711612,-0.00010652860510163009,0.0,0.0,0.0,0.0,-0.002460629679262638,0.000996846123598516,9.263508400181308e-05,0.9993630647659302,0.0,0.0,0.0,0.3019278943538666,1.4870773553848267,4.951197147369385,-54.64955139160156,0
1159.682999999999,8.697358862264082e-05,-0.00017555231170263141,-0.00014027860015630722,0.0,0.0,0.0,0.0,-0.0036483232397586107,-0.0015448880149051547,-0.0029303294140845537,0.9997556805610657,0.0,0.0,0.0,0.30173203349113464,1.4846168756484985,4.942386627197266,-54.614097595214844,0
1169.5969999999998,4.806353899766691e-05,-0.00020515231881290674,-0.00015744619304314256,0.0,0.0,0.0,0.0,-0.0037256740033626556,-0.0015762579860165715,0.003772376338019967,1.0022056102752686,0.0,0.0,0.0,0.3001205623149872,1.485778570175171,4.941371917724609,-54.322418212890625,0
1179.509,2.0080571630387567e-05,-0.0001833694986999035,-0.00017626193584874272,0.0,0.0,0.0,0.0,-0.0013124305987730622,0.0007152789039537311,0.0014213173417374492,1.001230001449585,0.0,0.0,0.0,0.30129051208496094,1.4936387538909912,4.944849491119385,-54.534183502197266,0
1189.4249999999993,-1.7620868675294332e-05,-0.0002089288755087182,-0.00018988200463354588,0.0,0.0,0.0,0.0,0.0003099159512203187,0.001118638669140637,-0.0021506112534552813,1.000024676322937,0.0,0.0,0.0,0.3010217249393463,1.4891289472579956,4.94111967086792,-54.48552703857422,0
1199.3310000000001,-6.151843263069168e-05,-0.00019042125495616347,-0.0001812500413507223,0.0,0.0,0.0,0.0,-0.0003533958806656301,0.002182435942813754,0.0015814198413863778,0.9989402294158936,0.0,0.0,0.0,0.2994469404220581,1.490450382232666,4.939202308654785,-54.20049285888672,0
1209.2489999999998,-0.00010408757952973247,-0.00021561983157880604,-0.0001922026858665049,0.0,0.0,0.0,0.0,-0.00028761959401890635,-0.00386136956512928,-0.003620666218921542,0.9999127984046936,0.0,0.0,0.0,0.3002946972846985,1.4900496006011963,4.921529769897461,-54.35393524169922,0
1219.1579999999994,-0.000151262225699611,-0.00020173832308501005,-0.00018877269758377224,0.0,0.0,0.0,0.0,-0.005650426726788282,-0.0035556298680603504,0.0002561447909101844,0.9985592365264893,0.0,0.0,0.0,0.29967373609542847,1.4832968711853027,4.921634674072266,-54.24154281616211,0
1229.0720000000001,-0.00019911507843062282,-0.00022724315931554884,-0.00019981888181064278,0.0,0.0,0.0,0.0,-0.0014021216193214059,-0.001876716036349535,0.0021921172738075256,0.9996470808982849,0.0,0.0,0.0,0.2999085783958435,1.4914371967315674,4.909192085266113,-54.2840461730957,0
1238.9779999999992,-0.0002497092355042696,-0.00020763099018950015,-0.0001937826455105096,0.0,0.0,0.0,0.0,0.000660614634398371,-0.001088359160348773,-0.0007917031180113554,0.9994158148765564,0.0,0.0,0.0,0.2989135682582855,1.4931738376617432,4.910877704620361,-54.103946685791016,0
1248.8869999999988,-0.00030036381212994456,-0.00023388715635519475,-0.00020510554895736277,0.0,0.0,0.0,0.0,0.0008113121148198843,0.0009942264296114445,0.0008996566175483167,0.9992002248764038,0.0,0.0,0.0,0.29878562688827515,1.4908692836761475,4.9082112312316895,-54.08079528808594,0
1258.804,-0.0003266689018346369,-0.0001938607165357098,-0.00023421570949722081,0.0,0.0,0.0,0.0,-0.0027856517117470503,0.0006911202217452228,0.0024851420894265175,0.9996458292007446,0.0,0.0,0.0,0.2900610566139221,1.5179790258407593,4.913452625274658,-52.50162887573242,0
1268.7160000000003,-0.0003773448697756976,-0.00021928749629296362,-0.0002484855940565467,0.0,0.0,0.0,0.0,0.004730489570647478,0.0036641897168010473,0.00023042377142701298,0.9994872808456421,0.0,0.0,0.0,0.29042744636535645,1.5234057903289795,4.907209396362305,-52.56794357299805,0
1278.6209999999992,-0.00040218315552920103,-0.00016736793622840196,-0.00027526007033884525,0.0,0.0,0.0,0.0,0.0001747930800775066,0.00048567826161161065,0.006832940969616175,0.9973263144493103,0.0,0.0,0.0,0.2892320454120636,1.5131936073303223,4.90301513671875,-52.35157775878906,0
1288.5349999999999,-0.00045555594260804355,-0.00019017951854038984,-0.00029214020469225943,0.0,0.0,0.0,0.0,0.00046049608499743044,0.0007685784948989749,-0.0013219063403084874,0.9986250400543213,0.0,0.0,0.0,0.2902786433696747,1.5169477462768555,4.911413192749023,-52.541011810302734,0
1298.4470000000001,-0.00045870940084569156,-0.00011600911238929257,-0.00034242350375279784,0.0,0.0,0.0,0.0,0.00022244409774430096,-0.0019341883016750216,-0.003558989381417632,1.000484824180603,0.0,0.0,0.0,0.29294824600219727,1.5567636489868164,4.932239055633545,-53.02421951293945,0
1308.3600000000006,-0.0005097914836369455,-0.00013475485320668668,-0.00036518310662359,0.0,0.0,0.0,0.0,0.0006698131910525262,0.0005181276355870068,0.0010365336202085018,1.0001492500305176,0.0,0.0,0.0,0.2920398712158203,1.5476224422454834,4.927628993988037,-52.859798431396484,0
1318.2780000000002,-0.0004867063835263252,-6.565054354723543e-05,-0.00045135727850720286,0.0,0.0,0.0,0.0,-0.000648690212983638,-0.003096063155680895,-0.00032618435216136277,0.9988906979560852,0.0,0.0,0.0,0.2937096357345581,1.5846333503723145,4.953991413116455,-53.16202926635742,0
1328.1819999999989,-0.0005351939471438527,-8.081261330517009e-05,-0.00047998171066865325,0.0,0.0,0.0,0.0,0.0005828802823089063,0.000885075656697154,-0.00043584383092820644,0.99959397315979,0.0,0.0,0.0,0.29355916380882263,1.5816861391067505,4.958610534667969,-53.13479232788086,0
1338.0920000000006,-0.0005350341671146452,-1.8377084415988065e-05,-0.0005399986985139549,0.0,0.0,0.0,0.0,-0.0007264937739819288,0.00021949711663182825,-0.0009503712644800544,0.9993512034416199,0.0,0.0,0.0,0.29326897859573364,1.6131974458694458,4.978087902069092,-53.08226776123047,0
1348.0049999999992,-0.0005821072263643146,-2.9210912543931045e-05,-0.0005731715355068445,0.0,0.0,0.0,0.0,0.00019721862918231636,-0.0018844397272914648,0.0005023258272558451,0.998831033706665,0.0,0.0,0.0,0.29142165184020996,1.6137962341308594,4.970667839050293,-52.74789810180664,0
1357.9229999999989,-0.0005900751566514373,3.393621591385454e-05,-0.0006283036200329661,0.0,0.0,0.0,0.0,-0.0014720900217071176,0.004700873047113419,-0.005402424372732639,0.9975773692131042,0.0,0.0,0.0,0.2914280891418457,1.6140480041503906,4.966923236846924,-52.74906539916992,0
1367.8289999999997,-0.0006391222705133259,2.7496180337038822e-05,-0.0006662982050329447,0.0,0.0,0.0,0.0,-0.00169049680698663,-0.005229491740465164,0.00014961115084588528,1.00009024143219,0.0,0.0,0.0,0.2912997603416443,1.6161359548568726,4.973147392272949,-52.72583770751953,0
1377.7389999999996,-0.0006558276945725083,6.834349915152416e-05,-0.0007284694002009928,0.0,0.0,0.0,0.0,0.0002810585137922317,0.00410235533490777,-0.0060057505033910275,0.9999094009399414,0.0,0.0,0.0,0.2908097207546234,1.6195873022079468,4.972653388977051,-52.63713455200195,0
1387.6569999999992,-0.0007062598597258329,6.304650014499202e-05,-0.0007705311290919781,0.0,0.0,0.0,0.0,0.0012382941786199808,0.0014654684346169233,-0.0004254346713423729,1.000287652015686,0.0,0.0,0.0,0.2899990379810333,1.6133191585540771,4.961728572845459,-52.49040222167969,0
1397.5650000000005,-0.0007560215308330953,0.00010987874702550471,-0.000801319198217243,0.0,0.0,0.0,0.0,-0.0005191608797758818,-0.0017677118303254247,0.004205544013530016,0.999880850315094,0.0,0.0,0.0,0.2915675938129425,1.614638090133667,4.9572367668151855,-52.77431106567383,0
1407.476999999999,-0.0008106727036647499,0.00010790993110276759,-0.0008421645034104586,0.0,0.0,0.0,0.0,0.0018960193265229464,-0.002535768784582615,0.0007460038759745657,0.9989691972732544,0.0,0.0,0.0,0.29247623682022095,1.6093469858169556,4.954094886779785,-52.938777923583984,0
1417.3979999999992,-0.000847772927954793,0.00014236725110094994,-0.0008952138596214354,0.0,0.0,0.0,0.0,0.0003361720882821828,0.0003428540949244052,-0.001758492668159306,0.9981338977813721,0.0,0.0,0.0,0.2910873591899872,1.5992083549499512,4.952106952667236,-52.68739318847656,0
1427.2999999999993,-0.0009012079681269825,0.00013843196211382747,-0.0009386249585077167,0.0,0.0,0.0,0.0,-0.0033683408983051777,0.0043590618297457695,-0.0023541287519037724,0.9979568123817444,0.0,0.0,0.0,0.2908121645450592,1.5982434749603271,4.952444076538086,-52.63758087158203,0
1437.2099999999991,-0.000979908974841237,0.0001528202701592818,-0.000967848056461662,0.0,0.0,0.0,0.0,0.0014607771299779415,-0.0012711822055280209,-0.0005959819536656141,0.9979202151298523,0.0,0.0,0.0,0.2905564308166504,1.6006464958190918,4.942704677581787,-52.59129333496094,0
1447.1219999999994,-0.0010384534252807498,0.00014580716378986835,-0.0010129304137080908,0.0,0.0,0.0,0.0,0.0007412280538119376,0.0013650808250531554,-0.00011518888641148806,0.9998630881309509,0.0,0.0,0.0,0.2902211844921112,1.5925296545028687,4.93416166305542,-52.530609130859375,0
1457.0370000000003,-0.0010708910413086414,0.0001803029590519145,-0.0010774540714919567,0.0,0.0,0.0,0.0,-0.0008847948629409075,-0.00024851071066223085,0.002036463003605604,0.9994105100631714,0.0,0.0,0.0,0.28959062695503235,1.590188980102539,4.918834686279297,-52.416481018066406,0
1466.949999999999,-0.0011309778783470392,0.00017492911138106138,-0.0011263057822361588,0.0,0.0,0.0,0.0,0.0006175837479531765,0.004284264519810677,-0.0019120313227176666,1.0002915859222412,0.0,0.0,0.0,0.2900436222553253,1.5771998167037964,4.905613899230957,-52.498470306396484,0
1476.8590000000004,-0.0012164965737611055,0.0002004871203098446,-0.0011618499411270022,0.0,0.0,0.0,0.0,0.0009415877284482121,-0.0005245772772468626,-0.0005734912119805813,1.002089500427246,0.0,0.0,0.0,0.2894462049007416,1.5824801921844482,4.898042678833008,-52.390342712402344,0
1486.777,-0.001280432683415711,0.00019439616880845279,-0.0012081931345164776,0.0,0.0,0.0,0.0,0.0004130844317842275,-0.00018974476552102715,0.0011189631186425686,1.0034332275390625,0.0,0.0,0.0,0.28956133127212524,1.576550006866455,4.886434078216553,-52.41117858886719,0
1496.6810000000005,-0.001374568440951407,0.00020808739645872265,-0.0012466366169974208,0.0,0.0,0.0,0.0,0.0010798362782225013,0.004168086685240269,0.0027363556437194347,0.9987825155258179,0.0,0.0,0.0,0.2883479595184326,1.5701998472213745,4.875718116760254,-52.191551208496094,0
1506.6029999999992,-0.0014434735057875514,0.00019980048818979412,-0.001287499675527215,0.0,0.0,0.0,0.0,0.0012790218461304903,-0.0012974756537005305,6.631749420193955e-05,0.9996216893196106,0.0,0.0,0.0,0.28900575637817383,1.559470772743225,4.86179780960083,-52.31061935424805,0
1516.5079999999998,-0.0014866265701130033,0.00021371935144998133,-0.0013466101372614503,0.0,0.0,0.0,0.0,0.0021541104651987553,0.0005662336479872465,-0.0005770770367234945,1.0006053447723389,0.0,0.0,0.0,0.2882561683654785,1.5583680868148804,4.866224765777588,-52.17494201660156,0
1526.4220000000005,-0.0015563371125608683,0.00020252561080269516,-0.0013896950986236334,0.0,0.0,0.0,0.0,0.0031173794995993376,-0.005981766618788242,0.0013713632943108678,1.0002974271774292,0.0,0.0,0.0,0.28772905468940735,1.5575315952301025,4.846663475036621,-52.079532623291016,0
1536.3359999999993,-0.0016171311726793647,0.00023036629136186093,-0.001441356260329485,0.0,0.0,0.0,0.0,-0.0007483807276003063,-0.0027260712813585997,0.0015345813008025289,1.000177025794983,0.0,0.0,0.0,0.2799082100391388,1.569050908088684,4.846958637237549,-50.66394805908203,0
1546.2489999999998,0.00013977830531075597,-0.0003715564089361578,7.740531145827845e-05,0.0,0.0,0.0,0.0,0.0015592785784974694,-0.0036486967001110315,-0.0005854981718584895,0.9977647662162781,0.0,0.0,0.0,0.2838857173919678,1.5026761293411255,5.03361701965332,-51.38388442993164,0
1556.1579999999994,0.0001729770447127521,-0.000274176913080737,6.574099825229496e-05,0.0,0.0,0.0,0.0,-0.00018000016279984266,0.00019139228970743716,-0.002289084019139409,0.996583878993988,0.0,0.0,0.0,0.28250858187675476,1.5055419206619263,5.0327959060668945,-51.13461685180664,0
1566.065999999999,0.00015419520786963403,-0.00030382766271941364,5.857231735717505e-05,0.0,0.0,0.0,0.0,-0.0010716875549405813,0.00307669909670949,-0.0025792852975428104,0.999295711517334,0.0,0.0,0.0,0.2820620536804199,1.507768988609314,5.032850742340088,-51.05379104614258,0
1575.976999999999,0.00018157438898924738,-0.00021165031648706645,2.319042687304318e-05,0.0,0.0,0.0,0.0,-0.0004228129400871694,-0.005891608074307442,-0.0008891526376828551,0.9987797141075134,0.0,0.0,0.0,0.2741360068321228,1.5336437225341797,5.036499977111816,-49.619163513183594,0
1585.887999999999,0.00016178748046513647,-0.00024228508118540049,1.0520510841161013e-05,0.0,0.0,0.0,0.0,-0.0016786579508334398,0.0020763403736054897,0.0026049783919006586,1.0001482963562012,0.0,0.0,0.0,0.2733307480812073,1.5375829935073853,5.048472881317139,-49.473411560058594,0
1595.7999999999993,0.00015247383271344006,-0.00019280787091702223,1.0322792149963789e-05,0.0,0.0,0.0,0.0,-0.003526670392602682,0.006121686659753323,-0.0024734309408813715,0.9978674054145813,0.0,0.0,0.0,0.273102730512619,1.539613962173462,5.043107032775879,-49.43213653564453,0
1605.7129999999997,0.00022172041644807905,-0.0002930067421402782,-7.587274808429356e-07,0.0,0.0,0.0,0.0,-0.002378369914367795,0.0011525952722877264,0.0013594628544524312,0.9962553381919861,0.0,0.0,0.0,0.27944719791412354,1.5320250988006592,5.048696994781494,-50.58049774169922,0
1615.6329999999998,0.00025035280850715935,-0.00022228625311981887,-3.0137345675029792e-05,0.0,0.0,0.0,0.0,-9.581785707268864e-05,0.0027075023390352726,-0.0020057738292962313,0.9978693723678589,0.0,0.0,0.0,0.2799108624458313,1.5374791622161865,5.048691749572754,-50.664424896240234,0
1625.5409999999993,0.00022978393826633692,-0.0002542751026339829,-4.963181709172204e-05,0.0,0.0,0.0,0.0,0.0019294886151328683,0.00432008458301425,-0.00044423301005735993,1.0004585981369019,0.0,0.0,0.0,0.2784133553504944,1.5296802520751953,5.032047748565674,-50.393367767333984,0
1635.4490000000005,0.0002104331215377897,-0.00022641725081484765,-4.3276348151266575e-05,0.0,0.0,0.0,0.0,-0.0009205451351590455,-0.002935013733804226,-0.002056528115645051,1.0004570484161377,0.0,0.0,0.0,0.27785611152648926,1.5317682027816772,5.026103973388672,-50.292510986328125,0
1645.3619999999992,0.00018599240866024047,-0.00025900130276568234,-6.221796502359211e-05,0.0,0.0,0.0,0.0,-0.0004098049830645323,0.002976406365633011,-0.003754526376724243,1.0020160675048828,0.0,0.0,0.0,0.27672579884529114,1.5199525356292725,5.022348880767822,-50.087921142578125,0
1655.2780000000002,0.00017243874026462436,-0.00019279136904515326,-6.406644388334826e-05,0.0,0.0,0.0,0.0,0.0004510355938691646,-0.0014963336288928986,-0.0015597944147884846,0.9993742108345032,0.0,0.0,0.0,0.2761525511741638,1.5189181566238403,5.011183261871338,-49.98415756225586,0
1665.191999999999,0.00014523096615448594,-0.00022700210683979094,-7.975029438966885e-05,0.0,0.0,0.0,0.0,0.004124725237488747,-0.0004085339605808258,-0.0027465960010886192,0.9995467066764832,0.0,0.0,0.0,0.2761148512363434,1.5173523426055908,5.002288818359375,-49.97733688354492,0
1675.0949999999993,0.0001185383225674741,-0.00018514550174586475,-6.723374826833606e-05,0.0,0.0,0.0,0.0,-0.0030885557644069195,0.0034664806444197893,-0.004778572823852301,0.999051034450531,0.0,0.0,0.0,0.27646729350090027,1.5088945627212524,4.993340492248535,-50.04113006591797,0
1685.012999999999,9.04410335351713e-05,-0.0002186448546126485,-8.147751213982701e-05,0.0,0.0,0.0,0.0,-0.0002322785003343597,-0.003309149295091629,-0.0004813482810277492,0.9973132014274597,0.0,0.0,0.0,0.27528294920921326,1.5066167116165161,4.977626800537109,-49.826759338378906,0
1694.9220000000005,7.361042662523687e-05,-0.00020321515330579132,-0.00011207781790290028,0.0,0.0,0.0,0.0,-0.002034442499279976,0.0017630425281822681,-0.0008666087524034083,0.9991681575775146,0.0,0.0,0.0,0.2754230797290802,1.5117133855819702,4.970884323120117,-49.85212326049805,0
1704.8410000000003,4.441422788659111e-05,-0.0002374699542997405,-0.00013051852874923497,0.0,0.0,0.0,0.0,0.001737030572257936,-0.00011179062130395323,0.004718367010354996,0.9977588653564453,0.0,0.0,0.0,0.273832768201828,1.5105639696121216,4.964890480041504,-49.56428146362305,0
1714.7479999999996,3.0766488634981215e-05,-0.00016671608318574727,-0.00015578958846163005,0.0,0.0,0.0,0.0,-0.0038951970636844635,-0.005238603334873915,-0.0004566197458188981,0.9990535974502563,0.0,0.0,0.0,0.27442672848701477,1.5027453899383545,4.951974391937256,-49.67178726196289,0
1724.6620000000003,-6.565715011674911e-07,-0.0002015333011513576,-0.00017798902990762144,0.0,0.0,0.0,0.0,6.56405245536007e-05,-0.0007238984107971191,0.0014886390417814255,0.9991457462310791,0.0,0.0,0.0,0.27347037196159363,1.5052404403686523,4.952603340148926,-49.49868392944336,0
1734.565999999999,-1.8605554942041636e-05,-0.0001458733604522422,-0.00020694526028819382,0.0,0.0,0.0,0.0,0.0008157927659340203,-0.0004249405756127089,-0.002256890293210745,0.9980080723762512,0.0,0.0,0.0,0.27395015954971313,1.5057289600372314,4.952158451080322,-49.58552169799805,0
1744.4850000000006,-5.4573421948589385e-05,-0.0001802584301913157,-0.00023237403365783393,0.0,0.0,0.0,0.0,-0.0003314435016363859,-0.00045515887904912233,-0.0009591297130100429,0.9995501041412354,0.0,0.0,0.0,0.27411729097366333,1.501989722251892,4.949486255645752,-49.61577606201172,0
1754.3940000000002,-8.868821169016883e-05,-0.00017690988897811621,-0.0002521756396163255,0.0,0.0,0.0,0.0,-6.172207940835506e-05,-0.0007487253751605749,0.0009444494498893619,0.9990426898002625,0.0,0.0,0.0,0.2738439440727234,1.4998635053634644,4.944616794586182,-49.56629943847656,0
1764.304,-0.00012737547513097525,-0.00021245135576464236,-0.0002788877172861248,0.0,0.0,0.0,0.0,0.0010526047553867102,-0.00548961665481329,-0.00011352460569469258,0.9998816251754761,0.0,0.0,0.0,0.273947149515152,1.4926705360412598,4.945055961608887,-49.584983825683594,0
1774.2119999999995,-0.00015892452211119235,-0.00019874071585945785,-0.000297192222205922,0.0,0.0,0.0,0.0,0.0010979812359437346,-0.0001664035808062181,2.5000603272928856e-05,0.9994802474975586,0.0,0.0,0.0,0.2723274827003479,1.4886337518692017,4.9423065185546875,-49.29182052612305,0
1784.1299999999992,-0.0001975306950043887,-0.0002353979944018647,-0.00032383017241954803,0.0,0.0,0.0,0.0,-0.0005237641162239015,-0.0009701366652734578,0.0015642872313037515,1.0011415481567383,0.0,0.0,0.0,0.27214837074279785,1.483891248703003,4.939926624298096,-49.259395599365234,0
1794.0409999999993,-0.0002246583317173645,-0.00021113941329531372,-0.00034101001801900566,0.0,0.0,0.0,0.0,-0.0005992872756905854,-0.0011457580840215087,-0.004888446535915136,0.9999473094940186,0.0,0.0,0.0,0.27352792024612427,1.4838192462921143,4.938675403594971,-49.50909423828125,0
1803.950999999999,-0.0002637890574987978,-0.00024689885322004557,-0.00036679094773717225,0.0,0.0,0.0,0.0,0.0018849802436307073,-0.004273124039173126,0.0006787630845792592,0.9995205998420715,0.0,0.0,0.0,0.2732793092727661,1.4818334579467773,4.931363105773926,-49.46409606933594,0
1813.875,-0.0002988529158756137,-0.0002200261951657012,-0.0003650686703622341,0.0,0.0,0.0,0.0,0.00012678005441557616,-0.002751971362158656,-0.0009018112323246896,0.9999345541000366,0.0,0.0,0.0,0.27406391501426697,1.480625033378601,4.937268257141113,-49.60611343383789,0
1823.7829999999994,-0.00033916119718924165,-0.00025725396699272096,-0.00038921809755265713,0.0,0.0,0.0,0.0,0.0030459309928119183,-0.0009262848179787397,0.001275549060665071,0.9983335137367249,0.0,0.0,0.0,0.2735164165496826,1.476953148841858,4.9325642585754395,-49.507015228271484,0
1833.6939999999995,-0.00033940692082978785,-0.0001899254129966721,-0.0004149098531343043,0.0,0.0,0.0,0.0,0.0009769159369170666,0.0012373303761705756,0.00029611936770379543,0.9974569082260132,0.0,0.0,0.0,0.27517789602279663,1.5154374837875366,4.943042755126953,-49.807743072509766,0
1843.6029999999992,-0.0003806179447565228,-0.00022643388365395367,-0.0004453397705219686,0.0,0.0,0.0,0.0,-0.0009118515881709754,-0.0006313281483016908,-0.0015626392560079694,0.9973177909851074,0.0,0.0,0.0,0.27554816007614136,1.5107994079589844,4.941487789154053,-49.8747673034668,0
1853.518,-0.00037703433190472424,-0.00014660389570053667,-0.00047258881386369467,0.0,0.0,0.0,0.0,-0.00044063624227419496,-0.006373796612024307,0.0022344801109284163,0.9987973570823669,0.0,0.0,0.0,0.2803643047809601,1.5623661279678345,4.9471116065979,-50.746498107910156,0
1863.440999999999,-0.0004146597348153591,-0.0001734951656544581,-0.000505742384120822,0.0,0.0,0.0,0.0,0.002007407136261463,6.898168794577941e-05,0.0025177239440381527,0.9999594688415527,0.0,0.0,0.0,0.2811550498008728,1.5596064329147339,4.95562744140625,-50.88962173461914,0
1873.3410000000003,-0.00042141537414863706,-0.00011961518612224609,-0.0005415407940745354,0.0,0.0,0.0,0.0,-0.0015404095174744725,-0.004948400426656008,0.003352639963850379,1.0015820264816284,0.0,0.0,0.0,0.27982279658317566,1.5970717668533325,4.96993350982666,-50.64848327636719,0
1883.2520000000004,0.00017602914886083454,-0.0003580700431484729,-5.881166725885123e-05,0.0,0.0,0.0,0.0,-0.00595370028167963,0.00040091603295877576,0.0015366252046078444,1.0010570287704468,0.0,0.0,0.0,0.28780072927474976,1.5551847219467163,5.0838236808776855,-52.09250259399414,0
1893.1679999999997,0.0001950154546648264,-0.0002754709857981652,-5.5469416111009195e-05,0.0,0.0,0.0,0.0,-0.003801167942583561,-0.0050505381077528,-0.0029879629146307707,0.9990070462226868,0.0,0.0,0.0,0.2874915301799774,1.5552875995635986,5.080658435821533,-52.03654098510742,0
1903.08,0.0001798250013962388,-0.0003049285151064396,-6.873045640531927e-05,0.0,0.0,0.0,0.0,0.001227717730216682,-0.0015309654409065843,0.0011215402046218514,1.0003249645233154,0.0,0.0,0.0,0.2868346571922302,1.557237982749939,5.0818257331848145,-51.91764450073242,0
1912.985999999999,0.00018547642685007304,-0.00024300444056279957,-7.28328523109667e-05,0.0,0.0,0.0,0.0,-0.000579475425183773,-0.0024608848616480827,-0.0007674975786358118,1.0019201040267944,0.0,0.0,0.0,0.2868110239505768,1.5551944971084595,5.072687149047852,-51.91336441040039,0
1922.896999999999,0.00016733919619582593,-0.00027318589854985476,-8.498736860929057e-05,0.0,0.0,0.0,0.0,-0.003053263993933797,0.004733534064143896,0.0007871087873354554,1.0017794370651245,0.0,0.0,0.0,0.2864510118961334,1.5537397861480713,5.073994159698486,-51.84819793701172,0
1932.813,0.000149581566802226,-0.00021935830591246486,-6.028681673342362e-05,0.0,0.0,0.0,0.0,-0.0005898925592191517,0.0009272546740248799,-0.001671410514973104,1.000492811203003,0.0,0.0,0.0,0.2859295904636383,1.551120638847351,5.059406280517578,-51.753822326660156,0
1942.7199999999993,0.00012664622045122087,-0.00024914450477808714,-6.682117964373901e-05,0.0,0.0,0.0,0.0,0.00037574206362478435,0.001795945456251502,7.632953202119097e-05,0.999199390411377,0.0,0.0,0.0,0.28587689995765686,1.5473870038986206,5.045936584472656,-51.744285583496094,0
1952.6299999999992,9.845104796113446e-05,-0.00020607133046723902,-2.7392656193114817e-05,0.0,0.0,0.0,0.0,-0.0021956153213977814,-0.0038844002410769463,-0.0031776376999914646,0.9981544613838196,0.0,0.0,0.0,0.27864694595336914,1.561579942703247,5.038148403167725,-50.43565368652344,0
1962.5460000000003,7.242478022817522e-05,-0.0002378072967985645,-3.099189780186862e-05,0.0,0.0,0.0,0.0,-0.00023691596288699657,0.005459170788526535,-0.002236492233350873,1.000154972076416,0.0,0.0,0.0,0.27816644310951233,1.5612986087799072,5.041181564331055,-50.34868240356445,0
1972.4619999999995,5.234702621237375e-05,-0.00018862435535993427,-2.861157372535672e-05,0.0,0.0,0.0,0.0,0.0012460736325010657,-0.00296411057934165,-0.0006442160811275244,0.9994844198226929,0.0,0.0,0.0,0.2766880691051483,1.5598163604736328,5.019196510314941,-50.08108901977539,0
1982.3680000000004,2.1762469259556383e-05,-0.00022354167595040053,-3.2726187782827765e-05,0.0,0.0,0.0,0.0,0.0008892039768397808,-0.007451185956597328,5.1426781283225864e-05,1.0007294416427612,0.0,0.0,0.0,0.27543729543685913,1.5572400093078613,5.012342929840088,-49.85469436645508,0
1992.271999999999,-5.227781457506353e-06,-0.00018212894792668521,-1.740023071761243e-05,0.0,0.0,0.0,0.0,0.0006496327114291489,0.0034171934239566326,-0.0005279401666484773,1.0017365217208862,0.0,0.0,0.0,0.2752634882926941,1.5564535856246948,5.017675399780273,-49.823238372802734,0
2002.1929999999993,-3.540772377164103e-05,-0.0002169052022509277,-1.9386043277336285e-05,0.0,0.0,0.0,0.0,0.003727794624865055,0.0003167794202454388,-2.9993921998539008e-05,1.0010912418365479,0.0,0.0,0.0,0.2759014070034027,1.554429531097412,5.015531539916992,-49.93870544433594,0
2012.1180000000004,-5.072160638519563e-05,-0.00021102801838424057,-5.023171615903266e-05,0.0,0.0,0.0,0.0,0.0017351357964798808,-0.002566253999248147,0.0004890651325695217,1.0001461505889893,0.0,0.0,0.0,0.2759326696395874,1.5530710220336914,5.0132880210876465,-49.94436264038086,0
2022.030999999999,-7.957971683936194e-05,-0.0002473984204698354,-5.2487495850073174e-05,0.0,0.0,0.0,0.0,0.0018616365268826485,-0.004837843589484692,0.0017173989908769727,0.9981187582015991,0.0,0.0,0.0,0.2756890654563904,1.5534390211105347,5.00206184387207,-49.9002685546875,0
2031.9279999999999,-9.913100075209513e-05,-0.0002255837753182277,-5.632158354273997e-05,0.0,0.0,0.0,0.0,-8.785669706412591e-06,0.005043529439717531,-0.003349688369780779,1.0000355243682861,0.0,0.0,0.0,0.27550390362739563,1.5461963415145874,5.00170373916626,-49.86674880981445,0
2041.8459999999995,-0.0001281003060285002,-0.0002639228478074074,-6.066148853278719e-05,0.0,0.0,0.0,0.0,-0.001574269961565733,-0.0027964403852820396,0.0011833346216008067,0.9997115731239319,0.0,0.0,0.0,0.2740887999534607,1.5427860021591187,4.991812229156494,-49.61061477661133,0
2051.753999999999,-0.0001429246476618573,-0.00023419743229169399,-7.864584767958149e-05,0.0,0.0,0.0,0.0,0.001112296711653471,0.0024448821786791086,0.0010429989779368043,0.9983335137367249,0.0,0.0,0.0,0.2748773992061615,1.534029245376587,4.989887237548828,-49.75335693359375,0
2061.6620000000003,-0.0001740201551001519,-0.0002712897548917681,-8.514321962138638e-05,0.0,0.0,0.0,0.0,-0.00035193352960050106,0.004625313449651003,0.0011159571586176753,0.9989548325538635,0.0,0.0,0.0,0.2741018831729889,1.5340068340301514,4.983985424041748,-49.61298751831055,0
2071.581,-0.00015899473510216922,-0.0001792370167095214,-0.00014045987336430699,0.0,0.0,0.0,0.0,0.002617255551740527,-0.0006392885115928948,0.0001250451896339655,1.0002769231796265,0.0,0.0,0.0,0.2758701741695404,1.578565239906311,4.996007442474365,-49.933048248291016,0
2081.491,-0.00018813919450622052,-0.0002106012834701687,-0.00015293607430066913,0.0,0.0,0.0,0.0,0.0021085920743644238,0.0034581581130623817,-0.0012592796701937914,0.9974835515022278,0.0,0.0,0.0,0.27588292956352234,1.5769529342651367,4.990230560302734,-49.93535614013672,0
2091.4089999999997,-0.0001750622905092314,-0.00016510733985342085,-0.00022112873557489365,0.0,0.0,0.0,0.0,-0.0015629411209374666,-5.411208621808328e-05,-0.0015004505403339863,0.9994099140167236,0.0,0.0,0.0,0.27523207664489746,1.5731083154678345,4.9812211990356445,-49.81755065917969,0
2101.3060000000005,-0.00020282123296055943,-0.000194574793567881,-0.00024082303571049124,0.0,0.0,0.0,0.0,-0.0007129349978640676,0.0020406129769980907,-0.0006891554221510887,0.9991596341133118,0.0,0.0,0.0,0.2746269106864929,1.5687199831008911,4.971858978271484,-49.70801544189453,0
2111.224,-0.0001909295388031751,-0.0001238699333043769,-0.0002802335366141051,0.0,0.0,0.0,0.0,-0.000550360418856144,0.0030846605077385902,-0.0014158134581521153,0.998497486114502,0.0,0.0,0.0,0.26954221725463867,1.6147394180297852,4.987062931060791,-48.78767395019531,0
2121.128999999999,-0.00021630074479617178,-0.00015142475604079664,-0.00030410432373173535,0.0,0.0,0.0,0.0,-1.4203516002453398e-05,0.004102219827473164,0.0017912975745275617,0.9999718070030212,0.0,0.0,0.0,0.26972174644470215,1.6081331968307495,4.97268533706665,-48.82017517089844,0
2131.0470000000005,-0.000209820966119878,-9.573812712915242e-05,-0.0003357097157277167,0.0,0.0,0.0,0.0,0.0007785717025399208,0.001558156916871667,0.0018785319989547133,0.9991042613983154,0.0,0.0,0.0,0.27044910192489624,1.6381416320800781,4.976186275482178,-48.95182800292969,0
2140.949999999999,0.00019254752260167152,-0.0002923781576100737,-3.629746788647026e-05,0.0,0.0,0.0,0.0,0.0008661330793984234,-0.0004736781702376902,0.0015971559332683682,0.9997612237930298,0.0,0.0,0.0,0.27016282081604004,1.6020233631134033,5.044999122619629,-48.90000915527344,0
2150.870999999999,0.00022495536541100591,-0.0002169165527448058,-4.7924182581482455e-05,0.0,0.0,0.0,0.0,-0.00011708183592418209,-0.000835053448099643,-0.006078580394387245,1.0005061626434326,0.0,0.0,0.0,0.27063408493995667,1.6020548343658447,5.043853282928467,-48.98530960083008,0
2160.776,0.00021821101836394519,-0.0002521870192140341,-6.355771620292217e-05,0.0,0.0,0.0,0.0,-0.0025075168814510107,0.0033575918059796095,-0.002881306456401944,1.000098705291748,0.0,0.0,0.0,0.2688354551792145,1.599489450454712,5.046424865722656,-48.65975570678711,0
2170.6980000000003,0.00022951628488954157,-0.000217715380131267,-7.655013905605301e-05,0.0,0.0,0.0,0.0,0.0010125046828761697,0.0028047494124621153,9.957342626876198e-06,0.999688982963562,0.0,0.0,0.0,0.26759085059165955,1.5994374752044678,5.039852619171143,-48.434478759765625,0
2180.6049999999996,0.00022551766596734524,-0.0002477441157680005,-0.00010104913963004947,0.0,0.0,0.0,0.0,-0.004744512960314751,0.004492673557251692,-0.0006854315870441496,1.0009760856628418,0.0,0.0,0.0,0.2753666043281555,1.5940815210342407,5.021009922027588,-49.84189987182617,0
2190.5190000000002,0.00022590708977077156,-0.0002441356482449919,-0.00011588028428377584,0.0,0.0,0.0,0.0,0.0005368393613025546,-0.001063646748661995,-0.0014945685397833586,1.0004489421844482,0.0,0.0,0.0,0.2749292254447937,1.5994099378585815,5.004225254058838,-49.762733459472656,0
2200.4220000000005,0.00021073277457617223,-0.00028414381085895,-0.00013112305896356702,0.0,0.0,0.0,0.0,0.0027441387064754963,-0.0018827550811693072,0.002480677794665098,1.0008522272109985,0.0,0.0,0.0,0.2756536900997162,1.6005620956420898,4.998983860015869,-49.89387130737305,0
2210.352999999999,0.00019126171537209302,-0.0002703996724449098,-0.00011199678556295112,0.0,0.0,0.0,0.0,-0.002833970822393894,-0.00507323956117034,0.0007618865347467363,0.9984596371650696,0.0,0.0,0.0,0.27500221133232117,1.5993832349777222,4.998744964599609,-49.77594757080078,0
2220.2469999999994,0.00017489618039689958,-0.0003133165300823748,-0.00012391945347189903,0.0,0.0,0.0,0.0,0.0017039686208590865,-0.004891485441476107,0.0004334702680353075,0.9974722862243652,0.0,0.0,0.0,0.27504053711891174,1.5991179943084717,5.004739284515381,-49.78288269042969,0
2230.1669999999995,0.00014832173474133015,-0.00028844745247624815,-8.963416621554643e-05,0.0,0.0,0.0,0.0,-0.00332081550732255,-0.0005898182280361652,-0.0009312464972026646,0.999085009098053,0.0,0.0,0.0,0.27440145611763,1.595371961593628,4.998135089874268,-49.667205810546875,0
