timestamp,stateEstimate.x,stateEstimate.y,stateEstimate.z,controller.cmd_thrust,controller.cmd_roll,controller.cmd_pitch,controller.cmd_yaw,controller.r_roll,controller.r_pitch,controller.r_yaw,controller.accelz,controller.actuatorThrust,controller.roll,controller.pitch,controller.yaw,controller.rollRate,controller.pitchRate,controller.yawRate,controller.ctr_yaw
0.0,0.029080966487526894,0.025421522557735443,0.00020734689314849675,0.0,0.0,0.0,0.0,0.00015042904124129564,0.003171241842210293,-0.0004113386676181108,0.9983343482017517,0.0,0.0,0.0,-7.23002815246582,0.6142489314079285,4.9757280349731445,1308.6494140625,0
9.911000000000058,0.029021799564361572,0.025422440841794014,0.00018049441860057414,0.0,0.0,0.0,0.0,-0.0011997753754258156,-0.0034799017012119293,-0.0012039941502735019,1.0008254051208496,0.0,0.0,0.0,-7.221749782562256,0.6144232749938965,4.975388526916504,1307.1510009765625,0
19.824000000000524,0.029871197417378426,0.02514149248600006,0.0009114720742218196,0.0,0.0,0.0,0.0,0.002074576448649168,-0.0011567329056560993,-0.002885045250877738,0.9999769926071167,0.0,0.0,0.0,-7.2353973388671875,0.5955683588981628,5.115658283233643,1309.621337890625,0
29.726000000000568,0.029850207269191742,0.02512824907898903,0.0009116515866480768,0.0,0.0,0.0,0.0,0.0013968631392344832,0.005067422520369291,-0.0030143659096211195,1.0004942417144775,0.0,0.0,0.0,-7.228446960449219,0.5931441783905029,5.116903781890869,1308.36328125,0
39.652000000000044,0.02989979274570942,0.025085873901844025,0.0009170807315967977,0.0,0.0,0.0,0.0,0.0020133417565375566,0.00026921473909169436,-0.001434135134331882,0.9983630180358887,0.0,0.0,0.0,-7.238546848297119,0.5854889154434204,5.1150407791137695,1310.19140625,0
49.54399999999987,0.0298758614808321,0.02506856992840767,0.0009173195576295257,0.0,0.0,0.0,0.0,0.000507377611938864,-1.1728221807061345e-06,-0.0022402536123991013,0.9995811581611633,0.0,0.0,0.0,-7.2317585945129395,0.584147572517395,5.101194381713867,1308.962646484375,0
59.45900000000074,0.029894888401031494,0.025056347250938416,0.0009314084309153259,0.0,0.0,0.0,0.0,-0.0006218940252438188,0.0006692978786304593,-0.0023156432434916496,1.0006846189498901,0.0,0.0,0.0,-7.245546340942383,0.5810904502868652,5.096232891082764,1311.458251953125,0
69.36499999999978,0.029868662357330322,0.02503528818488121,0.0009313201298937201,0.0,0.0,0.0,0.0,-0.0017757996683940291,-0.0014731541741639376,-0.0009395398665219545,1.0001214742660522,0.0,0.0,0.0,-7.2383880615234375,0.5871374607086182,5.086881160736084,1310.16259765625,0
79.28600000000006,0.0298844613134861,0.025021862238645554,0.0009438222041353583,0.0,0.0,0.0,0.0,0.0007735309773124754,0.0014369965065270662,-0.00036758530768565834,0.9998922944068909,0.0,0.0,0.0,-7.246479511260986,0.589611291885376,5.086729526519775,1311.627197265625,0
89.1890000000003,0.02986065484583378,0.024999145418405533,0.0009454690734855831,0.0,0.0,0.0,0.0,-0.004623693879693747,-0.006309881806373596,0.0007970946608111262,1.000038504600525,0.0,0.0,0.0,-7.240067481994629,0.585619330406189,5.0772013664245605,1310.4666748046875,0
99.11000000000058,0.029855558648705482,0.025006208568811417,0.0009760517277754843,0.0,0.0,0.0,0.0,0.0011614123359322548,0.0016635162755846977,-0.0032422211952507496,0.9981405735015869,0.0,0.0,0.0,-7.247307777404785,0.5975041389465332,5.067821502685547,1311.7772216796875,0
109.01000000000022,0.029830869287252426,0.02498570829629898,0.000979722710326314,0.0,0.0,0.0,0.0,0.001802512793801725,-0.0019881296902894974,-0.00033396767685189843,0.9987443089485168,0.0,0.0,0.0,-7.239458084106445,0.5973533391952515,5.062417984008789,1310.3563232421875,0
118.92900000000009,0.029834134504199028,0.025002559646964073,0.0010165564017370343,0.0,0.0,0.0,0.0,-0.0011641450691968203,0.002965749241411686,0.0033878665417432785,0.9996320009231567,0.0,0.0,0.0,-7.249904632568359,0.6080611348152161,5.058944225311279,1312.2471923828125,0
128.83200000000033,0.02980903349816799,0.024985842406749725,0.0010209428146481514,0.0,0.0,0.0,0.0,0.0014601104194298387,0.0007492189179174602,-0.0011554807424545288,0.9991431832313538,0.0,0.0,0.0,-7.242684364318848,0.6021767258644104,5.056173801422119,1310.9403076171875,0
138.7569999999996,0.029816243797540665,0.0249981340020895,0.0010551068698987365,0.0,0.0,0.0,0.0,0.003177406033501029,0.003615638241171837,0.0019248685566708446,0.9988318085670471,0.0,0.0,0.0,-7.252565860748291,0.6159024834632874,5.041141986846924,1312.7288818359375,0
148.65500000000065,0.029791468754410744,0.024982042610645294,0.0010608637239784002,0.0,0.0,0.0,0.0,-0.0019820642191916704,0.002710211556404829,-0.0006386897875927389,0.9992520213127136,0.0,0.0,0.0,-7.243995666503906,0.611070454120636,5.041880130767822,1311.1776123046875,0
158.57699999999932,0.029829073697328568,0.024965448305010796,0.0010753714013844728,0.0,0.0,0.0,0.0,2.760437928372994e-05,0.0014203567989170551,-0.004071069415658712,0.997287929058075,0.0,0.0,0.0,-7.249598979949951,0.6071550846099854,5.046652317047119,1312.1917724609375,0
168.4860000000008,0.02980431169271469,0.024949457496404648,0.001080413581803441,0.0,0.0,0.0,0.0,-0.002781297778710723,-0.00047461199574172497,0.00046815420500934124,0.9992555379867554,0.0,0.0,0.0,-7.242686748504639,0.6083554029464722,5.042367935180664,1310.9407958984375,0
178.40200000000004,0.029780004173517227,0.02493300661444664,0.0010892132995650172,0.0,0.0,0.0,0.0,-0.003354080021381378,0.0015383954159915447,-0.001290047075599432,1.0008021593093872,0.0,0.0,0.0,-7.255815505981445,0.6155220866203308,5.034936428070068,1313.3170166015625,0
188.3040000000001,0.0297525767236948,0.024918772280216217,0.0010919594205915928,0.0,0.0,0.0,0.0,0.004158239811658859,-0.005734405945986509,-0.0008264207281172276,0.9998375177383423,0.0,0.0,0.0,-7.248718738555908,0.613972544670105,5.034245491027832,1312.032470703125,0
198.22099999999955,0.029783595353364944,0.02490970492362976,0.0011164902243763208,0.0,0.0,0.0,0.0,0.004034624435007572,0.004438272677361965,0.0007117631030268967,0.998207151889801,0.0,0.0,0.0,-7.258301734924316,0.6206377744674683,5.049558162689209,1313.76708984375,0
208.1229999999996,0.029794562608003616,0.024916157126426697,0.001145172049291432,0.0,0.0,0.0,0.0,-0.0006207978585734963,0.0015212774742394686,0.0021433213260024786,0.9958468675613403,0.0,0.0,0.0,-7.262679576873779,0.633344829082489,5.053735733032227,1314.5594482421875,0
218.0490000000009,0.02984670363366604,0.025075243785977364,0.0007704339222982526,0.0,0.0,0.0,0.0,0.0016397250583395362,-0.005088150035589933,0.004866277799010277,0.9996955394744873,0.0,0.0,0.0,-7.270646095275879,0.6632537245750427,5.062310218811035,1316.0013427734375,0
227.9459999999999,0.029880572110414505,0.025092273950576782,0.0008110907510854304,0.0,0.0,0.0,0.0,7.785232446622103e-05,-0.004463924095034599,0.0029328481759876013,1.002050518989563,0.0,0.0,0.0,-7.274735927581787,0.6653648018836975,5.062611103057861,1316.7415771484375,0
237.86399999999958,0.029880275949835777,0.02513056807219982,0.0007708095945417881,0.0,0.0,0.0,0.0,0.0003845904429908842,0.0006920064915902913,0.0009554119314998388,1.0014597177505493,0.0,0.0,0.0,-7.2748613357543945,0.6745238900184631,5.061837673187256,1316.7642822265625,0
247.76900000000023,0.029932960867881775,0.025121500715613365,0.0008005793206393719,0.0,0.0,0.0,0.0,-0.003512405790388584,-0.001960508292540908,0.0005430323071777821,1.0010972023010254,0.0,0.0,0.0,-7.285089492797852,0.6786519289016724,5.070466995239258,1318.61572265625,0
257.6980000000003,0.029944507405161858,0.025165634229779243,0.0007574668270535767,0.0,0.0,0.0,0.0,0.0017803598893806338,0.0013161059468984604,0.00037950047408230603,1.0003843307495117,0.0,0.0,0.0,-7.288412570953369,0.6845897436141968,5.077842712402344,1319.217041015625,0
267.59100000000035,0.02994617633521557,0.02513708360493183,0.0007525729015469551,0.0,0.0,0.0,0.0,0.001955728977918625,0.0008530780905857682,-0.0011550108902156353,0.9992101788520813,0.0,0.0,0.0,-7.2910542488098145,0.682648777961731,5.0634074211120605,1319.6951904296875,0
277.5120000000006,0.029933985322713852,0.025144396349787712,0.0007723340531811118,0.0,0.0,0.0,0.0,0.0008148039341904223,0.001496999990195036,0.0010780199663713574,0.9994804263114929,0.0,0.0,0.0,-7.304512023925781,0.6855940818786621,5.062131404876709,1322.1312255859375,0
287.4150000000009,0.029872315004467964,0.025114888325333595,0.000745877914596349,0.0,0.0,0.0,0.0,0.0022276996169239283,0.002383035607635975,0.0020321912597864866,1.0004992485046387,0.0,0.0,0.0,-7.303046226501465,0.6742299795150757,5.0407209396362305,1321.8658447265625,0
297.33500000000095,0.029876919463276863,0.02513006143271923,0.0007424866198562086,0.0,0.0,0.0,0.0,0.0011345072416588664,-0.0009234339231625199,0.002185068093240261,0.9993012547492981,0.0,0.0,0.0,-7.315118312835693,0.6781924366950989,5.041257381439209,1324.051025390625,0
307.2360000000008,0.02992181107401848,0.02511916682124138,0.0007583718397654593,0.0,0.0,0.0,0.0,0.001993665937334299,-0.00245879334397614,0.002119192387908697,0.9982997179031372,0.0,0.0,0.0,-7.313901901245117,0.6773183345794678,5.042871475219727,1323.830810546875,0
317.15999999999985,0.0298913661390543,0.025136033073067665,0.0007699169800616801,0.0,0.0,0.0,0.0,0.0017891164170578122,0.0014709425158798695,-0.001572710694745183,1.0009417533874512,0.0,0.0,0.0,-7.31571626663208,0.6749901175498962,5.037189483642578,1324.1591796875,0
327.0619999999999,0.029855236411094666,0.02513299137353897,0.0007657648529857397,0.0,0.0,0.0,0.0,0.00021332655160222203,0.001266297185793519,-0.000911349430680275,1.0001736879348755,0.0,0.0,0.0,-7.327423095703125,0.6728859543800354,5.025966644287109,1326.278076171875,0
336.9860000000008,0.02983969822525978,0.02515995502471924,0.0007581191603094339,0.0,0.0,0.0,0.0,0.0009258310892619193,0.0006425124011002481,0.0008567696204409003,0.997420072555542,0.0,0.0,0.0,-7.330041885375977,0.6800253987312317,5.013854026794434,1326.7520751953125,0
346.884,0.029803872108459473,0.02518322691321373,0.0007637639064341784,0.0,0.0,0.0,0.0,0.0013515613973140717,-0.001499788137152791,-0.00147501181345433,0.9986442923545837,0.0,0.0,0.0,-7.330944061279297,0.6852373480796814,5.006864070892334,1326.91552734375,0
356.8060000000005,0.029795093461871147,0.025219952687621117,0.0007434258004650474,0.0,0.0,0.0,0.0,0.0005910689360462129,0.004428616724908352,-0.004206915386021137,1.0001217126846313,0.0,0.0,0.0,-7.322931289672852,0.6827121376991272,5.000741481781006,1325.4652099609375,0
366.71299999999974,0.029764393344521523,0.025220604613423347,0.0007373689441010356,0.0,0.0,0.0,0.0,0.0006797043606638908,0.003844066523015499,0.00358699937351048,0.9978222846984863,0.0,0.0,0.0,-7.316336154937744,0.6751284599304199,4.990506649017334,1324.271484375,0
376.6219999999994,0.029745107516646385,0.025236787274479866,0.0007226684829220176,0.0,0.0,0.0,0.0,0.0011784469243139029,-0.0024662662763148546,0.0018169624963775277,0.9992040395736694,0.0,0.0,0.0,-7.314742088317871,0.6774667501449585,4.980861663818359,1323.98291015625,0
386.53499999999985,0.029715262353420258,0.025238122791051865,0.0007141933310776949,0.0,0.0,0.0,0.0,-0.0006441829027608037,-0.0024373941123485565,0.00261669815517962,0.9998370409011841,0.0,0.0,0.0,-7.306788444519043,0.6779881119728088,4.979369163513184,1322.543212890625,0
396.45700000000033,0.029698312282562256,0.025247348472476006,0.000685658014845103,0.0,0.0,0.0,0.0,0.0014042448019608855,0.0008413377217948437,0.0032702514436095953,0.9999691247940063,0.0,0.0,0.0,-7.310640335083008,0.6848739981651306,4.981582164764404,1323.2406005859375,0
406.35000000000036,0.0296663586050272,0.025250153616070747,0.0006749869207851589,0.0,0.0,0.0,0.0,0.00034284856519661844,0.001274807145819068,-0.003195759141817689,0.9997608065605164,0.0,0.0,0.0,-7.302075386047363,0.6827969551086426,4.976191997528076,1321.6903076171875,0
416.27000000000044,0.02967444807291031,0.02533450722694397,0.0006290317978709936,0.0,0.0,0.0,0.0,0.004300231114029884,-0.00171108718495816,-0.0042893304489552975,0.9976518154144287,0.0,0.0,0.0,-7.294602394104004,0.6850200891494751,4.972469806671143,1320.3375244140625,0
426.1890000000003,0.02964540757238865,0.025341438129544258,0.000613926793448627,0.0,0.0,0.0,0.0,-0.001086485106498003,-0.0007867927197366953,0.001183675485663116,0.9994174838066101,0.0,0.0,0.0,-7.287619113922119,0.6741687059402466,4.972100257873535,1319.073486328125,0
436.08500000000095,0.02963237650692463,0.025350281968712807,0.0005707860109396279,0.0,0.0,0.0,0.0,-0.0012575609143823385,0.0007971128216013312,-0.0038840684574097395,1.0004541873931885,0.0,0.0,0.0,-7.2859320640563965,0.6739401817321777,4.982871055603027,1318.76806640625,0
446.0040000000008,0.029601935297250748,0.02535891719162464,0.0005514067597687244,0.0,0.0,0.0,0.0,-0.002424956299364567,-0.0009222847875207663,0.0009279034566134214,0.9995281100273132,0.0,0.0,0.0,-7.280188083648682,0.6758269667625427,4.973633766174316,1317.728515625,0
455.91100000000006,0.02959389239549637,0.025370817631483078,0.0004967840504832566,0.0,0.0,0.0,0.0,0.0010062622604891658,-0.0030071239452809095,-0.002473275875672698,0.9987823367118835,0.0,0.0,0.0,-7.2869181632995605,0.6856750845909119,4.979866027832031,1318.9466552734375,0
465.8269999999993,0.029561560600996017,0.025380058214068413,0.0004743135650642216,0.0,0.0,0.0,0.0,0.0014422137755900621,0.0023603481240570545,-0.0024171939585357904,0.9986190795898438,0.0,0.0,0.0,-7.280031681060791,0.6801882386207581,4.980594635009766,1317.7001953125,0
475.7350000000006,0.02954130619764328,0.025383133441209793,0.0004274551756680012,0.0,0.0,0.0,0.0,0.003487009322270751,0.0034193943720310926,0.0006883580354042351,0.9975260496139526,0.0,0.0,0.0,-7.28122615814209,0.6786125898361206,4.983518123626709,1317.9163818359375,0
485.64700000000084,0.029507221654057503,0.025390347465872765,0.0004010327102150768,0.0,0.0,0.0,0.0,-0.0017008263384923339,-9.482204040978104e-05,-0.002127361483871937,1.0003241300582886,0.0,0.0,0.0,-7.273482799530029,0.6751542091369629,4.9714035987854,1316.5147705078125,0
495.5570000000007,0.02948549948632717,0.025430165231227875,0.0003736168728210032,0.0,0.0,0.0,0.0,0.002504992764443159,0.0014070633333176374,-1.8639357222127728e-05,0.9995672106742859,0.0,0.0,0.0,-7.280011177062988,0.687183141708374,4.981470584869385,1317.6964111328125,0
505.47600000000057,0.029449785128235817,0.025437036529183388,0.0003455108089838177,0.0,0.0,0.0,0.0,0.00045978656271472573,0.0031295795924961567,0.00011671066749840975,0.9985025525093079,0.0,0.0,0.0,-7.273589134216309,0.6836206912994385,4.964681148529053,1316.5340576171875,0
515.3760000000002,0.029425308108329773,0.0254303440451622,0.00029055445338599384,0.0,0.0,0.0,0.0,0.0022631208412349224,-0.0026024682447314262,-0.0006446337793022394,0.9994663596153259,0.0,0.0,0.0,-7.276943683624268,0.6789216995239258,4.965660572052002,1317.1412353515625,0
525.2929999999997,0.029387174174189568,0.02543378435075283,0.0002589990326669067,0.0,0.0,0.0,0.0,0.0009199762716889381,0.002007672330364585,-0.0041115861386060715,0.9988570213317871,0.0,0.0,0.0,-7.2689619064331055,0.6819049119949341,4.968920707702637,1315.696533203125,0
535.2000000000007,0.029353460296988487,0.025478806346654892,0.00023966671142261475,0.0,0.0,0.0,0.0,0.0007939799106679857,-0.001140696695074439,0.000535662577021867,0.998959481716156,0.0,0.0,0.0,-7.273096561431885,0.6971383094787598,4.967180252075195,1316.4449462890625,0
545.1180000000004,0.029313411563634872,0.02548583224415779,0.0002072748466162011,0.0,0.0,0.0,0.0,0.0014754168223589659,0.004086246248334646,-0.0016473534051328897,0.9973775744438171,0.0,0.0,0.0,-7.266493797302246,0.6978434324264526,4.959916591644287,1315.2498779296875,0
555.0210000000006,0.02928352542221546,0.02551751583814621,0.00016836963186506182,0.0,0.0,0.0,0.0,0.0014477729564532638,0.0018856677925214171,0.003173725912347436,1.001058578491211,0.0,0.0,0.0,-7.2730302810668945,0.7096906900405884,4.951922416687012,1316.432861328125,0
564.9420000000009,0.029241546988487244,0.025526469573378563,0.00013261540152598172,0.0,0.0,0.0,0.0,0.00145628466270864,0.0009544207132421434,-0.0023935262579470873,1.0019071102142334,0.0,0.0,0.0,-7.266425132751465,0.7066892385482788,4.93977689743042,1315.2373046875,0
574.8449999999993,0.029199091717600822,0.025535549968481064,9.758769010659307e-05,0.0,0.0,0.0,0.0,-9.562714694766328e-05,-0.0034493592102080584,0.0025924954097718,0.9987789392471313,0.0,0.0,0.0,-7.258855819702148,0.7069122195243835,4.926610469818115,1313.8673095703125,0
584.7620000000006,0.029155610129237175,0.025545239448547363,6.357250094879419e-05,0.0,0.0,0.0,0.0,0.00017590311472304165,0.001462743035517633,-0.00011819457722594962,0.9991369843482971,0.0,0.0,0.0,-7.251855850219727,0.7061598300933838,4.930306434631348,1312.600341796875,0
594.6659999999993,0.029110988602042198,0.025554506108164787,2.9191825888119638e-05,0.0,0.0,0.0,0.0,-0.0021661892533302307,-0.00017832020239438862,-0.0041801766492426395,0.9992001056671143,0.0,0.0,0.0,-7.244236469268799,0.7040932178497314,4.941838264465332,1311.2213134765625,0
604.5959999999995,0.02990960143506527,0.025266312062740326,0.0006879876600578427,0.0,0.0,0.0,0.0,0.002570661948993802,0.002805332187563181,-0.004335371777415276,0.9990186095237732,0.0,0.0,0.0,-7.25770378112793,0.674150288105011,5.075692653656006,1313.658935546875,0
614.4930000000004,0.029896114021539688,0.025260988622903824,0.0006771610351279378,0.0,0.0,0.0,0.0,-0.0009515826241113245,-0.0021089904475957155,0.003996444866061211,1.0003111362457275,0.0,0.0,0.0,-7.250560283660889,0.6695300340652466,5.066169261932373,1312.365966796875,0
624.4110000000001,0.029954589903354645,0.025211350992321968,0.0006664131651632488,0.0,0.0,0.0,0.0,0.004690870642662048,0.0008750917040742934,0.0009576516458764672,1.0001990795135498,0.0,0.0,0.0,-7.252904891967773,0.6559708118438721,5.0781636238098145,1312.790283203125,0
634.3109999999997,0.029941512271761894,0.0252030398696661,0.0006555032450705767,0.0,0.0,0.0,0.0,-0.0021037827245891094,0.004009643569588661,-0.0006336229271255434,1.0001132488250732,0.0,0.0,0.0,-7.246181488037109,0.6512423753738403,5.065535545349121,1311.5732421875,0
644.2309999999998,0.029955189675092697,0.02520100213587284,0.0006552916020154953,0.0,0.0,0.0,0.0,-0.0013973438180983067,0.00031327109900303185,-0.002112084301188588,0.9991182088851929,0.0,0.0,0.0,-7.2564377784729,0.6506965160369873,5.054454326629639,1313.4296875,0
654.134,0.029940497130155563,0.025193210691213608,0.0006457060226239264,0.0,0.0,0.0,0.0,0.0008967117173597217,-0.000767983088735491,0.0013389874948188663,0.9978495240211487,0.0,0.0,0.0,-7.2486982345581055,0.6470984220504761,5.050553321838379,1312.02880859375,0
664.0580000000009,0.029933994635939598,0.0251995250582695,0.0006488253129646182,0.0,0.0,0.0,0.0,0.0027690324932336807,0.004105827305465937,-0.0016877203015610576,0.9986938834190369,0.0,0.0,0.0,-7.256773471832275,0.6494842767715454,5.052055835723877,1313.490478515625,0
673.9580000000005,0.02991579845547676,0.025192098692059517,0.0006377565441653132,0.0,0.0,0.0,0.0,-0.001128101022914052,0.001907160272821784,-0.0004964342224411666,0.9981821179389954,0.0,0.0,0.0,-7.250238418579102,0.6471878886222839,5.029794692993164,1312.3076171875,0
683.8819999999996,0.029931271448731422,0.025185631588101387,0.0006309921154752374,0.0,0.0,0.0,0.0,0.001276446389965713,-0.0009023298625834286,0.001265750383026898,1.0009398460388184,0.0,0.0,0.0,-7.256984233856201,0.6389231085777283,5.026144027709961,1313.528564453125,0
693.7800000000007,0.029959609732031822,0.02519194222986698,0.0006367299938574433,0.0,0.0,0.0,0.0,0.003165830159559846,0.002858238760381937,0.0020071184262633324,1.0003719329833984,0.0,0.0,0.0,-7.27025032043457,0.6486693024635315,5.030580043792725,1315.9296875,0
703.6970000000001,0.029938165098428726,0.025181954726576805,0.0006257588393054903,0.0,0.0,0.0,0.0,-0.0005740163032896817,0.000632304057944566,-0.000985080492682755,1.0001152753829956,0.0,0.0,0.0,-7.262580871582031,0.6415761709213257,5.020619869232178,1314.54150390625,0
713.603000000001,0.029955146834254265,0.02518060989677906,0.0006313338526524603,0.0,0.0,0.0,0.0,0.0012873699888586998,0.0012457146076485515,-0.0039183637127280235,0.9995447397232056,0.0,0.0,0.0,-7.2768635749816895,0.6421895623207092,5.024778842926025,1317.126708984375,0
723.5220000000008,0.029933497309684753,0.025167707353830338,0.0006222839001566172,0.0,0.0,0.0,0.0,-0.004416060633957386,-0.0035264829639345407,-0.0033218238968402147,1.0007660388946533,0.0,0.0,0.0,-7.270463466644287,0.6477616429328918,5.009205341339111,1315.96826171875,0
733.4279999999999,0.02994236908853054,0.02516098879277706,0.0006273030885495245,0.0,0.0,0.0,0.0,0.004428320564329624,-0.0023170649074018,-0.0017398863565176725,0.9993429780006409,0.0,0.0,0.0,-7.276933670043945,0.6487537622451782,5.01866340637207,1317.139404296875,0
743.3430000000008,0.029918339103460312,0.025146564468741417,0.0006201231735758483,0.0,0.0,0.0,0.0,0.00217365357093513,1.797029653971549e-05,0.003992417361587286,0.9985826015472412,0.0,0.0,0.0,-7.270261287689209,0.6504372358322144,5.020450592041016,1315.9317626953125,0
753.2489999999998,0.029936959967017174,0.02514093741774559,0.0006301842513494194,0.0,0.0,0.0,0.0,0.0036124770995229483,-0.0035721813328564167,0.001927260891534388,1.0005779266357422,0.0,0.0,0.0,-7.276335716247559,0.6596806645393372,5.029958724975586,1317.0311279296875,0
763.1730000000007,0.02991449646651745,0.025126203894615173,0.0006238975329324603,0.0,0.0,0.0,0.0,0.00025193984038196504,-0.00105608522426337,-0.0012502105673775077,1.0003681182861328,0.0,0.0,0.0,-7.268570899963379,0.6563612818717957,5.017255783081055,1315.625732421875,0
773.0709999999999,0.029928969219326973,0.02513067238032818,0.0006480618612840772,0.0,0.0,0.0,0.0,0.0012943979818373919,-0.002067879308015108,-0.002347581321373582,0.998124361038208,0.0,0.0,0.0,-7.278316497802734,0.664055347442627,5.019593238830566,1317.3897705078125,0
782.9889999999996,0.02990664727985859,0.025116339325904846,0.0006446908228099346,0.0,0.0,0.0,0.0,0.00012065477494616061,-0.0014276303118094802,-0.0007343289908021688,0.999298095703125,0.0,0.0,0.0,-7.272266864776611,0.6587737798690796,5.025940895080566,1316.294677734375,0
792.893,0.029902085661888123,0.025126241147518158,0.0006714464980177581,0.0,0.0,0.0,0.0,-0.001112349797040224,-0.001566134626045823,0.0021013354416936636,0.9986313581466675,0.0,0.0,0.0,-7.275549411773682,0.6625651121139526,5.034517288208008,1316.888916015625,0
802.8130000000001,0.0298796147108078,0.025113822892308235,0.0006684199906885624,0.0,0.0,0.0,0.0,0.002707566600292921,-0.002757054753601551,-0.004049415700137615,0.9991617798805237,0.0,0.0,0.0,-7.26915979385376,0.6660915613174438,5.032597064971924,1315.732421875,0
812.7209999999995,0.029978498816490173,0.025242088362574577,0.00042893405770882964,0.0,0.0,0.0,0.0,0.0005502445856109262,0.0016613947227597237,-0.000932492024730891,1.0021655559539795,0.0,0.0,0.0,-7.290367603302002,0.6981480717658997,5.041126251220703,1319.5709228515625,0
822.6389999999992,0.029958436265587807,0.0252367053180933,0.0004172076587565243,0.0,0.0,0.0,0.0,0.0008644443587400019,-0.003738457802683115,-0.0009490476222708821,0.9992331862449646,0.0,0.0,0.0,-7.2821807861328125,0.6942065954208374,5.039190769195557,1318.0892333984375,0
832.5390000000007,0.02997780591249466,0.025222307071089745,0.0005337810143828392,0.0,0.0,0.0,0.0,0.003672408638522029,0.0011263320920988917,-0.00371269672177732,1.0002365112304688,0.0,0.0,0.0,-7.303033351898193,0.6979336738586426,5.042067050933838,1321.8636474609375,0
842.4619999999995,0.029957273975014687,0.0252172090113163,0.0005296565359458327,0.0,0.0,0.0,0.0,0.001642240909859538,0.0004924038075841963,-0.005361378658562899,1.0010602474212646,0.0,0.0,0.0,-7.29540491104126,0.692373514175415,5.033409118652344,1320.48291015625,0
852.3629999999994,0.029919458553195,0.025224102661013603,0.0006555683212354779,0.0,0.0,0.0,0.0,-0.002006776398047805,-0.0043378532864153385,-0.004259441513568163,0.9994206428527832,0.0,0.0,0.0,-7.314653396606445,0.6926241517066956,5.023573398590088,1323.966796875,0
862.2839999999997,0.02989690750837326,0.02521967701613903,0.0006599604967050254,0.0,0.0,0.0,0.0,-0.00047158318920992315,-0.00041804503416642547,-0.00022407894721254706,0.9985876083374023,0.0,0.0,0.0,-7.307530879974365,0.6914125084877014,5.031230449676514,1322.677734375,0
872.1839999999993,0.029934557154774666,0.02517573907971382,0.0007135477499105036,0.0,0.0,0.0,0.0,-0.005041747819632292,-0.0012166470987722278,0.003270641202107072,0.9986178874969482,0.0,0.0,0.0,-7.323683738708496,0.6922053098678589,5.042775630950928,1325.6014404296875,0
882.1020000000008,0.029910506680607796,0.025169430300593376,0.0007190817268565297,0.0,0.0,0.0,0.0,-3.8711310480721295e-05,0.001137773273512721,-0.0027701070066541433,1.0016604661941528,0.0,0.0,0.0,-7.316407680511475,0.6981926560401917,5.040585994720459,1324.2843017578125,0
892.0069999999996,0.029912246391177177,0.025182640179991722,0.0007766411872580647,0.0,0.0,0.0,0.0,0.0018725716508924961,0.0012198047479614615,0.0015305662527680397,1.002495527267456,0.0,0.0,0.0,-7.333049297332764,0.7067968249320984,5.043963432312012,1327.2965087890625,0
901.9259999999995,0.029888741672039032,0.0251761544495821,0.0007875021547079086,0.0,0.0,0.0,0.0,-0.00029421603539958596,-0.00025030257529579103,-0.0044688209891319275,0.9999922513961792,0.0,0.0,0.0,-7.325852870941162,0.7016898393630981,5.034409046173096,1325.993896484375,0
911.8289999999997,0.029921915382146835,0.02518177404999733,0.0008067294838838279,0.0,0.0,0.0,0.0,-0.0013839558232575655,0.000893241842277348,0.00017503504932392389,0.9993374347686768,0.0,0.0,0.0,-7.328685760498047,0.702152669429779,5.034797668457031,1326.5067138671875,0
921.7469999999994,0.029900826513767242,0.02517499215900898,0.0008201339514926076,0.0,0.0,0.0,0.0,0.0007453302969224751,-0.002675530733540654,-0.001441457774490118,0.9989262819290161,0.0,0.0,0.0,-7.321577548980713,0.7027140259742737,5.032243251800537,1325.2200927734375,0
931.652,0.02994353324174881,0.025126898661255836,0.000823120994027704,0.0,0.0,0.0,0.0,-0.0025596623308956623,0.005804426036775112,-0.0009146295487880707,0.9984528422355652,0.0,0.0,0.0,-7.339413642883301,0.7003227472305298,5.034783840179443,1328.4483642578125,0
941.5709999999999,0.029923466965556145,0.025120597332715988,0.0008339365012943745,0.0,0.0,0.0,0.0,-0.0002651396207511425,-0.0038328194059431553,0.002157781273126602,0.998408854007721,0.0,0.0,0.0,-7.332235813140869,0.6969462633132935,5.018725872039795,1327.149169921875,0
951.4799999999996,0.0299666877835989,0.025108959525823593,0.0008321187924593687,0.0,0.0,0.0,0.0,9.253575262846425e-05,0.002946794033050537,-0.0036885172594338655,0.9997901320457458,0.0,0.0,0.0,-7.3351216316223145,0.6937601566314697,5.026954650878906,1327.6715087890625,0
961.3940000000002,0.02994648925960064,0.025102298706769943,0.0008398054051212966,0.0,0.0,0.0,0.0,0.0008300693589262664,-0.0013909664703533053,0.0030060173012316227,0.9984318017959595,0.0,0.0,0.0,-7.329629421234131,0.692477285861969,5.020576477050781,1326.677490234375,0
971.2990000000009,0.02997150644659996,0.025034679099917412,0.0008047402370721102,0.0,0.0,0.0,0.0,-1.56740024976898e-05,-0.002597382292151451,0.0014546727761626244,0.9994502067565918,0.0,0.0,0.0,-7.33883810043335,0.6946276426315308,5.027046203613281,1328.3443603515625,0
981.2170000000006,0.029950013384222984,0.02502608299255371,0.0008071523625403643,0.0,0.0,0.0,0.0,-0.0012621016940101981,0.0008734330185689032,-0.003924536984413862,1.001021146774292,0.0,0.0,0.0,-7.330995082855225,0.6898067593574524,5.028041839599609,1326.9246826171875,0
991.1200000000008,0.02996952459216118,0.02505800873041153,0.0008063368732109666,0.0,0.0,0.0,0.0,0.0018102375324815512,0.0001825229701353237,-0.004887565970420837,0.9996760487556458,0.0,0.0,0.0,-7.351015567779541,0.7022440433502197,5.018833160400391,1330.54833984375,0
1001.0450000000001,0.029944181442260742,0.025049053132534027,0.0008089551702141762,0.0,0.0,0.0,0.0,-0.0025050006806850433,0.0010632863268256187,0.003359704278409481,0.9998478889465332,0.0,0.0,0.0,-7.343951225280762,0.6931411027908325,5.009376049041748,1329.269775390625,0
1010.9449999999997,0.029934922233223915,0.025093382224440575,0.0008077818201854825,0.0,0.0,0.0,0.0,0.002723892219364643,0.00327253807336092,-0.0030075013637542725,0.9992258548736572,0.0,0.0,0.0,-7.355414867401123,0.7051435708999634,5.010715961456299,1331.3447265625,0
1020.8639999999996,0.02990788221359253,0.02508452907204628,0.0008104885346256196,0.0,0.0,0.0,0.0,0.0010374209377914667,-0.0007893993170000613,0.001454329350963235,0.998569905757904,0.0,0.0,0.0,-7.349191665649414,0.6982110142707825,4.997509956359863,1330.21826171875,0
1030.7659999999996,0.02992776408791542,0.025143854320049286,0.00082330935401842,0.0,0.0,0.0,0.0,-0.0026286987122148275,-0.0030595746356993914,0.002069267211481929,0.9967458844184875,0.0,0.0,0.0,-7.355586528778076,0.6983858346939087,4.996219635009766,1331.3758544921875,0
1040.6890000000003,0.02990146540105343,0.02513791061937809,0.0008248938829638064,0.0,0.0,0.0,0.0,0.0036485239397734404,-6.964653584873304e-05,0.004611752461642027,0.9990876913070679,0.0,0.0,0.0,-7.347623348236084,0.6978565454483032,4.988247394561768,1329.934326171875,0
1050.5910000000003,0.02986767143011093,0.025086840614676476,0.0007958440110087395,0.0,0.0,0.0,0.0,0.0009317162912338972,0.00021723391546402127,0.0033951334189623594,0.9991838932037354,0.0,0.0,0.0,-7.356700897216797,0.6919151544570923,4.990386009216309,1331.57763671875,0
1060.5110000000004,0.029842620715498924,0.025079892948269844,0.0007914617890492082,0.0,0.0,0.0,0.0,0.002030174480751157,0.0016107840929180384,-0.0024330413434654474,1.0000032186508179,0.0,0.0,0.0,-7.3496246337890625,0.6887559294700623,4.985767841339111,1330.2967529296875,0
1070.411,0.029905129224061966,0.02518768236041069,0.0007698238478042185,0.0,0.0,0.0,0.0,0.0009913441026583314,-0.0018577063456177711,0.0002066244196612388,1.002315878868103,0.0,0.0,0.0,-7.355988502502441,0.7084832787513733,4.989614009857178,1331.44873046875,0
1080.3359999999993,0.02988276816904545,0.02518506906926632,0.0007650002371519804,0.0,0.0,0.0,0.0,-0.0003227690467610955,-0.0007740137516520917,-0.001749593997374177,0.9995654821395874,0.0,0.0,0.0,-7.348977565765381,0.7078846096992493,4.979272842407227,1330.179443359375,0
1090.2340000000004,0.029963286593556404,0.025212233886122704,0.0007233202341012657,0.0,0.0,0.0,0.0,-0.0008337849285453558,-0.0018098438158631325,0.0006582175265066326,1.0004724264144897,0.0,0.0,0.0,-7.348915100097656,0.6926224231719971,4.988984107971191,1330.168212890625,0
1100.1530000000002,0.029941022396087646,0.025210995227098465,0.0007172356708906591,0.0,0.0,0.0,0.0,-0.0006293487385846674,-0.0017025225097313523,-0.0011024285340681672,1.000457763671875,0.0,0.0,0.0,-7.340967178344727,0.6969330310821533,4.9841742515563965,1328.7296142578125,0
1110.0570000000007,0.02988651767373085,0.025152651593089104,0.0007454132428392768,0.0,0.0,0.0,0.0,0.002278096741065383,0.0007560785743407905,-0.0025903075002133846,1.0001235008239746,0.0,0.0,0.0,-7.3531413078308105,0.6870306134223938,4.971130847930908,1330.9332275390625,0
1119.9760000000006,0.029857352375984192,0.02514858916401863,0.0007431245176121593,0.0,0.0,0.0,0.0,-0.00020340699120424688,0.0017428883584216237,-0.0009419825510121882,0.9992494583129883,0.0,0.0,0.0,-7.345600128173828,0.6869407296180725,4.965683460235596,1329.568115234375,0
1129.8790000000008,0.029872775077819824,0.025139518082141876,0.0007459630724042654,0.0,0.0,0.0,0.0,0.0007456825114786625,-0.001223756349645555,0.0006037176353856921,1.00056791305542,0.0,0.0,0.0,-7.349767208099365,0.685192346572876,4.968324184417725,1330.322509765625,0
1139.8060000000005,0.029866062104701996,0.02521512843668461,0.0007395059219561517,0.0,0.0,0.0,0.0,-0.000172618922078982,-0.0036494580563157797,0.0045090834610164165,0.9996274709701538,0.0,0.0,0.0,-7.341829776763916,0.6778921484947205,4.963985443115234,1328.8858642578125,0
1149.7019999999993,0.029911577701568604,0.02520798332989216,0.0007624761201441288,0.0,0.0,0.0,0.0,0.0008278642781078815,0.0009586488013155758,-0.0039061037823557854,0.9978479743003845,0.0,0.0,0.0,-7.344255447387695,0.673748791217804,4.967941761016846,1329.3248291015625,0
1159.6219999999994,0.029878394678235054,0.025210583582520485,0.0007660906994715333,0.0,0.0,0.0,0.0,-0.0012812690110877156,0.0035307875368744135,-0.0017314720898866653,1.0009652376174927,0.0,0.0,0.0,-7.336874485015869,0.6763575077056885,4.973023891448975,1327.98876953125,0
1169.5239999999994,0.02988439053297043,0.025151673704385757,0.0007500294595956802,0.0,0.0,0.0,0.0,-0.0037965262308716774,5.9007565141655505e-05,0.00039971162914298475,1.0023338794708252,0.0,0.0,0.0,-7.338720321655273,0.6698466539382935,4.967445373535156,1328.322998046875,0
1179.4490000000005,0.029820358380675316,0.025150414556264877,0.0007920066709630191,0.0,0.0,0.0,0.0,-0.0008265621727332473,-0.0019676981028169394,0.0009951359825208783,1.0009247064590454,0.0,0.0,0.0,-7.331475257873535,0.6636393070220947,4.955052852630615,1327.01171875,0
1189.3520000000008,0.029895132407546043,0.025140926241874695,0.0008301741909235716,0.0,0.0,0.0,0.0,-0.0002083062136080116,-0.0006348576862365007,0.003086190205067396,1.0011636018753052,0.0,0.0,0.0,-7.3361101150512695,0.6654117107391357,4.96099853515625,1327.8505859375,0
1199.268,0.029884502291679382,0.025179391726851463,0.0008241853793151677,0.0,0.0,0.0,0.0,0.0003143211069982499,-0.0018887369660660625,-0.0009553094860166311,0.9997974038124084,0.0,0.0,0.0,-7.329387664794922,0.6630613207817078,4.954788684844971,1326.6336669921875,0
1209.17,0.02993456833064556,0.02512391097843647,0.000834116421174258,0.0,0.0,0.0,0.0,0.0013367371866479516,-0.0019966866821050644,0.0023716657888144255,0.9994065761566162,0.0,0.0,0.0,-7.33292818069458,0.6564205884933472,4.971382141113281,1327.2745361328125,0
1219.0990000000002,0.02992241270840168,0.025164565071463585,0.0008315047016367316,0.0,0.0,0.0,0.0,0.000993042252957821,0.0007080524228513241,0.0017662651371210814,0.9988735318183899,0.0,0.0,0.0,-7.325522422790527,0.6576329469680786,4.968272686004639,1325.93408203125,0
1228.9930000000004,0.029942121356725693,0.025143392384052277,0.0008462140685878694,0.0,0.0,0.0,0.0,-0.001614996581338346,-0.0047990973107516766,0.0009601319907233119,0.9993455410003662,0.0,0.0,0.0,-7.332728385925293,0.6497756838798523,4.973921775817871,1327.2384033203125,0
1238.9130000000005,0.029920373111963272,0.025161972269415855,0.0008442145772278309,0.0,0.0,0.0,0.0,0.002138731302693486,0.0020471452735364437,0.001615589251741767,0.9990642666816711,0.0,0.0,0.0,-7.326324939727783,0.6561763882637024,4.980844974517822,1326.0794677734375,0
1248.8199999999997,0.029930060729384422,0.02513238415122032,0.0008471875335089862,0.0,0.0,0.0,0.0,-0.004008358344435692,-0.005017615854740143,-0.003414484905079007,0.9989808201789856,0.0,0.0,0.0,-7.327243804931641,0.6512290239334106,4.978829860687256,1326.2457275390625,0
1258.7399999999998,0.029956424608826637,0.025234607979655266,0.00080999726196751,0.0,0.0,0.0,0.0,0.001787138869985938,0.0022244586143642664,-0.0012459105346351862,0.9969423413276672,0.0,0.0,0.0,-7.330001354217529,0.6702335476875305,4.97993803024292,1326.7447509765625,0
1268.6380000000008,0.029961932450532913,0.02520180679857731,0.0008037573425099254,0.0,0.0,0.0,0.0,-0.002694056136533618,0.0023491347674280405,0.003663061186671257,0.9988609552383423,0.0,0.0,0.0,-7.3320207595825195,0.6632664203643799,4.983829498291016,1327.1103515625,0
1278.5509999999995,0.029973354190587997,0.025272950530052185,0.0007659161929041147,0.0,0.0,0.0,0.0,-0.0005463103298097849,-0.001394183374941349,0.0030057134572416544,0.9994179010391235,0.0,0.0,0.0,-7.3242292404174805,0.6665427684783936,4.981446266174316,1325.7001953125,0
1288.4609999999993,0.029953237622976303,0.02526240423321724,0.000753023661673069,0.0,0.0,0.0,0.0,0.0005744271911680698,0.004007382318377495,-0.0047591980546712875,0.9990658164024353,0.0,0.0,0.0,-7.326255798339844,0.6654976010322571,4.975537300109863,1326.06689453125,0
1298.375,0.02994455210864544,0.025319267064332962,0.0007293584640137851,0.0,0.0,0.0,0.0,0.002689710585400462,0.006028237286955118,-8.565046300645918e-05,0.9979828000068665,0.0,0.0,0.0,-7.319570064544678,0.6649734377861023,4.974478721618652,1324.856689453125,0
1308.2880000000005,0.029981527477502823,0.02525300346314907,0.0007070241845212877,0.0,0.0,0.0,0.0,0.0005338276387192309,-0.001395920175127685,8.083592547336593e-05,1.0015637874603271,0.0,0.0,0.0,-7.325222969055176,0.6475390195846558,4.969489574432373,1325.8798828125,0
1318.1970000000001,0.02996251732110977,0.025292351841926575,0.0006870455108582973,0.0,0.0,0.0,0.0,-0.002965336898341775,-0.003736463375389576,0.0006444075843319297,1.0008877515792847,0.0,0.0,0.0,-7.318737506866455,0.6429009437561035,4.96022891998291,1324.7061767578125,0
1328.1059999999998,0.029935503378510475,0.025319984182715416,0.0006852908991277218,0.0,0.0,0.0,0.0,0.0002066435117740184,-0.0015332556795328856,0.0013464994262903929,1.000819444656372,0.0,0.0,0.0,-7.318396091461182,0.6392039656639099,4.9584503173828125,1324.644287109375,0
1338.0210000000006,0.02987040765583515,0.025312671437859535,0.0007090080180205405,0.0,0.0,0.0,0.0,0.00011749629629775882,0.00010914258018601686,-0.0013857802841812372,0.9991204142570496,0.0,0.0,0.0,-7.311793804168701,0.6406295895576477,4.965573787689209,1323.44921875,0
1347.9320000000007,0.02993771992623806,0.025271929800510406,0.0007159398519434035,0.0,0.0,0.0,0.0,0.004268309101462364,-6.608133116969839e-05,0.0011384624522179365,0.9983477592468262,0.0,0.0,0.0,-7.314300537109375,0.6306438446044922,4.976973056793213,1323.903076171875,0
1357.8430000000008,0.02986537478864193,0.02523104101419449,0.0007392602856270969,0.0,0.0,0.0,0.0,-0.002900115679949522,0.001562538673169911,-0.0010423692874610424,0.9984925985336304,0.0,0.0,0.0,-7.316430568695068,0.6284937858581543,4.9615631103515625,1324.2884521484375,0
1367.7569999999996,0.02985735982656479,0.02521766535937786,0.0007371885003522038,0.0,0.0,0.0,0.0,-3.859710705000907e-05,-0.002136703347787261,-0.00246223621070385,1.000766634941101,0.0,0.0,0.0,-7.321147918701172,0.6235401630401611,4.971489429473877,1325.142333984375,0
1377.6630000000005,0.029812105000019073,0.025213059037923813,0.0007372677209787071,0.0,0.0,0.0,0.0,-0.0012149724643677473,-0.0023733556736260653,-0.0035244617611169815,1.0000128746032715,0.0,0.0,0.0,-7.326740741729736,0.6256557703018188,4.96990442276001,1326.1546630859375,0
1387.5750000000007,0.029889481142163277,0.025205392390489578,0.0007686601020395756,0.0,0.0,0.0,0.0,-0.001537845004349947,0.0029484215192496777,-0.00020657845016103238,0.9991253018379211,0.0,0.0,0.0,-7.3276824951171875,0.6253890991210938,4.989257335662842,1326.3250732421875,0
1397.4860000000008,0.029847942292690277,0.025205103680491447,0.0007725530304014683,0.0,0.0,0.0,0.0,-0.0005326992250047624,-0.0013580842642113566,0.0004557129286695272,1.0004225969314575,0.0,0.0,0.0,-7.32849645614624,0.6299086809158325,4.9901442527771,1326.472412109375,0
1407.402,0.029913876205682755,0.02517634816467762,0.0007921373471617699,0.0,0.0,0.0,0.0,-0.002251310972496867,0.0008681865292601287,0.000776671280618757,1.0005968809127808,0.0,0.0,0.0,-7.335306167602539,0.6279560923576355,5.001796245574951,1327.7049560546875,0
1417.312,0.02988329529762268,0.025190355256199837,0.0007918172632344067,0.0,0.0,0.0,0.0,0.00321173295378685,0.0011959363473579288,0.00038556993240490556,0.9986022710800171,0.0,0.0,0.0,-7.333438873291016,0.6344404220581055,4.998422145843506,1327.366943359375,0
1427.2219999999998,0.029875686392188072,0.025142617523670197,0.0007779602310620248,0.0,0.0,0.0,0.0,0.00012633240839932114,-0.0011606179177761078,0.00268743303604424,0.9972631335258484,0.0,0.0,0.0,-7.337605953216553,0.6246824264526367,4.997053146362305,1328.1212158203125,0
1437.1319999999996,0.02985868975520134,0.025176668539643288,0.0007629408501088619,0.0,0.0,0.0,0.0,0.005143464542925358,0.0013096054317429662,0.004260097164660692,0.9977110624313354,0.0,0.0,0.0,-7.32943058013916,0.6260828375816345,4.992862224578857,1326.6414794921875,0
1447.0509999999995,0.029926910996437073,0.025159122422337532,0.0007854672148823738,0.0,0.0,0.0,0.0,-0.0004026852548122406,0.0005068860482424498,0.00024271324218716472,0.9996668696403503,0.0,0.0,0.0,-7.333985328674316,0.6216714382171631,5.0047502517700195,1327.4659423828125,0
1456.9539999999997,0.02989812195301056,0.025176165625452995,0.0007805596105754375,0.0,0.0,0.0,0.0,-0.00041810443508438766,0.0035973519552499056,0.0007178926607593894,0.9990557432174683,0.0,0.0,0.0,-7.3265180587768555,0.6131512522697449,4.996129989624023,1326.1142578125,0
1466.8739999999998,0.029965365305542946,0.02511177398264408,0.0007790294475853443,0.0,0.0,0.0,0.0,0.005963828414678574,0.0005825030384585261,0.0031213900074362755,1.0005031824111938,0.0,0.0,0.0,-7.33195686340332,0.6065607070922852,5.008386135101318,1327.0987548828125,0
1476.777,0.029966868460178375,0.025155751034617424,0.0007443709764629602,0.0,0.0,0.0,0.0,-0.0021341517567634583,0.005740406922996044,0.00036040961276739836,0.9983526468276978,0.0,0.0,0.0,-7.331323146820068,0.6092045307159424,5.005408763885498,1326.9840087890625,0
1486.6890000000003,0.029975781217217445,0.025107214227318764,0.0007251706556417048,0.0,0.0,0.0,0.0,0.002202498959377408,-0.0009058424620889127,0.0019848179072141647,0.9976946115493774,0.0,0.0,0.0,-7.337059497833252,0.5931292176246643,5.001133918762207,1328.0223388671875,0
1496.6010000000006,0.02997576631605625,0.02519024722278118,0.0007036987226456404,0.0,0.0,0.0,0.0,0.0025303694419562817,-0.006516834255307913,-0.0005251831607893109,0.997022807598114,0.0,0.0,0.0,-7.337915897369385,0.617495596408844,4.999854564666748,1328.1773681640625,0
1506.5110000000004,0.030050737783312798,0.025143451988697052,0.0007036520983092487,0.0,0.0,0.0,0.0,-0.0009838943369686604,-0.003058610251173377,-0.000879206694662571,0.999418318271637,0.0,0.0,0.0,-7.33999490737915,0.6042973399162292,5.022272109985352,1328.5535888671875,0
1516.4320000000007,0.030029060319066048,0.025160623714327812,0.0006843164446763694,0.0,0.0,0.0,0.0,-0.002715860027819872,-0.00251007336191833,-0.002161652548238635,0.9990949630737305,0.0,0.0,0.0,-7.3320088386535645,0.6064200401306152,5.0322771072387695,1327.108154296875,0
1526.339,0.029996560886502266,0.025163032114505768,0.0006671474548056722,0.0,0.0,0.0,0.0,-0.001626764889806509,0.0036440419498831034,0.00041059122304432094,1.0022515058517456,0.0,0.0,0.0,-7.335143566131592,0.6082422733306885,5.027381420135498,1327.675537109375,0
1536.25,0.029965156689286232,0.02516884170472622,0.0006536988075822592,0.0,0.0,0.0,0.0,-0.0029408992268145084,-0.0028693280182778835,0.0045666927471756935,0.9976335763931274,0.0,0.0,0.0,-7.329047679901123,0.6103944778442383,5.029527187347412,1326.5721435546875,0
1546.1560000000009,0.029953356832265854,0.025198722258210182,0.0006561967311426997,0.0,0.0,0.0,0.0,-0.0016202311962842941,0.0008309803670272231,-0.0018120884196832776,0.9984008073806763,0.0,0.0,0.0,-7.327449798583984,0.6165610551834106,5.021536350250244,1326.282958984375,0
1556.0769999999993,0.02988726831972599,0.025184504687786102,0.0006824055453762412,0.0,0.0,0.0,0.0,0.0012780558317899704,-8.406460256082937e-05,-0.0008771483553573489,0.998297929763794,0.0,0.0,0.0,-7.32993221282959,0.6219986081123352,5.026448726654053,1326.7322998046875,0
1565.9789999999994,0.029907003045082092,0.02522069402039051,0.0006997500313445926,0.0,0.0,0.0,0.0,0.00030242177308537066,0.0022162673994898796,0.0029543025884777308,0.999824047088623,0.0,0.0,0.0,-7.33062219619751,0.6332529783248901,5.01870059967041,1326.8572998046875,0
1575.8979999999992,0.02985062450170517,0.025216028094291687,0.0007154591730795801,0.0,0.0,0.0,0.0,-0.0007088422426022589,-0.0005462021799758077,0.0007616060320287943,1.0001312494277954,0.0,0.0,0.0,-7.323184967041016,0.6278501749038696,5.013293743133545,1325.510986328125,0
1585.8029999999999,0.02994356118142605,0.025178665295243263,0.0007301493315026164,0.0,0.0,0.0,0.0,0.0018107773503288627,-0.003956502769142389,-0.003292275359854102,1.0000298023223877,0.0,0.0,0.0,-7.328284740447998,0.6228921413421631,5.032435894012451,1326.43408203125,0
1595.7209999999995,0.02990730106830597,0.025195585563778877,0.0007359333103522658,0.0,0.0,0.0,0.0,0.0017707652878016233,-0.007838858291506767,0.0015453037340193987,0.9983847141265869,0.0,0.0,0.0,-7.321004390716553,0.6202789545059204,5.025462627410889,1325.1163330078125,0
1605.6239999999998,0.0299481600522995,0.02517508901655674,0.0007427982636727393,0.0,0.0,0.0,0.0,-0.0015773888444527984,0.001831802073866129,0.0041955336928367615,0.9992360472679138,0.0,0.0,0.0,-7.324064254760742,0.6163781881332397,5.037133693695068,1325.670166015625,0
1615.554,0.029898080974817276,0.025189360603690147,0.000714051362592727,0.0,0.0,0.0,0.0,-0.0011245559435337782,-0.0012676867190748453,-0.0025214410852640867,1.0015537738800049,0.0,0.0,0.0,-7.315295219421387,0.6213487386703491,5.019156455993652,1324.0830078125,0
1625.4470000000001,0.02990231104195118,0.025153281167149544,0.0006988525856286287,0.0,0.0,0.0,0.0,-4.384688872960396e-05,0.00020401101210154593,-8.253768464783207e-05,1.0002857446670532,0.0,0.0,0.0,-7.3245134353637695,0.6162105798721313,5.0200371742248535,1325.75146484375,0
1635.3639999999996,0.029854729771614075,0.02519683726131916,0.0006714282790198922,0.0,0.0,0.0,0.0,-0.0006750033935531974,-0.000555134320165962,0.002357902703806758,1.0007885694503784,0.0,0.0,0.0,-7.3160576820373535,0.6333596110343933,5.019840717315674,1324.220947265625,0
1645.2690000000002,0.029916491359472275,0.025209125131368637,0.0007000000332482159,0.0,0.0,0.0,0.0,0.0009293000330217183,-0.0018467777408659458,0.004524110350757837,1.0024446249008179,0.0,0.0,0.0,-7.325666904449463,0.6381725072860718,5.028017044067383,1325.960205078125,0
1655.1939999999995,0.029839204624295235,0.025220120325684547,0.0007084820535965264,0.0,0.0,0.0,0.0,0.005089899525046349,0.0018638004548847675,-0.0003295565547887236,0.9999567270278931,0.0,0.0,0.0,-7.308587074279785,0.6311992406845093,5.026264667510986,1322.868896484375,0
1665.0920000000006,0.02991785854101181,0.025205811485648155,0.0007304435130208731,0.0,0.0,0.0,0.0,-0.0025215470232069492,-0.0017285133944824338,-0.00455467589199543,0.9968380331993103,0.0,0.0,0.0,-7.3177642822265625,0.6316037178039551,5.0378642082214355,1324.530029296875,0
1675.0159999999996,0.0298653282225132,0.025199109688401222,0.0007509716670028865,0.0,0.0,0.0,0.0,0.0033850951585918665,-0.00021483759337570518,-0.006935501005500555,0.9986863136291504,0.0,0.0,0.0,-7.321015357971191,0.6260358691215515,5.027788162231445,1325.118408203125,0
1684.9159999999993,0.02996537834405899,0.02510363608598709,0.0007541274535469711,0.0,0.0,0.0,0.0,0.0036406698636710644,-0.0014077911619096994,-0.0008753787842579186,1.0001715421676636,0.0,0.0,0.0,-7.325228691101074,0.6129180192947388,5.038161277770996,1325.8809814453125,0
1694.8420000000006,0.029938839375972748,0.025129765272140503,0.0007592050242237747,0.0,0.0,0.0,0.0,-0.00031401144224219024,-0.0010714811505749822,-0.002233965089544654,1.0003926753997803,0.0,0.0,0.0,-7.319915771484375,0.6009803414344788,5.033452987670898,1324.91943359375,0
1704.7399999999998,0.029927268624305725,0.02514871023595333,0.0007773617398925126,0.0,0.0,0.0,0.0,0.0011506231967359781,-0.0035529041197150946,0.0022163158282637596,1.0019187927246094,0.0,0.0,0.0,-7.32436990737915,0.5964407324790955,5.025788307189941,1325.7254638671875,0
1714.661,0.02994527854025364,0.025242086499929428,0.0007473339792340994,0.0,0.0,0.0,0.0,-0.0009432942606508732,-0.0002953943039756268,0.001374702900648117,0.9990375638008118,0.0,0.0,0.0,-7.317051410675049,0.5928777456283569,5.028832912445068,1324.4010009765625,0
1724.563,0.02999410219490528,0.025157425552606583,0.0007368861697614193,0.0,0.0,0.0,0.0,-0.0022565650288015604,-0.0037315876688808203,0.00026468693977221847,0.996938169002533,0.0,0.0,0.0,-7.32439661026001,0.5795657634735107,5.043781757354736,1325.73046875,0
1734.487000000001,0.029946109279990196,0.02515292912721634,0.0007568428991362453,0.0,0.0,0.0,0.0,-0.00016159567167051136,-0.0014562014257535338,0.0028775897808372974,0.9982491135597229,0.0,0.0,0.0,-7.327232837677002,0.5848421454429626,5.046578407287598,1326.24365234375,0
1744.3850000000002,0.029975080862641335,0.02509484626352787,0.000751291518099606,0.0,0.0,0.0,0.0,0.0036831956822425127,0.0011772882426157594,0.00045560611761175096,1.0014421939849854,0.0,0.0,0.0,-7.328591823577881,0.573641300201416,5.053463459014893,1326.4896240234375,0
1754.3060000000005,0.02993975207209587,0.025113344192504883,0.0007597578223794699,0.0,0.0,0.0,0.0,0.0015511504607275128,0.0007785473135299981,0.0005638037691824138,0.9990819692611694,0.0,0.0,0.0,-7.3328351974487305,0.5768312811851501,5.042288780212402,1327.2578125,0
1764.2070000000003,0.029926488175988197,0.025135882198810577,0.0007794892298988998,0.0,0.0,0.0,0.0,0.0002546368632465601,0.00016472853894811124,-0.00011546952737262473,0.9996193051338196,0.0,0.0,0.0,-7.336831569671631,0.5735783576965332,5.034841537475586,1327.9810791015625,0
1774.1350000000002,0.029894717037677765,0.02515421062707901,0.0007867026142776012,0.0,0.0,0.0,0.0,0.000615436933003366,-0.0007202798151411116,0.0007759401923976839,1.0007259845733643,0.0,0.0,0.0,-7.329535484313965,0.5717912316322327,5.026000499725342,1326.660400390625,0
1784.0290000000005,0.029915248975157738,0.025159675627946854,0.0008133279043249786,0.0,0.0,0.0,0.0,0.0014607749180868268,-0.002269884804263711,0.004286997485905886,0.9977052211761475,0.0,0.0,0.0,-7.332403182983398,0.5744776725769043,5.032379150390625,1327.1795654296875,0
1793.955,0.029899684712290764,0.02518995851278305,0.000802620779722929,0.0,0.0,0.0,0.0,0.004302558954805136,0.0031685028225183487,0.0007002388592809439,0.9994177222251892,0.0,0.0,0.0,-7.324930191040039,0.5700551271438599,5.0308403968811035,1325.826904296875,0
1803.853000000001,0.029926162213087082,0.0251710694283247,0.0008194120018742979,0.0,0.0,0.0,0.0,0.0015333365881815553,-0.0017361489590257406,-0.00047554922639392316,0.9985730051994324,0.0,0.0,0.0,-7.32628059387207,0.5685995817184448,5.037844181060791,1326.0712890625,0
1813.7780000000002,0.02992578037083149,0.02520282194018364,0.0007881354540586472,0.0,0.0,0.0,0.0,0.0012551405234262347,0.0008266576915048063,0.0005933548090979457,0.9988476037979126,0.0,0.0,0.0,-7.328604698181152,0.5700105428695679,5.035119533538818,1326.4920654296875,0
1823.6749999999993,0.029944993555545807,0.025163725018501282,0.0007885014056228101,0.0,0.0,0.0,0.0,-0.0033847277518361807,-0.0011085349833592772,0.0011393079767003655,1.0000711679458618,0.0,0.0,0.0,-7.332421779632568,0.5610885620117188,5.042107582092285,1327.182861328125,0
1833.6020000000008,0.029918039217591286,0.025177357718348503,0.00078519934322685,0.0,0.0,0.0,0.0,-0.002073392504826188,-0.0004731043882202357,0.0003023555036634207,1.0015226602554321,0.0,0.0,0.0,-7.325821399688721,0.5663690567016602,5.038015365600586,1325.98828125,0
1843.4979999999996,0.02993675135076046,0.025153735652565956,0.000789460027590394,0.0,0.0,0.0,0.0,0.002379033248871565,-0.0023379349149763584,-0.0038357446901500225,1.000666856765747,0.0,0.0,0.0,-7.3280863761901855,0.5681933760643005,5.0438947677612305,1326.398193359375,0
1853.42,0.029932281002402306,0.0251793060451746,0.0007613167399540544,0.0,0.0,0.0,0.0,0.000928690773434937,-0.0024795900098979473,-0.0011003912659361959,1.0012155771255493,0.0,0.0,0.0,-7.331370830535889,0.5774394273757935,5.046390533447266,1326.9927978515625,0
1863.3199999999997,0.029949985444545746,0.02515873871743679,0.0007689545163884759,0.0,0.0,0.0,0.0,-0.00047549346345476806,-0.0012642680667340755,0.002871709642931819,0.9992018938064575,0.0,0.0,0.0,-7.332970142364502,0.576179563999176,5.053572177886963,1327.2821044921875,0
1873.2389999999996,0.02994321845471859,0.025195380672812462,0.0007492004660889506,0.0,0.0,0.0,0.0,0.0028241625986993313,0.0075876303017139435,-0.001104037743061781,0.9992469549179077,0.0,0.0,0.0,-7.331364154815674,0.5786182880401611,5.061961650848389,1326.991455078125,0
1883.1419999999998,0.029928000643849373,0.0252078790217638,0.0007595475181005895,0.0,0.0,0.0,0.0,0.0006733598420396447,0.003245224943384528,0.003441506065428257,0.9998202323913574,0.0,0.0,0.0,-7.332837104797363,0.5767691731452942,5.051748275756836,1327.2581787109375,0
1893.0650000000005,0.02988404594361782,0.025200573727488518,0.0007697389228269458,0.0,0.0,0.0,0.0,-0.0022389590740203857,-0.0038954950869083405,0.003710717661306262,0.9999061822891235,0.0,0.0,0.0,-7.325742721557617,0.5745160579681396,5.041467666625977,1325.9739990234375,0
1902.9650000000001,0.029918139800429344,0.025197627022862434,0.0007936075562611222,0.0,0.0,0.0,0.0,0.0008007792639546096,0.0024125578347593546,9.550330287311226e-05,0.9985579252243042,0.0,0.0,0.0,-7.328859806060791,0.5698668360710144,5.044936180114746,1326.5382080078125,0
1912.8770000000004,0.02988540194928646,0.025193216279149055,0.0007918664487078786,0.0,0.0,0.0,0.0,0.00039754449971951544,-0.001668316894210875,-0.0011055335635319352,1.0003249645233154,0.0,0.0,0.0,-7.332468032836914,0.5758433938026428,5.040886878967285,1327.1912841796875,0
1922.7880000000005,0.02987661212682724,0.025149835273623466,0.0007823483902029693,0.0,0.0,0.0,0.0,-0.0015032918890938163,-0.0027739633806049824,0.0007152936304919422,0.9988244771957397,0.0,0.0,0.0,-7.336522579193115,0.5749971866607666,5.0419087409973145,1327.9251708984375,0
1932.7070000000003,0.02983146719634533,0.02518155612051487,0.0007660698611289263,0.0,0.0,0.0,0.0,0.0007019119802862406,0.004326755180954933,0.0003054662956856191,0.9979017972946167,0.0,0.0,0.0,-7.322885990142822,0.5691449046134949,5.038069725036621,1325.45703125,0
1942.6100000000006,0.02987098880112171,0.02514391578733921,0.000763501797337085,0.0,0.0,0.0,0.0,-0.0002347262779949233,-0.0002026641450356692,-0.0021581407636404037,0.9980549812316895,0.0,0.0,0.0,-7.335447788238525,0.5650988221168518,5.044177055358887,1327.7305908203125,0
1952.5229999999992,0.029822545126080513,0.025177817791700363,0.0007412168197333813,0.0,0.0,0.0,0.0,0.0005805674591101706,-0.001441513653844595,2.5733297661645338e-05,1.0005292892456055,0.0,0.0,0.0,-7.320621967315674,0.5597888231277466,5.034114360809326,1325.047119140625,0
1962.433000000001,0.029929086565971375,0.025139961391687393,0.0007628821767866611,0.0,0.0,0.0,0.0,-0.0013151421444490552,0.005398133769631386,0.001001959783025086,1.0004838705062866,0.0,0.0,0.0,-7.3318352699279785,0.5568574070930481,5.051406383514404,1327.07666015625,0
1972.3490000000002,0.029913432896137238,0.0252363383769989,0.0007227733731269836,0.0,0.0,0.0,0.0,-0.001727166585624218,-0.0032769886311143637,0.00043674572953023016,0.9988810420036316,0.0,0.0,0.0,-7.3176045417785645,0.5599632859230042,5.036483287811279,1324.5009765625,0
1982.2559999999994,0.029980670660734177,0.025171125307679176,0.000716278562322259,0.0,0.0,0.0,0.0,-0.001329042948782444,-0.00022589563741348684,0.0017799069173634052,0.998986542224884,0.0,0.0,0.0,-7.3249640464782715,0.5510243773460388,5.047680377960205,1325.8331298828125,0
1992.1679999999997,0.029951173812150955,0.025243423879146576,0.0006818374968133867,0.0,0.0,0.0,0.0,0.0026658540591597557,-0.000497623928822577,-0.00017410179134458303,0.9993290901184082,0.0,0.0,0.0,-7.315700054168701,0.5688299536705017,5.050594806671143,1324.15625,0
2002.0789999999997,0.029979532584547997,0.025212911888957024,0.0006776585942134261,0.0,0.0,0.0,0.0,-0.0005184563924558461,-0.0035080325324088335,0.004271597135812044,1.0006715059280396,0.0,0.0,0.0,-7.324410915374756,0.5651487708091736,5.054864406585693,1325.73291015625,0
2012.0,0.02996200881898403,0.02525440789759159,0.0006597941974177957,0.0,0.0,0.0,0.0,-0.0027933574747294188,-0.004733315669000149,0.0026880481746047735,0.9996052980422974,0.0,0.0,0.0,-7.324341773986816,0.5746777057647705,5.055537700653076,1325.720458984375,0
2021.9040000000005,0.030006105080246925,0.02519010193645954,0.0006478185532614589,0.0,0.0,0.0,0.0,7.590960012748837e-05,-0.00037535547744482756,0.004025049041956663,0.9984002709388733,0.0,0.0,0.0,-7.332430362701416,0.5665756464004517,5.07080078125,1327.1845703125,0
2031.8150000000005,0.029943324625492096,0.025178169831633568,0.0006744894199073315,0.0,0.0,0.0,0.0,-0.00043261871905997396,0.001445505884476006,-0.001168526359833777,0.9994068741798401,0.0,0.0,0.0,-7.325061798095703,0.5656524300575256,5.073156356811523,1325.8507080078125,0
2041.7260000000006,0.029935039579868317,0.025201326236128807,0.0006896611885167658,0.0,0.0,0.0,0.0,0.0005067315069027245,-0.0010187688749283552,0.0030407202430069447,0.9992436766624451,0.0,0.0,0.0,-7.327020168304443,0.5730677247047424,5.068291664123535,1326.205322265625,0
2051.638999999999,0.02988024428486824,0.0251981969922781,0.000704578182194382,0.0,0.0,0.0,0.0,-0.0023098757956176996,0.0015027165645733476,0.0008916765218600631,0.9988347887992859,0.0,0.0,0.0,-7.320642471313477,0.5693948268890381,5.067349433898926,1325.05078125,0
2061.5519999999997,0.02991342730820179,0.025199173018336296,0.0007287804619409144,0.0,0.0,0.0,0.0,0.00010252285574097186,0.0006505480268970132,-0.0023495217319577932,0.9998499751091003,0.0,0.0,0.0,-7.322249889373779,0.5717751979827881,5.068333625793457,1325.341796875,0
2071.4580000000005,0.029856257140636444,0.02517957240343094,0.0007440475164912641,0.0,0.0,0.0,0.0,-0.0003122506313957274,0.003120941109955311,-0.0014452736359089613,1.0005561113357544,0.0,0.0,0.0,-7.326457500457764,0.57367342710495,5.063185214996338,1326.1033935546875,0
2081.370000000001,0.029904255643486977,0.025161568075418472,0.0007686024182476103,0.0,0.0,0.0,0.0,0.0013448274694383144,-0.0007253785151988268,-0.0034565161913633347,0.9988971948623657,0.0,0.0,0.0,-7.327472686767578,0.5737506151199341,5.069774150848389,1326.287109375,0
2091.281000000001,0.02983216755092144,0.02515137940645218,0.0008126971661113203,0.0,0.0,0.0,0.0,0.0013116736663505435,0.00282899453304708,-0.0029899962246418,0.9995664358139038,0.0,0.0,0.0,-7.321108818054199,0.5706385970115662,5.072324275970459,1325.13525390625,0
2101.1929999999993,0.029853075742721558,0.0251720380038023,0.0008512366912327707,0.0,0.0,0.0,0.0,-0.0007718140259385109,0.0046881684102118015,0.001514605712145567,0.9979987740516663,0.0,0.0,0.0,-7.321398735046387,0.5763052105903625,5.073365688323975,1325.187744140625,0
2111.1039999999994,0.02984025329351425,0.025202512741088867,0.0008321447530761361,0.0,0.0,0.0,0.0,0.002988915890455246,-0.001708565279841423,0.004201887641102076,0.999859631061554,0.0,0.0,0.0,-7.313456058502197,0.5729694962501526,5.05698823928833,1323.7501220703125,0
2121.022000000001,0.029832884669303894,0.025178248062729836,0.0008378621423617005,0.0,0.0,0.0,0.0,0.004497387912124395,0.0016217201482504606,0.0031268547754734755,0.9993232488632202,0.0,0.0,0.0,-7.311979293823242,0.5672596096992493,5.062094211578369,1323.4827880859375,0
2130.9320000000007,0.02982379123568535,0.02520820125937462,0.0008096767705865204,0.0,0.0,0.0,0.0,0.0018680993234738708,-0.004120491910725832,0.003318263916298747,0.999434232711792,0.0,0.0,0.0,-7.303443908691406,0.5540156364440918,5.065410614013672,1321.9378662109375,0
2140.8379999999997,0.029878105968236923,0.02516724355518818,0.0008243300835601985,0.0,0.0,0.0,0.0,-0.0009283084073103964,-0.00014294956054072827,-0.004246361553668976,1.0013455152511597,0.0,0.0,0.0,-7.303708076477051,0.5455122590065002,5.082850933074951,1321.9857177734375,0
2150.751,0.02987031824886799,0.025237327441573143,0.000812417478300631,0.0,0.0,0.0,0.0,0.0008895228966139257,-0.004900014027953148,0.0020972993224859238,1.000044822692871,0.0,0.0,0.0,-7.294820308685303,0.541076123714447,5.083146572113037,1320.3770751953125,0
2160.661,0.02991791069507599,0.025109628215432167,0.0007894865702837706,0.0,0.0,0.0,0.0,0.0015629439149051905,0.0005244787316769361,0.0008361297659575939,0.9997615218162537,0.0,0.0,0.0,-7.302116394042969,0.5279023051261902,5.106795787811279,1321.69775390625,0
2170.5730000000003,0.029893195256590843,0.025136001408100128,0.000783097988460213,0.0,0.0,0.0,0.0,0.0023859236389398575,-0.0026962815318256617,0.0020847611594945192,0.999506950378418,0.0,0.0,0.0,-7.295442581176758,0.52714604139328,5.1044769287109375,1320.48974609375,0
