timestamp,stateEstimate.x,stateEstimate.y,stateEstimate.z,controller.cmd_thrust,controller.cmd_roll,controller.cmd_pitch,controller.cmd_yaw,controller.r_roll,controller.r_pitch,controller.r_yaw,controller.accelz,controller.actuatorThrust,controller.roll,controller.pitch,controller.yaw,controller.rollRate,controller.pitchRate,controller.yawRate,controller.ctr_yaw
0.0,-0.018713798373937607,-0.0013101946096867323,-0.0005955980159342289,0.0,0.0,0.0,0.0,0.00017053425835911185,-0.0034172269515693188,-0.002010276773944497,1.0002622604370117,0.0,0.0,0.0,2.33353590965271,1.0095006227493286,5.6162848472595215,-422.3746643066406,0
9.91400000000067,-0.018720977008342743,-0.001353108906187117,-0.000581531785428524,0.0,0.0,0.0,0.0,0.00036753606400452554,0.001079010427929461,-0.0011921391123905778,1.0007083415985107,0.0,0.0,0.0,2.3309855461120605,1.006925106048584,5.605354309082031,-421.9129943847656,0
19.82799999999952,-0.01878288947045803,-0.0013802922330796719,-0.0006043522153049707,0.0,0.0,0.0,0.0,0.0024238780606538057,-0.0012322051916271448,-0.0036066737957298756,1.000785231590271,0.0,0.0,0.0,2.3291447162628174,1.0030999183654785,5.603676795959473,-421.5798034667969,0
29.73699999999917,-0.018786907196044922,-0.0013906984822824597,-0.0005650828243233263,0.0,0.0,0.0,0.0,0.001229120884090662,8.744343358557671e-05,0.00030814469209872186,1.0003297328948975,0.0,0.0,0.0,2.3249523639678955,0.9960469007492065,5.597743034362793,-420.8209533691406,0
39.64500000000044,-0.018785564228892326,-0.001310653635300696,-0.0006384135922417045,0.0,0.0,0.0,0.0,-0.0017604008316993713,0.0020282415207475424,-7.00330565450713e-05,0.9984934329986572,0.0,0.0,0.0,2.3224380016326904,0.986506462097168,5.591847896575928,-420.36590576171875,0
49.55500000000029,-0.01876695826649666,-0.0013651534682139754,-0.0006232000305317342,0.0,0.0,0.0,0.0,0.0017201926093548536,0.001867604092694819,-0.0023625907488167286,1.0017791986465454,0.0,0.0,0.0,2.319700241088867,0.9832159876823425,5.600583553314209,-419.8703918457031,0
59.47199999999975,-0.018795592710375786,-0.0013097174232825637,-0.0006698541692458093,0.0,0.0,0.0,0.0,-0.003086778102442622,0.0007139176595956087,3.357432069606148e-05,0.9986167550086975,0.0,0.0,0.0,2.324610471725464,0.9959598183631897,5.601518630981445,-420.75909423828125,0
69.3809999999994,-0.018744757398962975,-0.0013308631023392081,-0.0006252602324821055,0.0,0.0,0.0,0.0,-0.0003457087150309235,0.00364392576739192,0.0005809696740470827,0.9978660345077515,0.0,0.0,0.0,2.3212766647338867,0.9952648282051086,5.593752861022949,-420.15570068359375,0
79.29299999999967,-0.01877450756728649,-0.0012862090952694416,-0.0006772581255063415,0.0,0.0,0.0,0.0,-0.001102915033698082,-0.004499801434576511,-0.002127654617652297,1.0003427267074585,0.0,0.0,0.0,2.3191468715667725,0.9973313212394714,5.583299160003662,-419.77020263671875,0
89.19900000000052,-0.018754109740257263,-0.0013079348718747497,-0.0006447220803238451,0.0,0.0,0.0,0.0,0.002840218134224415,0.00301188207231462,-0.0007009946275502443,1.0007033348083496,0.0,0.0,0.0,2.317091941833496,0.9977869391441345,5.573533535003662,-419.39825439453125,0
99.11499999999978,-0.01878977380692959,-0.0012692894088104367,-0.0006960052414797246,0.0,0.0,0.0,0.0,0.0010659818071871996,0.0005569010972976685,0.0003962385526392609,1.0014041662216187,0.0,0.0,0.0,2.3205387592315674,1.0065765380859375,5.584217071533203,-420.0220947265625,0
109.02700000000004,-0.01875101961195469,-0.0013331753434613347,-0.0006830862257629633,0.0,0.0,0.0,0.0,-0.0020298375748097897,-0.0059773907996714115,0.004586642608046532,1.0026565790176392,0.0,0.0,0.0,2.318283796310425,0.9942421913146973,5.570347785949707,-419.6139831542969,0
118.9320000000007,-0.018796930089592934,-0.0012884843163192272,-0.0007173691410571337,0.0,0.0,0.0,0.0,0.0014835348119959235,9.837689867708832e-05,-0.0001839866308728233,1.0023400783538818,0.0,0.0,0.0,2.3251707553863525,1.000061273574829,5.567548751831055,-420.8605041503906,0
128.85000000000036,-0.018758267164230347,-0.0013170697493478656,-0.000681449135299772,0.0,0.0,0.0,0.0,-0.0033090978395193815,-0.004014123231172562,-0.0028207225259393454,0.9998670816421509,0.0,0.0,0.0,2.3227736949920654,1.0034300088882446,5.572108268737793,-420.4266662597656,0
138.7549999999992,-0.018808595836162567,-0.0012957027647644281,-0.0007106409757398069,0.0,0.0,0.0,0.0,-0.004655752796679735,-0.002963387407362461,-0.0004403840284794569,0.9987174272537231,0.0,0.0,0.0,2.3270394802093506,1.0089784860610962,5.5681304931640625,-421.19879150390625,0
148.6800000000003,-0.01877017505466938,-0.0013275883393362164,-0.0006736121722497046,0.0,0.0,0.0,0.0,0.0011148495832458138,-0.0008264646166935563,0.0016844248166307807,0.9981055855751038,0.0,0.0,0.0,2.324697494506836,1.0125142335891724,5.579061508178711,-420.77484130859375,0
158.5759999999991,-0.01883016899228096,-0.0013022242346778512,-0.0006895264377817512,0.0,0.0,0.0,0.0,-0.0006133822607807815,0.0022292521316558123,0.0004220629925839603,1.0004708766937256,0.0,0.0,0.0,2.3217952251434326,1.0137406587600708,5.570535182952881,-420.24957275390625,0
168.4930000000004,-0.018916534259915352,-0.0013155954657122493,-0.0006869402131997049,0.0,0.0,0.0,0.0,0.0019130875589326024,-0.0012759572127833962,0.007738930638879538,1.002519130706787,0.0,0.0,0.0,2.3194339275360107,1.009354591369629,5.561467170715332,-419.8221435546875,0
178.40500000000065,-0.01893502287566662,-0.001253146561793983,-0.0007570835296064615,0.0,0.0,0.0,0.0,0.00048718624748289585,0.0003974894934799522,0.002170918043702841,1.00037682056427,0.0,0.0,0.0,2.3218259811401367,1.0279091596603394,5.578578472137451,-420.255126953125,0
188.3179999999993,-0.01902158372104168,-0.001260764547623694,-0.0007581340032629669,0.0,0.0,0.0,0.0,0.001002972829155624,-0.0011174151441082358,-0.00023538041568826884,0.9987266063690186,0.0,0.0,0.0,2.3209409713745117,1.0253654718399048,5.570444107055664,-420.0949401855469,0
198.22099999999955,-0.019065631553530693,-0.0012132046977058053,-0.0008176895207725465,0.0,0.0,0.0,0.0,-0.0012574678985401988,-0.006385331973433495,0.004147004801779985,0.9986019134521484,0.0,0.0,0.0,2.3257944583892822,1.038135290145874,5.589329719543457,-420.9734191894531,0
208.14199999999983,-0.019150491803884506,-0.001216541277244687,-0.000823839392978698,0.0,0.0,0.0,0.0,-0.00032002056832425296,0.000363695144187659,-0.001568273757584393,1.0005602836608887,0.0,0.0,0.0,2.3234522342681885,1.0392566919326782,5.594316005706787,-420.5494689941406,0
218.04299999999967,-0.01914643682539463,-0.0011554085649549961,-0.0009301176178269088,0.0,0.0,0.0,0.0,-0.0018512217793613672,-0.004999030381441116,-0.0037501687183976173,1.0025469064712524,0.0,0.0,0.0,2.3302156925201416,1.0649406909942627,5.652341365814209,-421.773681640625,0
227.96700000000055,-0.018777325749397278,-0.0013560933293774724,-0.0007444327347911894,0.0,0.0,0.0,0.0,-0.003130792174488306,0.00029322702903300524,-0.0009675970650278032,0.9998171329498291,0.0,0.0,0.0,2.322322368621826,1.0141953229904175,5.780828952789307,-420.344970703125,0
237.86599999999999,-0.018794570118188858,-0.0013086990220472217,-0.000771905411966145,0.0,0.0,0.0,0.0,-0.001289147767238319,-0.0007453729049302638,-0.00039523313171230257,1.0009797811508179,0.0,0.0,0.0,2.329557180404663,1.0299878120422363,5.796914100646973,-421.6545104980469,0
247.78999999999905,-0.018728522583842278,-0.0013638957170769572,-0.0007469290867447853,0.0,0.0,0.0,0.0,0.00489151431247592,0.005148254334926605,-0.004883347079157829,1.0010095834732056,0.0,0.0,0.0,2.3272135257720947,1.0328257083892822,5.79015588760376,-421.23028564453125,0
257.6939999999995,-0.01874907873570919,-0.001319898059591651,-0.0007702697766944766,0.0,0.0,0.0,0.0,-0.0006566122174263,0.0025125753600150347,-0.0007231333293020725,0.9997085928916931,0.0,0.0,0.0,2.333341598510742,1.0316102504730225,5.773224830627441,-422.3395080566406,0
267.6080000000002,-0.018733704462647438,-0.0013266413006931543,-0.000748658028896898,0.0,0.0,0.0,0.0,8.771853754296899e-05,-0.0013945689424872398,-0.0002106963802361861,0.9997022151947021,0.0,0.0,0.0,2.330543041229248,1.0242152214050293,5.76362943649292,-421.8329162597656,0
277.51900000000023,-0.018785690888762474,-0.0013214678037911654,-0.0007462778012268245,0.0,0.0,0.0,0.0,0.0011206818744540215,-0.005560089368373156,-0.0013061846839264035,1.001693844795227,0.0,0.0,0.0,2.328418493270874,1.0310466289520264,5.752115726470947,-421.44842529296875,0
287.4380000000001,-0.018756577745079994,-0.0013444911455735564,-0.0007222355343401432,0.0,0.0,0.0,0.0,-0.001777841942384839,0.002096764277666807,-0.0009257637429982424,1.000982403755188,0.0,0.0,0.0,2.3270528316497803,1.0334638357162476,5.744141578674316,-421.2012023925781,0
297.34200000000055,-0.018808674067258835,-0.001333244377747178,-0.0007212289492599666,0.0,0.0,0.0,0.0,0.001146986149251461,9.172800491796806e-05,0.0008558850968256593,1.0002412796020508,0.0,0.0,0.0,2.323456048965454,1.030948281288147,5.7519850730896,-420.5501708984375,0
307.2549999999992,-0.0187737587839365,-0.0013452671701088548,-0.000679199758451432,0.0,0.0,0.0,0.0,-0.00043470694799907506,-0.00011982137948507443,-0.0001717456034384668,0.9985576868057251,0.0,0.0,0.0,2.3218648433685303,1.0332058668136597,5.746505260467529,-420.26214599609375,0
317.16499999999905,-0.01875658892095089,-0.0012767597800120711,-0.0007543031242676079,0.0,0.0,0.0,0.0,-0.0004360337043181062,8.382329542655498e-05,-0.0017000316875055432,1.0009599924087524,0.0,0.0,0.0,2.330937623977661,1.0466240644454956,5.745780944824219,-421.90435791015625,0
327.0789999999997,-0.01882137358188629,-0.0012928765499964356,-0.0007515100878663361,0.0,0.0,0.0,0.0,-0.0010715075768530369,1.4820421711192466e-05,-0.0009188978001475334,0.9995908141136169,0.0,0.0,0.0,2.327498435974121,1.0426043272018433,5.731359958648682,-421.2818603515625,0
336.9940000000006,-0.018831444904208183,-0.0012535839341580868,-0.0008173735113814473,0.0,0.0,0.0,0.0,-0.004174989648163319,0.00043822277802973986,-0.0006921070162206888,1.000285029411316,0.0,0.0,0.0,2.3381011486053467,1.0512549877166748,5.735037326812744,-423.2009582519531,0
346.89899999999943,-0.01877194456756115,-0.0012499496806412935,-0.0007454752339981496,0.0,0.0,0.0,0.0,-0.0014116864185780287,0.0014011090388521552,0.0011732402490451932,1.0006076097488403,0.0,0.0,0.0,2.3357717990875244,1.0552111864089966,5.736323356628418,-422.7793273925781,0
356.8050000000003,-0.018815046176314354,-0.0012422765139490366,-0.0007661129930056632,0.0,0.0,0.0,0.0,0.005187453236430883,0.0030576090794056654,-0.003449746873229742,0.9983855485916138,0.0,0.0,0.0,2.341700553894043,1.0579642057418823,5.7300190925598145,-423.8524475097656,0
366.73099999999977,-0.018734408542513847,-0.0012939723674207926,-0.0007363326149061322,0.0,0.0,0.0,0.0,-0.0007245985325425863,0.002447437262162566,0.001620297902263701,0.9991045594215393,0.0,0.0,0.0,2.339226007461548,1.057745337486267,5.716639518737793,-423.404541015625,0
376.6329999999998,-0.0188007615506649,-0.0012890176149085164,-0.0007243694853968918,0.0,0.0,0.0,0.0,0.0006365792942233384,-0.00021685280080419034,0.004037313163280487,0.9999962449073792,0.0,0.0,0.0,2.3365373611450195,1.055640459060669,5.703470230102539,-422.9179382324219,0
386.5519999999997,-0.018750974908471107,-0.0013144898694008589,-0.0006842114962637424,0.0,0.0,0.0,0.0,0.0009659080533310771,-0.0014932482736185193,0.0005454031052067876,1.0002055168151855,0.0,0.0,0.0,2.333585739135742,1.0496593713760376,5.693366050720215,-422.3836975097656,0
396.4509999999991,-0.018826302140951157,-0.0013440848561003804,-0.000672004884108901,0.0,0.0,0.0,0.0,0.002253964077681303,-0.002676254604011774,-0.0004569297598209232,0.999171793460846,0.0,0.0,0.0,2.3453848361968994,1.0468543767929077,5.67856502532959,-424.5193176269531,0
406.3690000000006,-0.018895599991083145,-0.0013605122221633792,-0.0006650293944403529,0.0,0.0,0.0,0.0,-0.0002803164825309068,0.0005144614260643721,-0.0026367404498159885,1.0017353296279907,0.0,0.0,0.0,2.342944860458374,1.0333213806152344,5.674693584442139,-424.0777282714844,0
416.27800000000025,-0.018924212083220482,-0.001304288161918521,-0.0007001747726462781,0.0,0.0,0.0,0.0,0.000672723283059895,0.002598478924483061,0.0008210179512389004,1.001619815826416,0.0,0.0,0.0,2.339999198913574,1.0326626300811768,5.675940036773682,-423.54449462890625,0
426.1849999999995,-0.018787814304232597,-0.001385421259328723,-0.0006318172090686858,0.0,0.0,0.0,0.0,0.0027865658048540354,-0.0018743799300864339,-0.0025647629518061876,1.0008585453033447,0.0,0.0,0.0,2.3376996517181396,1.0245367288589478,5.695448398590088,-423.1282653808594,0
436.09699999999975,-0.018823741003870964,-0.0013324563624337316,-0.0006362124113366008,0.0,0.0,0.0,0.0,0.002936361124739051,-0.002409222535789013,-0.0034075842704623938,1.000098705291748,0.0,0.0,0.0,2.3450820446014404,1.0329748392105103,5.691426753997803,-424.46453857421875,0
446.0110000000004,-0.018765291199088097,-0.0013770854566246271,-0.0006015407270751894,0.0,0.0,0.0,0.0,0.001560734584927559,0.0010801567696034908,-0.0037436066195368767,0.9996289014816284,0.0,0.0,0.0,2.3434975147247314,1.0313993692398071,5.686748027801514,-424.1777038574219,0
455.9200000000001,-0.01880594901740551,-0.0013429680839180946,-0.0006081357132643461,0.0,0.0,0.0,0.0,-0.0016685394803062081,-0.002071155933663249,-0.0005758074694313109,0.9992144107818604,0.0,0.0,0.0,2.348727226257324,1.0348786115646362,5.6818695068359375,-425.1242980957031,0
465.8299999999999,-0.01876746490597725,-0.0013789735967293382,-0.0005771321011707187,0.0,0.0,0.0,0.0,-0.0021689978893846273,0.0015454547246918082,-0.002743380842730403,0.998212993144989,0.0,0.0,0.0,2.3454997539520264,1.0320708751678467,5.6787543296813965,-424.5401611328125,0
475.7430000000004,-0.018844449892640114,-0.001402088557370007,-0.0005717765889130533,0.0,0.0,0.0,0.0,-0.0010338348802179098,0.003670755075290799,-0.002559842076152563,1.0016874074935913,0.0,0.0,0.0,2.3545939922332764,1.0307241678237915,5.665414333343506,-426.18621826171875,0
485.65599999999904,-0.018848970532417297,-0.0014266539365053177,-0.0005416463245637715,0.0,0.0,0.0,0.0,-0.000912503048311919,-0.0014849640429019928,-0.0026445111725479364,1.00118088722229,0.0,0.0,0.0,2.3528809547424316,1.0338540077209473,5.6680426597595215,-425.8761291503906,0
495.5630000000001,-0.018867064267396927,-0.0013693911023437977,-0.0005795018514618278,0.0,0.0,0.0,0.0,-0.0005504272994585335,-0.0008164406171999872,-0.00037716227234341204,1.0005322694778442,0.0,0.0,0.0,2.3494999408721924,1.039226770401001,5.663537502288818,-425.26416015625,0
505.47400000000016,-0.01885402947664261,-0.0014034047489985824,-0.0005528110777959228,0.0,0.0,0.0,0.0,0.00018297623319085687,0.003565622726455331,-0.0025435765273869038,1.0011407136917114,0.0,0.0,0.0,2.347844362258911,1.039214015007019,5.657603740692139,-424.9645080566406,0
515.387999999999,-0.018846066668629646,-0.0013276204699650407,-0.0006223542150110006,0.0,0.0,0.0,0.0,0.0007171165198087692,0.00012642584624700248,0.004230496473610401,1.0006217956542969,0.0,0.0,0.0,2.3451664447784424,1.0344651937484741,5.645908832550049,-424.47979736328125,0
525.3019999999997,-0.018825937062501907,-0.0013598212972283363,-0.0005910049076192081,0.0,0.0,0.0,0.0,-0.0021678751800209284,0.0020620981231331825,-0.004013055935502052,1.0008792877197266,0.0,0.0,0.0,2.344130516052246,1.0330374240875244,5.640854835510254,-424.29229736328125,0
535.2099999999991,-0.018843043595552444,-0.0013112289598211646,-0.0006364830769598484,0.0,0.0,0.0,0.0,0.0005908166640438139,0.0008899977547116578,0.0015777784865349531,1.001389980316162,0.0,0.0,0.0,2.346524953842163,1.0420423746109009,5.638753414154053,-424.7257080078125,0
545.119999999999,-0.0187519583851099,-0.0013931436697021127,-0.0006058323197066784,0.0,0.0,0.0,0.0,0.0016725357854738832,0.0019341269508004189,-3.682148962980136e-05,1.0021677017211914,0.0,0.0,0.0,2.3453941345214844,1.039629578590393,5.627745628356934,-424.52099609375,0
555.0349999999999,-0.01878010481595993,-0.0013489932753145695,-0.0006354207871481776,0.0,0.0,0.0,0.0,0.002012756885960698,-0.00047488545533269644,-0.001534961280412972,0.999477744102478,0.0,0.0,0.0,2.3499484062194824,1.0423718690872192,5.627200603485107,-425.3453369140625,0
564.9419999999991,-0.018703028559684753,-0.0014306523371487856,-0.0006107819499447942,0.0,0.0,0.0,0.0,-0.0009064461337402463,-0.0009859077399596572,-8.824036194710061e-05,1.0000395774841309,0.0,0.0,0.0,2.345980167388916,1.0401012897491455,5.61593770980835,-424.6270446777344,0
574.8559999999998,-0.01868640072643757,-0.0013058760669082403,-0.000673749134875834,0.0,0.0,0.0,0.0,0.004792799241840839,-0.0031062564812600613,-0.0069665005430579185,1.0011823177337646,0.0,0.0,0.0,2.3526017665863037,1.0635969638824463,5.6246137619018555,-425.8255615234375,0
584.7669999999998,-0.01874246634542942,-0.0013762941816821694,-0.0006975781288929284,0.0,0.0,0.0,0.0,0.0015432641375809908,0.0009064089390449226,0.0018238613847643137,0.9996324181556702,0.0,0.0,0.0,2.3492863178253174,1.05330491065979,5.63339376449585,-425.2254638671875,0
594.6779999999999,-0.01878376677632332,-0.0013481795322149992,-0.000725038698874414,0.0,0.0,0.0,0.0,-0.0020028711296617985,-0.0015053128590807319,0.0006723710102960467,0.9970040321350098,0.0,0.0,0.0,2.3480114936828613,1.0511600971221924,5.62467098236084,-424.9947814941406,0
604.5869999999995,-0.018811441957950592,-0.001363404095172882,-0.0007161990506574512,0.0,0.0,0.0,0.0,0.0007190059986896813,0.0029485069680958986,0.0016882168129086494,0.999657392501831,0.0,0.0,0.0,2.3446834087371826,1.0539166927337646,5.616702079772949,-424.39239501953125,0
614.5010000000002,-0.01888316683471203,-0.0013438912574201822,-0.0007150528836064041,0.0,0.0,0.0,0.0,-0.0007770433439873159,-0.0033474231604486704,-0.001223458442837,0.9989871978759766,0.0,0.0,0.0,2.3419981002807617,1.0519530773162842,5.600815296173096,-423.90631103515625,0
624.4130000000005,-0.018842555582523346,-0.001354709966108203,-0.0006751749897375703,0.0,0.0,0.0,0.0,0.0043286848813295364,0.0021217858884483576,-0.0019391659880056977,1.000905156135559,0.0,0.0,0.0,2.339211940765381,1.0507792234420776,5.610280513763428,-423.40203857421875,0
634.3259999999991,-0.01893586851656437,-0.0013728238409385085,-0.0006696732598356903,0.0,0.0,0.0,0.0,-0.0012935217237100005,-0.001654452527873218,0.0013762315502390265,1.0004150867462158,0.0,0.0,0.0,2.34594988822937,1.0404359102249146,5.606555938720703,-424.62158203125,0
644.2299999999996,-0.018841957673430443,-0.0013783401809632778,-0.0006011663936078548,0.0,0.0,0.0,0.0,-0.0012184004299342632,-0.0030742320232093334,-0.0029981713742017746,0.9991273283958435,0.0,0.0,0.0,2.3434014320373535,1.0447723865509033,5.604057788848877,-424.16033935546875,0
654.146999999999,-0.018918542191386223,-0.001386045478284359,-0.0005995549727231264,0.0,0.0,0.0,0.0,0.0038597004022449255,0.001187696005217731,0.0009165081428363919,1.000449776649475,0.0,0.0,0.0,2.3524162769317627,1.050122857093811,5.604779243469238,-425.79205322265625,0
664.0529999999999,-0.018876010552048683,-0.0014226436614990234,-0.0005624269833788276,0.0,0.0,0.0,0.0,0.0003148710820823908,-0.005662390496581793,-0.006002477835863829,0.9989460110664368,0.0,0.0,0.0,2.3494789600372314,1.0462753772735596,5.594274520874023,-425.2603454589844,0
673.9660000000003,-0.018920311704277992,-0.0013626215513795614,-0.0005848009022884071,0.0,0.0,0.0,0.0,0.0006556264706887305,0.0014744749059900641,0.0002593683893792331,0.999967098236084,0.0,0.0,0.0,2.358140230178833,1.0592414140701294,5.603415489196777,-426.8280944824219,0
683.8690000000006,-0.018769539892673492,-0.001461649313569069,-0.0005412664031609893,0.0,0.0,0.0,0.0,0.002955922158434987,0.0017298584571108222,-0.00257270410656929,1.0013604164123535,0.0,0.0,0.0,2.3565657138824463,1.0588585138320923,5.601682662963867,-426.5430908203125,0
693.7909999999993,-0.01877894066274166,-0.0013738954439759254,-0.0006004464230500162,0.0,0.0,0.0,0.0,0.003578692441806197,0.001684185117483139,-0.0020519462414085865,1.000463604927063,0.0,0.0,0.0,2.3613665103912354,1.071918249130249,5.604823112487793,-427.4120788574219,0
703.7019999999993,-0.018727142363786697,-0.0014407853595912457,-0.000577914179302752,0.0,0.0,0.0,0.0,7.152258331188932e-05,0.0030202155467122793,-2.1030300558777526e-05,0.9998829364776611,0.0,0.0,0.0,2.3582141399383545,1.063520073890686,5.600906848907471,-426.84149169921875,0
713.6119999999992,-0.018807146698236465,-0.0014518536627292633,-0.0005758943734690547,0.0,0.0,0.0,0.0,-0.00264183571562171,0.0002364961546845734,0.0038081470411270857,0.9980379343032837,0.0,0.0,0.0,2.3640499114990234,1.0627398490905762,5.5960588455200195,-427.8977355957031,0
723.5139999999992,-0.018871178850531578,-0.0014482500264421105,-0.0005488491151481867,0.0,0.0,0.0,0.0,0.0008613900863565505,0.0021742035169154406,-0.0005055000656284392,1.000169277191162,0.0,0.0,0.0,2.361816883087158,1.0687073469161987,5.590082168579102,-427.4935302734375,0
733.4300000000003,-0.018878020346164703,-0.0013531071599572897,-0.0006224312237463892,0.0,0.0,0.0,0.0,0.0043112426064908504,0.0010541711235418916,-0.0011068268213421106,1.0022996664047241,0.0,0.0,0.0,2.365459680557251,1.080245852470398,5.589123725891113,-428.15289306640625,0
743.3379999999997,-0.01886487565934658,-0.0013977615162730217,-0.0006029018550179899,0.0,0.0,0.0,0.0,-0.0007414875435642898,-0.0014058159431442618,0.002400190569460392,1.0004116296768188,0.0,0.0,0.0,2.364114284515381,1.0760480165481567,5.574288368225098,-427.909423828125,0
753.2520000000004,-0.01888386346399784,-0.0013215499930083752,-0.0006707579595968127,0.0,0.0,0.0,0.0,0.0008767262916080654,0.001502861501649022,0.001230661291629076,0.9983652234077454,0.0,0.0,0.0,2.3626785278320312,1.0747287273406982,5.570955276489258,-427.6495056152344,0
763.1579999999994,-0.018838919699192047,-0.0013387290528044105,-0.000623849278781563,0.0,0.0,0.0,0.0,-0.0025791837833821774,-0.006344971247017384,0.0010403631022199988,0.9997708201408386,0.0,0.0,0.0,2.3541839122772217,1.0670007467269897,5.582848072052002,-426.1119689941406,0
773.0769999999993,-0.01887030526995659,-0.0012947524664923549,-0.0006885279435664415,0.0,0.0,0.0,0.0,-0.0011601627338677645,0.00430322578176856,-0.0003517906297929585,1.0002894401550293,0.0,0.0,0.0,2.350533962249756,1.0717978477478027,5.587411880493164,-425.45135498046875,0
782.9799999999996,-0.018928004428744316,-0.0012962964829057455,-0.0006756159709766507,0.0,0.0,0.0,0.0,0.0003379039408173412,-0.002092409646138549,0.0007832464762032032,1.000230073928833,0.0,0.0,0.0,2.3482038974761963,1.0712529420852661,5.576671123504639,-425.02960205078125,0
792.8999999999996,-0.01896348036825657,-0.0012512621469795704,-0.0007385900244116783,0.0,0.0,0.0,0.0,0.0012036159168928862,0.0007538904901593924,0.00026271524257026613,1.0004154443740845,0.0,0.0,0.0,2.3522109985351562,1.0824352502822876,5.586832523345947,-425.7548828125,0
802.8019999999997,-0.018936166539788246,-0.0012742056278511882,-0.0007091231527738273,0.0,0.0,0.0,0.0,-0.001206940971314907,-0.0025256769731640816,0.0016716000391170382,0.9977415800094604,0.0,0.0,0.0,2.3492887020111084,1.0788289308547974,5.577300071716309,-425.2259216308594,0
812.7219999999998,-0.019014939665794373,-0.0013172727776691318,-0.000743816839531064,0.0,0.0,0.0,0.0,0.00021379564714152366,-0.00040508309029974043,-0.0011241610627621412,0.9994229078292847,0.0,0.0,0.0,2.3470375537872314,1.0781774520874023,5.58125638961792,-424.8184509277344,0
822.6260000000002,-0.019106855615973473,-0.0013286368921399117,-0.0007503393571823835,0.0,0.0,0.0,0.0,-5.936751767876558e-05,4.543853356153704e-05,0.002634909236803651,0.999900221824646,0.0,0.0,0.0,2.3442893028259277,1.0797243118286133,5.569196701049805,-424.321044921875,0
832.5419999999995,-0.019122539088129997,-0.001247771317139268,-0.0008396727498620749,0.0,0.0,0.0,0.0,-0.002111660549417138,0.0013841763138771057,-0.0001616947411093861,1.0002845525741577,0.0,0.0,0.0,2.3417041301727295,1.0757298469543457,5.560976028442383,-423.8531188964844,0
842.4459999999999,-0.01887391321361065,-0.0013330054935067892,-0.0007173157064244151,0.0,0.0,0.0,0.0,-0.0016057607717812061,-0.0005511454655788839,-0.0037400522269308567,1.0008140802383423,0.0,0.0,0.0,2.3351783752441406,1.0610843896865845,5.629678726196289,-422.67193603515625,0
852.3670000000002,-0.01890012063086033,-0.0012868414632976055,-0.0007745190523564816,0.0,0.0,0.0,0.0,-0.002175095956772566,-0.0007258472614921629,0.00376761588267982,1.0000920295715332,0.0,0.0,0.0,2.332080841064453,1.0554908514022827,5.626244068145752,-422.1112976074219,0
862.2690000000002,-0.018976965919137,-0.0012958275619894266,-0.0007812214316800237,0.0,0.0,0.0,0.0,0.0022897550370544195,0.0043773348443210125,5.8955825807061046e-05,0.999693751335144,0.0,0.0,0.0,2.3306314945220947,1.0607796907424927,5.628006458282471,-421.84893798828125,0
872.2000000000007,-0.01900426298379898,-0.0012554795248433948,-0.0008500503608956933,0.0,0.0,0.0,0.0,-0.0012580479960888624,0.00456447247415781,-0.0036357115022838116,0.9997150897979736,0.0,0.0,0.0,2.327439069747925,1.0546234846115112,5.620547294616699,-421.2711181640625,0
882.0910000000003,-0.018836097791790962,-0.0013116691261529922,-0.0007490753196179867,0.0,0.0,0.0,0.0,-0.0022602551616728306,-0.0003555709554348141,0.0020338043104857206,0.9988972544670105,0.0,0.0,0.0,2.3218023777008057,1.0436062812805176,5.657386302947998,-420.2508544921875,0
892.018,-0.018899036571383476,-0.001317963469773531,-0.0007603575941175222,0.0,0.0,0.0,0.0,-0.0016174757620319724,-0.0038719610311090946,0.00038735574344173074,1.0013206005096436,0.0,0.0,0.0,2.3191475868225098,1.0431662797927856,5.644423484802246,-419.77032470703125,0
901.9189999999999,-0.01877976581454277,-0.0013248644536361098,-0.0006857968401163816,0.0,0.0,0.0,0.0,0.0024692246224731207,0.00444341916590929,0.0033933508675545454,0.9999505877494812,0.0,0.0,0.0,2.317084550857544,1.0416805744171143,5.649106979370117,-419.39691162109375,0
911.8340000000007,-0.018869083374738693,-0.0013714999658986926,-0.0006665964028798044,0.0,0.0,0.0,0.0,0.0014567645266652107,-0.00413024565204978,0.0013795967679470778,1.0009937286376953,0.0,0.0,0.0,2.32529354095459,1.029198169708252,5.629210472106934,-420.88275146484375,0
921.735999999999,-0.01882965676486492,-0.0013734500389546156,-0.0006169045227579772,0.0,0.0,0.0,0.0,0.0007802449981682003,0.0012994393473491073,0.00016389861411880702,1.000990867614746,0.0,0.0,0.0,2.3232927322387695,1.0217620134353638,5.6298418045043945,-420.5206298828125,0
931.6509999999998,-0.018896929919719696,-0.0013866040389984846,-0.0006190616986714303,0.0,0.0,0.0,0.0,0.0003782750281970948,0.004391295835375786,-0.0010734552051872015,0.9999801516532898,0.0,0.0,0.0,2.331709861755371,1.0175514221191406,5.6238555908203125,-422.04412841796875,0
941.5579999999991,-0.018770255148410797,-0.0014361405046656728,-0.0005582087324000895,0.0,0.0,0.0,0.0,0.002412613481283188,0.0011627195635810494,-0.0009620000491850078,1.000066876411438,0.0,0.0,0.0,2.328787326812744,1.0197584629058838,5.620310306549072,-421.51513671875,0
951.4750000000004,-0.018800824880599976,-0.0013873514253646135,-0.0005829386063851416,0.0,0.0,0.0,0.0,-0.0003345761797390878,0.0030961818993091583,0.0004548455181065947,1.0007915496826172,0.0,0.0,0.0,2.325653076171875,1.0189765691757202,5.613827228546143,-420.9478454589844,0
961.384,-0.01875578984618187,-0.0014345962554216385,-0.0005480409599840641,0.0,0.0,0.0,0.0,0.0022891906555742025,-0.0007736306288279593,0.0008986065513454378,1.0000165700912476,0.0,0.0,0.0,2.323538064956665,1.0194320678710938,5.602505683898926,-420.5649719238281,0
971.2939999999999,-0.018806587904691696,-0.0014320123009383678,-0.0005579538410529494,0.0,0.0,0.0,0.0,0.0022774385288357735,-0.004713050089776516,0.0005857181968167424,1.000540852546692,0.0,0.0,0.0,2.332679510116577,1.0151796340942383,5.612976551055908,-422.2196350097656,0
981.2080000000005,-0.018768562003970146,-0.0014600602444261312,-0.0005152375670149922,0.0,0.0,0.0,0.0,-0.0006798424874432385,0.0009106845827773213,-0.0032790799159556627,1.001387119293213,0.0,0.0,0.0,2.3310296535491943,1.006346344947815,5.608731746673584,-421.9210205078125,0
991.1219999999994,-0.01875936985015869,-0.0013742775190621614,-0.0005801552906632423,0.0,0.0,0.0,0.0,-0.00044027084368281066,-0.0016317481640726328,-0.004213005769997835,1.0005114078521729,0.0,0.0,0.0,2.3292348384857178,1.0052781105041504,5.601288318634033,-421.59613037109375,0
1001.027,-0.01881147176027298,-0.001390606164932251,-0.0005716360756196082,0.0,0.0,0.0,0.0,6.357473466778174e-05,0.0025306586176156998,0.0009907016064971685,0.9997578263282776,0.0,0.0,0.0,2.32548451423645,1.0055437088012695,5.59808349609375,-420.91729736328125,0
1010.9390000000003,-0.018816178664565086,-0.0013295647222548723,-0.0006359067629091442,0.0,0.0,0.0,0.0,0.001920051989145577,0.0009917314164340496,-0.002320490777492523,1.0025407075881958,0.0,0.0,0.0,2.322343587875366,1.0007704496383667,5.59149169921875,-420.3487854003906,0
1020.848,-0.018808195367455482,-0.0013596646022051573,-0.0006114371935836971,0.0,0.0,0.0,0.0,-0.00022243241255637258,0.006168148014694452,0.00011266178626101464,1.002644419670105,0.0,0.0,0.0,2.319591999053955,0.9939565658569336,5.578005790710449,-419.8507385253906,0
1030.762999999999,-0.018856672570109367,-0.0013359967852011323,-0.0006237232009880245,0.0,0.0,0.0,0.0,0.0007697901455685496,-0.002651001326739788,0.0061346059665083885,0.9998340010643005,0.0,0.0,0.0,2.316276788711548,0.9888411164283752,5.566958427429199,-419.2507019042969,0
1040.67,-0.018834518268704414,-0.0013623129343613982,-0.000587676593568176,0.0,0.0,0.0,0.0,0.000696034578140825,0.00034480486647225916,-0.003369431011378765,1.001363754272461,0.0,0.0,0.0,2.3150644302368164,0.9852305054664612,5.561191558837891,-419.03125,0
1050.5830000000005,-0.01887335255742073,-0.0013267922913655639,-0.0006084807100705802,0.0,0.0,0.0,0.0,0.0016414710553362966,-0.0011011348105967045,0.0034103093203157187,1.0009206533432007,0.0,0.0,0.0,2.311569929122925,0.9892061948776245,5.559381008148193,-418.39874267578125,0
1060.4930000000004,-0.01883063279092312,-0.0013558767968788743,-0.000564253656193614,0.0,0.0,0.0,0.0,0.000731983978766948,0.00026881415396928787,0.0009240330546163023,0.9999712705612183,0.0,0.0,0.0,2.3089089393615723,0.9831769466400146,5.5512518882751465,-417.9171142578125,0
1070.405999999999,-0.018829388543963432,-0.001289611915126443,-0.0006287173018790781,0.0,0.0,0.0,0.0,0.0014325984520837665,-0.0036397117655724287,0.0013814830454066396,1.0001946687698364,0.0,0.0,0.0,2.3071844577789307,0.9770724773406982,5.546566486358643,-417.60498046875,0
1080.3160000000007,-0.018766241148114204,-0.0013972402084618807,-0.0006271125166676939,0.0,0.0,0.0,0.0,-0.00417432002723217,-0.005520949140191078,0.003111528232693672,1.0004792213439941,0.0,0.0,0.0,2.3047828674316406,0.9756020307540894,5.556817054748535,-417.1702880859375,0
1090.2260000000006,-0.018737725913524628,-0.0012795176589861512,-0.0007111131562851369,0.0,0.0,0.0,0.0,-0.0020533876959234476,0.004972267430275679,0.0002540787390898913,1.000622272491455,0.0,0.0,0.0,2.3024823665618896,0.9788866639137268,5.549312591552734,-416.7538757324219,0
1100.137999999999,-0.01874047890305519,-0.001253373920917511,-0.0007347567589022219,0.0,0.0,0.0,0.0,0.003049395978450775,-0.0021962595637887716,0.004825949668884277,0.9985185265541077,0.0,0.0,0.0,2.300051212310791,0.9834855794906616,5.531994342803955,-416.3138122558594,0
1110.057999999999,-0.018809465691447258,-0.0012653988087549806,-0.0007352256798185408,0.0,0.0,0.0,0.0,-0.0017169825732707977,-0.0009441651054657996,-0.00015355547657236457,0.9974231719970703,0.0,0.0,0.0,2.2986598014831543,0.9776738882064819,5.529649257659912,-416.06201171875,0
1119.9689999999991,-0.018795693293213844,-0.00129409518558532,-0.0007017530733719468,0.0,0.0,0.0,0.0,0.0010221445700153708,-0.002109197899699211,0.003233114955946803,0.9977667927742004,0.0,0.0,0.0,2.295886754989624,0.9801772832870483,5.531490802764893,-415.5600891113281,0
1129.869999999999,-0.01886821538209915,-0.0013095393078401685,-0.0007031540153548121,0.0,0.0,0.0,0.0,0.004926006309688091,0.0030159137677401304,-0.00026936602080240846,0.9968433976173401,0.0,0.0,0.0,2.2935237884521484,0.9818240404129028,5.525383472442627,-415.1323547363281,0
1139.7919999999995,-0.018822811543941498,-0.001370116020552814,-0.0007161283865571022,0.0,0.0,0.0,0.0,-0.0010214486392214894,-0.003482398111373186,0.00011241918400628492,0.9988497495651245,0.0,0.0,0.0,2.2917635440826416,0.9741008877754211,5.5194854736328125,-414.8137512207031,0
1149.6929999999993,-0.018896939232945442,-0.0013898811303079128,-0.0007232913048937917,0.0,0.0,0.0,0.0,0.0005047941231168807,0.0006779038230888546,-0.0006304567214101553,0.9974657893180847,0.0,0.0,0.0,2.288825035095215,0.9664751887321472,5.512690544128418,-414.2818908691406,0
1159.6190000000006,-0.01879461482167244,-0.001395423780195415,-0.0006889025098644197,0.0,0.0,0.0,0.0,0.0013931074645370245,0.000195444212295115,0.0010346021736040711,0.9995089173316956,0.0,0.0,0.0,2.2868311405181885,0.9553252458572388,5.508617401123047,-413.9209899902344,0
1169.5159999999996,-0.018869830295443535,-0.0014159922720864415,-0.0006958475569263101,0.0,0.0,0.0,0.0,0.0016142704989761114,-0.002194260247051716,0.0032532494515180588,1.001115083694458,0.0,0.0,0.0,2.2846362590789795,0.9574491381645203,5.509171962738037,-413.52374267578125,0
1179.4349999999995,-0.018787505105137825,-0.001328083104453981,-0.0007136878557503223,0.0,0.0,0.0,0.0,0.0007219185936264694,-0.001188805210404098,-0.000249979057116434,0.9991298913955688,0.0,0.0,0.0,2.2826430797576904,0.9571885466575623,5.499033451080322,-413.1629638671875,0
1189.3369999999995,-0.018867632374167442,-0.001344737014733255,-0.0007207212038338184,0.0,0.0,0.0,0.0,0.0022892318665981293,0.004105702508240938,-0.004471429158002138,1.000465989112854,0.0,0.0,0.0,2.2818477153778076,0.9513455629348755,5.504642009735107,-413.01898193359375,0
1199.259,-0.01877150870859623,-0.0013968877028673887,-0.0006689213332720101,0.0,0.0,0.0,0.0,0.0022005364298820496,-0.00041794395656324923,-0.001351660117506981,1.0020582675933838,0.0,0.0,0.0,2.294586420059204,0.9461844563484192,5.4978742599487305,-415.32470703125,0
1209.1599999999999,-0.018851999193429947,-0.001413844176568091,-0.0006707414868287742,0.0,0.0,0.0,0.0,0.0007426472730003297,-0.0070606558583676815,-0.0017417939379811287,0.9992702007293701,0.0,0.0,0.0,2.2915351390838623,0.937208354473114,5.478977680206299,-414.77239990234375,0
1219.0849999999991,-0.018706627190113068,-0.0013107580598443747,-0.0006802781135775149,0.0,0.0,0.0,0.0,-0.0020492442417889833,0.0032706144265830517,-0.0002151233347831294,0.9990568161010742,0.0,0.0,0.0,2.288062572479248,0.9300140738487244,5.484050750732422,-414.14385986328125,0
1228.982,-0.01878638006746769,-0.0013224489521235228,-0.0006820982089266181,0.0,0.0,0.0,0.0,-0.0015474500833079219,0.0013479595072567463,-0.001014416920952499,1.0019437074661255,0.0,0.0,0.0,2.2862181663513184,0.9309072494506836,5.482665538787842,-413.8100280761719,0
1238.911,-0.01877654530107975,-0.0012839992996305227,-0.0007004340295679867,0.0,0.0,0.0,0.0,0.0003420898865442723,-0.0042155832052230835,0.0008742038044147193,1.0001436471939087,0.0,0.0,0.0,2.2925591468811035,0.941361665725708,5.4808735847473145,-414.957763671875,0
1248.8050000000003,-0.01885984279215336,-0.001294175279326737,-0.0007020783377811313,0.0,0.0,0.0,0.0,-0.0017420632066205144,0.003947797231376171,-0.00113497709389776,1.0003482103347778,0.0,0.0,0.0,2.2900209426879883,0.9420130848884583,5.488820552825928,-414.4983215332031,0
1258.7240000000002,-0.018844762817025185,-0.001330084283836186,-0.0006792467320337892,0.0,0.0,0.0,0.0,0.0015839770203456283,-0.0009076338610611856,0.0020022669341415167,0.9997670650482178,0.0,0.0,0.0,2.2884230613708496,0.9455995559692383,5.47971773147583,-414.2091064453125,0
1268.6270000000004,-0.018901227042078972,-0.0012977541191503406,-0.0007177111110650003,0.0,0.0,0.0,0.0,0.00028336321702226996,-0.0009729141020216048,0.0004217290261294693,1.000057339668274,0.0,0.0,0.0,2.294384479522705,0.9477691054344177,5.486761569976807,-415.2881164550781,0
1278.548999999999,-0.01898987963795662,-0.0013137651840224862,-0.0007198570528998971,0.0,0.0,0.0,0.0,-0.0005942677380517125,0.0011052831541746855,-0.004111907444894314,1.0002237558364868,0.0,0.0,0.0,2.292041063308716,0.9464734196662903,5.4862236976623535,-414.864013671875,0
1288.4490000000005,-0.019014088436961174,-0.0012759974924847484,-0.0007962851668708026,0.0,0.0,0.0,0.0,-0.0038102446123957634,0.0004073514137417078,0.0010609396267682314,0.9992455244064331,0.0,0.0,0.0,2.289241075515747,0.9470672011375427,5.486517429351807,-414.357177734375,0
1298.3719999999994,-0.019103972241282463,-0.0012934088008478284,-0.0008039220119826496,0.0,0.0,0.0,0.0,0.002290504053235054,-0.002460209419950843,-0.00034660770324990153,0.9986361861228943,0.0,0.0,0.0,2.286290407180786,0.9524291753768921,5.475346088409424,-413.8231201171875,0
1308.271999999999,-0.01914271153509617,-0.0012460763100534678,-0.0008666706271469593,0.0,0.0,0.0,0.0,0.0031569518614560366,0.0036368248984217644,-0.00062515091849491,0.9991902709007263,0.0,0.0,0.0,2.2968931198120117,0.9699681401252747,5.498922824859619,-415.74224853515625,0
1318.191999999999,-0.01923329010605812,-0.0012608139077201486,-0.0008804599056020379,0.0,0.0,0.0,0.0,0.0010137284407392144,0.003152273129671812,0.00023074867203831673,0.9981752634048462,0.0,0.0,0.0,2.2958929538726807,0.964227020740509,5.492575645446777,-415.5611877441406,0
1328.0969999999998,-0.01925986260175705,-0.001204721163958311,-0.000956293661147356,0.0,0.0,0.0,0.0,-0.0015978770097717643,-0.0028383960016071796,-0.0011472637997940183,0.9989883303642273,0.0,0.0,0.0,2.302922487258911,0.9895338416099548,5.516077995300293,-416.83355712890625,0
1338.0169999999998,-0.01934634894132614,-0.001215482479892671,-0.000976906972937286,0.0,0.0,0.0,0.0,-0.00134790048468858,-0.002267509466037154,0.002150872489437461,1.0006922483444214,0.0,0.0,0.0,2.300424337387085,0.9895499348640442,5.514496326446533,-416.38140869140625,0
1347.9230000000007,-0.01939019374549389,-0.0011760506313294172,-0.001032534521073103,0.0,0.0,0.0,0.0,-0.0008129521738737822,0.0034147303085774183,-0.001326365047134459,1.000001072883606,0.0,0.0,0.0,2.305197238922119,1.005547046661377,5.528240203857422,-417.2452697753906,0
1357.8430000000008,-0.019478298723697662,-0.0011860289378091693,-0.0010560897644609213,0.0,0.0,0.0,0.0,0.004158918745815754,0.004662490449845791,4.562372396321734e-06,1.0009853839874268,0.0,0.0,0.0,2.3022892475128174,1.004196047782898,5.5198493003845215,-416.7189025878906,0
1367.7389999999996,-0.019505975767970085,-0.0012050073128193617,-0.0011463301489129663,0.0,0.0,0.0,0.0,-0.0022208704613149166,0.0004952623276039958,0.001904020318761468,1.0014173984527588,0.0,0.0,0.0,2.299598455429077,0.9947932362556458,5.503314971923828,-416.2319030761719,0
1377.6579999999994,-0.019594648852944374,-0.001218473189510405,-0.0011729844845831394,0.0,0.0,0.0,0.0,-0.0013345902552828193,0.0009944167686626315,0.0010115505428984761,0.9989808201789856,0.0,0.0,0.0,2.2974741458892822,0.9940980076789856,5.493770122528076,-415.847412109375,0
1387.5650000000005,-0.01961563713848591,-0.0012100990861654282,-0.0012555618304759264,0.0,0.0,0.0,0.0,0.002305949805304408,-0.002355690114200115,-0.00047287618508562446,1.0005515813827515,0.0,0.0,0.0,2.295764446258545,0.9935628175735474,5.483828544616699,-415.5379333496094,0
1397.485999999999,-0.019703522324562073,-0.0012207156978547573,-0.001285942387767136,0.0,0.0,0.0,0.0,-0.00011624035687418655,-0.0025993678718805313,0.002370518399402499,1.0009117126464844,0.0,0.0,0.0,2.292900323867798,0.9914904832839966,5.477213382720947,-415.0195007324219,0
1407.384,-0.019716888666152954,-0.0012053748359903693,-0.0013708745827898383,0.0,0.0,0.0,0.0,-0.0031091351993381977,-0.0013157407520338893,-0.001485432730987668,1.0006457567214966,0.0,0.0,0.0,2.2921385765075684,0.9832038283348083,5.482463836669922,-414.8816223144531,0
1417.3029999999999,-0.0198049433529377,-0.001212865929119289,-0.0014034438645467162,0.0,0.0,0.0,0.0,0.0029514459893107414,0.00045945303281769156,0.0023206134792417288,0.999733030796051,0.0,0.0,0.0,2.2884371280670166,0.9863711595535278,5.478392601013184,-414.211669921875,0
1427.2099999999991,-0.019824692979454994,-0.0011370540596544743,-0.0014622558373957872,0.0,0.0,0.0,0.0,0.0016136779449880123,-0.0044427732937037945,0.0038127191364765167,0.9997283816337585,0.0,0.0,0.0,2.289947271347046,1.0238207578659058,5.50875186920166,-414.4850158691406,0
1437.1299999999992,-0.01991666480898857,-0.0011370754800736904,-0.001496945507824421,0.0,0.0,0.0,0.0,-0.0003623462689574808,0.0008592117810621858,0.00241785473190248,0.9991499185562134,0.0,0.0,0.0,2.2882871627807617,1.019341230392456,5.51009464263916,-414.1845397949219,0
1447.030999999999,-0.019939573481678963,-0.0010663114953786135,-0.0015604854561388493,0.0,0.0,0.0,0.0,0.0008412923198193312,0.001134410034865141,0.0012383769499137998,0.9979984164237976,0.0,0.0,0.0,2.2927441596984863,1.0458533763885498,5.536981582641602,-414.99127197265625,0
1456.9570000000003,-0.020033471286296844,-0.001059478148818016,-0.001599108916707337,0.0,0.0,0.0,0.0,0.00041249976493418217,0.002665744163095951,-0.0003274935588706285,0.9965089559555054,0.0,0.0,0.0,2.291522264480591,1.0478800535202026,5.533623218536377,-414.7701110839844,0
1466.8520000000008,-0.020131003111600876,-0.0010532507440075278,-0.001639760099351406,0.0,0.0,0.0,0.0,0.0007753628306090832,0.0004624693829100579,0.0005963220028206706,0.9985560774803162,0.0,0.0,0.0,2.28768253326416,1.0489212274551392,5.5304036140441895,-414.0751037597656,0
1476.7710000000006,-0.0202331580221653,-0.001048287726007402,-0.0016828461084514856,0.0,0.0,0.0,0.0,-0.0017079039243981242,0.0007068823324516416,-0.0034926312509924173,1.0010708570480347,0.0,0.0,0.0,2.2863173484802246,1.0456271171569824,5.518518924713135,-413.8279724121094,0
1486.6769999999997,-0.020340250805020332,-0.001045102602802217,-0.0017267094226554036,0.0,0.0,0.0,0.0,0.00031574556487612426,-0.0028238054364919662,0.0009737663203850389,0.999714732170105,0.0,0.0,0.0,2.282362937927246,1.0441923141479492,5.508514404296875,-413.11224365234375,0
1496.6029999999992,-0.020451772958040237,-0.0010438297176733613,-0.0017699344316497445,0.0,0.0,0.0,0.0,0.0017761490307748318,0.004003408830612898,0.0009526049834676087,1.001004934310913,0.0,0.0,0.0,2.2814815044403076,1.0433621406555176,5.511462211608887,-412.95269775390625,0
1506.5010000000002,-0.02056785114109516,-0.0010449729161337018,-0.0018127020448446274,0.0,0.0,0.0,0.0,0.0011691291583701968,-0.002823753748089075,0.0012462487211450934,1.001690149307251,0.0,0.0,0.0,2.279510736465454,1.0375970602035522,5.505409240722656,-412.5959777832031,0
1516.4210000000003,-0.02068767510354519,-0.0010486007668077946,-0.0018542935140430927,0.0,0.0,0.0,0.0,0.0002633350668475032,0.0027930845972150564,0.0007188924937509,0.9991540908813477,0.0,0.0,0.0,2.276238441467285,1.0403852462768555,5.499022960662842,-412.0036926269531,0
1526.316999999999,-0.02081034891307354,-0.001053737592883408,-0.0018951179226860404,0.0,0.0,0.0,0.0,0.00020264493650756776,-0.0004874485020991415,0.0019819200970232487,1.000732183456421,0.0,0.0,0.0,2.2749462127685547,1.0402491092681885,5.496631622314453,-411.769775390625,0
1536.2340000000004,-0.020936116576194763,-0.0010594897903501987,-0.0019359978614374995,0.0,0.0,0.0,0.0,0.0008114741649478674,0.0005390730802901089,-0.002133446978405118,0.9991779923439026,0.0,0.0,0.0,2.273486375808716,1.0400142669677734,5.4892425537109375,-411.5055847167969,0
1546.1389999999992,-0.021065933629870415,-0.0010653985664248466,-0.0019764131866395473,0.0,0.0,0.0,0.0,-0.00260790903121233,0.00199831067584455,0.0005021896795369685,0.9984213709831238,0.0,0.0,0.0,2.270810127258301,1.0350064039230347,5.48498010635376,-411.0211486816406,0
1556.057999999999,-0.02120046317577362,-0.0010717306286096573,-0.0020172172226011753,0.0,0.0,0.0,0.0,0.00264241686090827,-0.0012354119680821896,-0.0012619108892977238,1.0005028247833252,0.0,0.0,0.0,2.2689247131347656,1.0361839532852173,5.484866619110107,-410.6799011230469,0
1565.9619999999995,-0.02133915014564991,-0.0010790281230583787,-0.0020585311576724052,0.0,0.0,0.0,0.0,-0.0014506387524306774,0.0009711912134662271,-0.006382266525179148,1.0002082586288452,0.0,0.0,0.0,2.266317129135132,1.034614086151123,5.47844934463501,-410.20794677734375,0
1575.8799999999992,-0.02148083969950676,-0.0010870611295104027,-0.0020996553357690573,0.0,0.0,0.0,0.0,9.397351095685735e-05,0.001840805634856224,0.000925495638512075,1.0018584728240967,0.0,0.0,0.0,2.2625443935394287,1.0315827131271362,5.4627790451049805,-409.5249938964844,0
1585.7849999999999,-0.021625451743602753,-0.0010961010120809078,-0.002139952266588807,0.0,0.0,0.0,0.0,0.001961460104212165,0.0014664456248283386,-3.3421103580622e-05,1.0002225637435913,0.0,0.0,0.0,2.261247158050537,1.031270146369934,5.4574174880981445,-409.29022216796875,0
1595.696,-0.021774640306830406,-0.0011068329913541675,-0.0021788314916193485,0.0,0.0,0.0,0.0,-0.0018922195304185152,0.0024002862628549337,-0.0012228429550305009,0.9992947578430176,0.0,0.0,0.0,2.2584502696990967,1.0268926620483398,5.447653293609619,-408.78399658203125,0
1605.6080000000002,-0.021928418427705765,-0.0011183485621586442,-0.002217520959675312,0.0,0.0,0.0,0.0,-0.0025546783581376076,-0.0003948407538700849,0.0006025019101798534,1.0010937452316284,0.0,0.0,0.0,2.2552998065948486,1.0300490856170654,5.438107013702393,-408.2137756347656,0
1615.5280000000002,-0.022085702046751976,-0.0011300876503810287,-0.0022560791112482548,0.0,0.0,0.0,0.0,-0.0022825654596090317,-0.0033571270760148764,0.001624953467398882,0.999854326248169,0.0,0.0,0.0,2.253944158554077,1.0294928550720215,5.437164783477783,-407.9683837890625,0
1625.432999999999,-0.02224678173661232,-0.0011420807568356395,-0.0022939955815672874,0.0,0.0,0.0,0.0,-0.0022641243413090706,0.0009060491574928164,0.0033701234497129917,1.0000245571136475,0.0,0.0,0.0,2.252417802810669,1.0278325080871582,5.436891555786133,-407.6921081542969,0
1635.3410000000003,-0.02241218090057373,-0.0011537482496351004,-0.002331693423911929,0.0,0.0,0.0,0.0,0.0012572393752634525,0.000842008797917515,0.0010969171999022365,1.0000020265579224,0.0,0.0,0.0,2.2501609325408936,1.0343294143676758,5.430620193481445,-407.2835998535156,0
1645.2549999999992,-0.022581985220313072,-0.0011654238915070891,-0.002369276713579893,0.0,0.0,0.0,0.0,0.00024197297170758247,-0.0015213476726785302,4.067351619596593e-05,0.9991858601570129,0.0,0.0,0.0,2.247161865234375,1.0259748697280884,5.4104108810424805,-406.74078369140625,0
1655.1640000000007,-0.022756114602088928,-0.0011779596097767353,-0.002406850690022111,0.0,0.0,0.0,0.0,-0.0014217803254723549,-0.0013654747745022178,-0.002313784556463361,1.0013819932937622,0.0,0.0,0.0,2.2448391914367676,1.0255811214447021,5.408478260040283,-406.3203430175781,0
1665.075999999999,-0.022933974862098694,-0.0011913658818230033,-0.0024441592395305634,0.0,0.0,0.0,0.0,0.007065701298415661,-0.0009223829838447273,0.0010445993393659592,0.9977645874023438,0.0,0.0,0.0,2.2431225776672363,1.023766279220581,5.406628131866455,-406.0096740722656,0
1674.9879999999994,-0.023114964365959167,-0.001205524313263595,-0.0024811176117509604,0.0,0.0,0.0,0.0,0.0008788147242739797,0.002814266365021467,0.0019224861171096563,0.9987738132476807,0.0,0.0,0.0,2.240216016769409,1.017506718635559,5.399524211883545,-405.4835205078125,0
1684.9009999999998,-0.023298541083931923,-0.0012209336273372173,-0.0025191870518028736,0.0,0.0,0.0,0.0,1.5676852854085155e-05,0.0038827727548778057,0.002080712467432022,0.9985130429267883,0.0,0.0,0.0,2.2378523349761963,1.0144026279449463,5.381947040557861,-405.0557556152344,0
1694.807999999999,-0.02348482236266136,-0.0012372889323160052,-0.0025589901488274336,0.0,0.0,0.0,0.0,0.00037215041811577976,-0.0005478531238622963,-0.001014549401588738,0.9994071125984192,0.0,0.0,0.0,2.2370777130126953,1.011971116065979,5.372317790985107,-404.91552734375,0
1704.7189999999991,-0.018725935369729996,-0.0014056506333872676,-0.000530052580870688,0.0,0.0,0.0,0.0,-0.003530101152136922,0.0027503252495080233,-0.0001451413263566792,1.000469446182251,0.0,0.0,0.0,2.2481932640075684,1.0720810890197754,5.922540664672852,-406.92742919921875,0
1714.634,-0.018765104934573174,-0.0014136384706944227,-0.0005372017621994019,0.0,0.0,0.0,0.0,-0.0013761731097474694,0.0020218875724822283,0.002669885754585266,1.000290870666504,0.0,0.0,0.0,2.246792793273926,1.0797258615493774,5.909881114959717,-406.6739501953125,0
1724.545,-0.018660761415958405,-0.0013855451252311468,-0.0006026339251548052,0.0,0.0,0.0,0.0,0.003566766856238246,0.00018984997586812824,0.0013750145444646478,0.9987903237342834,0.0,0.0,0.0,2.272569179534912,1.0858149528503418,5.928074836730957,-411.33953857421875,0
1734.4519999999993,-0.01869998313486576,-0.0013948589330539107,-0.000611464842222631,0.0,0.0,0.0,0.0,-0.000866235641296953,0.003389407880604267,-0.00016304771997965872,0.9989722967147827,0.0,0.0,0.0,2.2705636024475098,1.0841827392578125,5.924112319946289,-410.9765319824219,0
1744.3639999999996,-0.01865369640290737,-0.0013947348343208432,-0.0006345151923596859,0.0,0.0,0.0,0.0,-0.0007439613691531122,-0.002155913272872567,-0.0016033854335546494,1.0018740892410278,0.0,0.0,0.0,2.299410104751587,1.0770046710968018,5.923157215118408,-416.1977844238281,0
1754.2759999999998,-0.018696065992116928,-0.0014069053577259183,-0.0006442962330766022,0.0,0.0,0.0,0.0,0.0011048425221815705,0.0015212100697681308,-0.0033923781011253595,1.0020558834075928,0.0,0.0,0.0,2.2956759929656982,1.0791584253311157,5.9254231452941895,-415.5218811035156,0
1764.187,-0.018712326884269714,-0.001367673510685563,-0.0006802325951866806,0.0,0.0,0.0,0.0,0.001467919908463955,0.007908381521701813,-0.003345671808347106,1.000120997428894,0.0,0.0,0.0,2.306426525115967,1.0839738845825195,5.931362628936768,-417.4678039550781,0
1774.0959999999995,-0.018759338185191154,-0.0013797152787446976,-0.0006882949965074658,0.0,0.0,0.0,0.0,-0.0015179356560111046,-0.0012587126111611724,0.0013432498089969158,0.9990808963775635,0.0,0.0,0.0,2.303985118865967,1.0739634037017822,5.90905237197876,-417.0259094238281,0
1784.0100000000002,-0.01871747151017189,-0.0013167409924790263,-0.0007344119367189705,0.0,0.0,0.0,0.0,0.00029741102480329573,-0.0029176969546824694,0.0003349220787640661,0.9983237981796265,0.0,0.0,0.0,2.317537546157837,1.0885032415390015,5.908741474151611,-419.4788818359375,0
1793.9210000000003,-0.01875259354710579,-0.0012928821379318833,-0.0007555205374956131,0.0,0.0,0.0,0.0,0.0002787635021377355,-0.00023787590907886624,0.0004045165842399001,1.0009328126907349,0.0,0.0,0.0,2.328843116760254,1.0833803415298462,5.902091026306152,-421.5252380371094,0
1803.8400000000001,-0.01880665309727192,-0.0013023125939071178,-0.0007675552042201161,0.0,0.0,0.0,0.0,0.0005091782659292221,-0.0013715557288378477,-0.0019242214038968086,1.0024256706237793,0.0,0.0,0.0,2.3266637325286865,1.0861942768096924,5.902547359466553,-421.1307373046875,0
1813.7420000000002,-0.018858911469578743,-0.0013438775204122066,-0.0007964238757267594,0.0,0.0,0.0,0.0,-0.003661947790533304,-0.007532870396971703,0.0032121622934937477,0.9995629191398621,0.0,0.0,0.0,2.3242194652557373,1.0899004936218262,5.9007415771484375,-420.6883239746094,0
1823.6530000000002,-0.01877460815012455,-0.00137777766212821,-0.0007452039862982929,0.0,0.0,0.0,0.0,0.002505270531401038,0.0015048000495880842,0.003171124728396535,0.9998781681060791,0.0,0.0,0.0,2.3223559856414795,1.0907576084136963,5.907861232757568,-420.35107421875,0
1833.5660000000007,-0.01883571222424507,-0.0013840607134625316,-0.0007404091884382069,0.0,0.0,0.0,0.0,-0.001742471824400127,1.3815972124575637e-05,0.0008701966144144535,0.9987167119979858,0.0,0.0,0.0,2.3347041606903076,1.0857758522033691,5.9040350914001465,-422.5860900878906,0
1843.4760000000006,-0.018835073336958885,-0.0013402487384155393,-0.00069183245068416,0.0,0.0,0.0,0.0,-0.0007765506743453443,-1.9377132048248313e-05,-0.0003722547262441367,1.0028241872787476,0.0,0.0,0.0,2.333230972290039,1.0847256183624268,5.892909526824951,-422.3194580078125,0
1853.3870000000006,-0.01888795755803585,-0.0013458143221214414,-0.0007015610462985933,0.0,0.0,0.0,0.0,-0.00229929992929101,0.0008020934765227139,-0.003772058989852667,1.000603437423706,0.0,0.0,0.0,2.344491481781006,1.087040901184082,5.885222911834717,-424.357666015625,0
1863.2970000000005,-0.018795093521475792,-0.0013485429808497429,-0.0006377215031534433,0.0,0.0,0.0,0.0,-0.001278855954296887,0.0005255790892988443,0.0032821334898471832,0.9994285106658936,0.0,0.0,0.0,2.342351198196411,1.0869194269180298,5.87056303024292,-423.9702453613281,0
1873.214,-0.018848897889256477,-0.001356282620690763,-0.0006414226372726262,0.0,0.0,0.0,0.0,0.002117085736244917,0.00467673921957612,-0.0024003854487091303,0.9992052316665649,0.0,0.0,0.0,2.3554863929748535,1.0983787775039673,5.8696370124816895,-426.34771728515625,0
1883.1229999999996,-0.018770581111311913,-0.0013765727635473013,-0.0005880438257008791,0.0,0.0,0.0,0.0,0.0007600170793011785,-0.00048713901196606457,0.0004551817546598613,1.000477910041809,0.0,0.0,0.0,2.3536906242370605,1.0887887477874756,5.859860897064209,-426.02264404296875,0
1893.0329999999994,-0.01885254681110382,-0.0014097616076469421,-0.0005578835844062269,0.0,0.0,0.0,0.0,0.0009827243629842997,-0.002134012756869197,0.00028340116841718554,0.9989869594573975,0.0,0.0,0.0,2.3622984886169434,1.0846920013427734,5.844818592071533,-427.5807189941406,0
1902.946,-0.018739957362413406,-0.0014544868608936667,-0.0004988959990441799,0.0,0.0,0.0,0.0,-0.002642230596393347,0.00035515642957761884,-0.0005408629076555371,1.000078797340393,0.0,0.0,0.0,2.359450578689575,1.0799179077148438,5.8357439041137695,-427.06524658203125,0
1912.8580000000002,-0.018753046169877052,-0.0014319729525595903,-0.0005439267260953784,0.0,0.0,0.0,0.0,0.0005539209232665598,0.004000337794423103,0.002095225267112255,0.9990286231040955,0.0,0.0,0.0,2.3573873043060303,1.0841386318206787,5.8412275314331055,-426.6917724609375,0
1922.7700000000004,-0.018699508160352707,-0.0014518286334350705,-0.0004975128686055541,0.0,0.0,0.0,0.0,0.0008242021431215107,0.0013800169108435512,-0.0018601655028760433,0.9988925457000732,0.0,0.0,0.0,2.354867696762085,1.0864992141723633,5.82290506362915,-426.2357482910156,0
1932.6749999999993,-0.018714269623160362,-0.0013924459926784039,-0.0005330870626494288,0.0,0.0,0.0,0.0,-0.0019189901649951935,-0.0007340171723626554,0.004204829689115286,0.9995325803756714,0.0,0.0,0.0,2.353437900543213,1.0865870714187622,5.8143439292907715,-425.9769287109375,0
1942.5859999999993,-0.018691470846533775,-0.0014364599483087659,-0.0005103099392727017,0.0,0.0,0.0,0.0,-0.0028669792227447033,-0.0026394410524517298,-0.001384199596941471,1.0000417232513428,0.0,0.0,0.0,2.351637840270996,1.080422043800354,5.804983139038086,-425.651123046875,0
1952.5020000000004,-0.018678460270166397,-0.0013522611698135734,-0.0005842430400662124,0.0,0.0,0.0,0.0,-0.0009877858683466911,0.0015924399485811591,0.0014115349622443318,0.999981701374054,0.0,0.0,0.0,2.348531484603882,1.0815824270248413,5.80638313293457,-425.0888977050781,0
1962.4089999999997,-0.018702587112784386,-0.0013433059211820364,-0.0005579024436883628,0.0,0.0,0.0,0.0,0.0013639505486935377,0.0034477412700653076,0.0030395574867725372,1.0017989873886108,0.0,0.0,0.0,2.346465826034546,1.0846585035324097,5.797056674957275,-424.7149963378906,0
1972.321,-0.018704188987612724,-0.001259600860066712,-0.0006206677644513547,0.0,0.0,0.0,0.0,0.0002480340772308409,-0.001986273331567645,-0.0037573841400444508,1.000260591506958,0.0,0.0,0.0,2.3445725440979004,1.0784037113189697,5.78652286529541,-424.372314453125,0
1982.241,-0.018747631460428238,-0.0013012347044423223,-0.0006265844567678869,0.0,0.0,0.0,0.0,0.0017334857257083058,0.0046068518422544,-0.0009567886590957642,1.0004905462265015,0.0,0.0,0.0,2.342316150665283,1.0789377689361572,5.785001277923584,-423.9638671875,0
1992.143,-0.01878802478313446,-0.0012718499638140202,-0.0006604960071854293,0.0,0.0,0.0,0.0,-0.0009074439876712859,0.0007450105040334165,-0.0027122797910124063,1.0015873908996582,0.0,0.0,0.0,2.346428632736206,1.0830882787704468,5.790663719177246,-424.708251953125,0
2002.0609999999997,-0.018745187669992447,-0.0013230687472969294,-0.0006480924203060567,0.0,0.0,0.0,0.0,0.0038946429267525673,0.004473638720810413,-0.0021987538784742355,0.9996451735496521,0.0,0.0,0.0,2.3441712856292725,1.078360915184021,5.784812927246094,-424.2996826171875,0
2011.9670000000006,-0.018778858706355095,-0.001284624682739377,-0.000691427499987185,0.0,0.0,0.0,0.0,-0.0010886528762057424,0.004166726488620043,0.0009568269015289843,0.9983473420143127,0.0,0.0,0.0,2.3495707511901855,1.0870270729064941,5.785840034484863,-425.2769470214844,0
2021.8860000000004,-0.01868678443133831,-0.001333707827143371,-0.0006625576643273234,0.0,0.0,0.0,0.0,9.1294597950764e-05,-0.0023222260642796755,-0.00029425157117657363,1.0025899410247803,0.0,0.0,0.0,2.3467419147491455,1.0836846828460693,5.76542329788208,-424.7649230957031,0
2031.7890000000007,-0.018766852095723152,-0.001379551482386887,-0.0006732328329235315,0.0,0.0,0.0,0.0,0.0013327432097867131,0.0017842185916379094,0.00019132082525175065,1.0002830028533936,0.0,0.0,0.0,2.345365285873413,1.0808374881744385,5.762028217315674,-424.51580810546875,0
2041.705,-0.018843136727809906,-0.0013887463137507439,-0.0006747698062099516,0.0,0.0,0.0,0.0,-0.002818136243149638,0.001232863636687398,-0.0007379943272098899,1.0002212524414062,0.0,0.0,0.0,2.3429598808288574,1.0730574131011963,5.748054027557373,-424.0804138183594,0
2051.6100000000006,-0.018893267959356308,-0.0013916987227275968,-0.0007148908916860819,0.0,0.0,0.0,0.0,0.002064262982457876,-0.001393891521729529,-0.0003772249910980463,0.9997501969337463,0.0,0.0,0.0,2.341351270675659,1.069897174835205,5.75128173828125,-423.7891845703125,0
2061.5290000000005,-0.018810098990797997,-0.0014073076890781522,-0.0006350126932375133,0.0,0.0,0.0,0.0,7.964429823914543e-05,-0.0018701903754845262,0.0006405650055967271,1.001510739326477,0.0,0.0,0.0,2.3349997997283936,1.0705015659332275,5.784849166870117,-422.6396179199219,0
2071.4320000000007,-0.018814973533153534,-0.00131370616145432,-0.0006910108495503664,0.0,0.0,0.0,0.0,-0.0009726788848638535,0.0004284883907530457,-0.00310695287771523,0.9995984435081482,0.0,0.0,0.0,2.3422186374664307,1.0908383131027222,5.801669597625732,-423.94622802734375,0
2081.3539999999994,-0.018747905269265175,-0.0013278555124998093,-0.0006463564932346344,0.0,0.0,0.0,0.0,3.498802470858209e-05,-0.003118744818493724,-0.0027602307964116335,0.999538004398346,0.0,0.0,0.0,2.3398120403289795,1.0896656513214111,5.7965192794799805,-423.5106506347656,0
2091.254999999999,-0.018772203475236893,-0.0012804613215848804,-0.0006898343563079834,0.0,0.0,0.0,0.0,-0.002785932505503297,0.006417656317353249,-0.002103586448356509,1.0012376308441162,0.0,0.0,0.0,2.346935510635376,1.1032482385635376,5.803582668304443,-424.79998779296875,0
2101.1669999999995,-0.01874830387532711,-0.0013097088085487485,-0.0006706170388497412,0.0,0.0,0.0,0.0,-5.7061486586462706e-05,-0.0035400979686528444,-0.0032370034605264664,1.00104820728302,0.0,0.0,0.0,2.344252347946167,1.100768804550171,5.790381908416748,-424.3143615722656,0
2111.0769999999993,-0.01877487078309059,-0.0012745432322844863,-0.0007147460128180683,0.0,0.0,0.0,0.0,-0.0025634425692260265,0.003014695830643177,0.0027644606307148933,1.0001263618469238,0.0,0.0,0.0,2.34218168258667,1.0997954607009888,5.78016471862793,-423.9395446777344,0
2121.008,-0.018843792378902435,-0.001278224284760654,-0.000715396658051759,0.0,0.0,0.0,0.0,0.0012557505397126079,0.000651212059892714,-0.0004279416461940855,0.9993700385093689,0.0,0.0,0.0,2.339061975479126,1.104773759841919,5.780646800994873,-423.3748474121094,0
2130.9040000000005,-0.01888376660645008,-0.0012557574082165956,-0.0007515555480495095,0.0,0.0,0.0,0.0,-0.0021837151143699884,-0.0004356121935416013,-0.004780224524438381,0.9995187520980835,0.0,0.0,0.0,2.3456532955169678,1.112472414970398,5.7824320793151855,-424.5679016113281,0
2140.8250000000007,-0.018787885084748268,-0.0012895750114694238,-0.0006924395565874875,0.0,0.0,0.0,0.0,-0.0014429549919441342,-0.004989271983504295,0.003361899871379137,1.0017372369766235,0.0,0.0,0.0,2.3418540954589844,1.1123462915420532,5.767370700836182,-423.8802185058594,0
