timestamp,stateEstimate.x,stateEstimate.y,stateEstimate.z,controller.cmd_thrust,controller.cmd_roll,controller.cmd_pitch,controller.cmd_yaw,controller.r_roll,controller.r_pitch,controller.r_yaw,controller.accelz,controller.actuatorThrust,controller.roll,controller.pitch,controller.yaw,controller.rollRate,controller.pitchRate,controller.yawRate,controller.ctr_yaw
0.0,-0.0003904860350303352,-7.000277400948107e-05,-0.00030935730319470167,0.0,0.0,0.0,0.0,9.222337394021451e-05,-0.004439765587449074,-0.0005423309630714357,1.0006203651428223,0.0,0.0,0.0,0.26892343163490295,1.7938591241836548,4.760306358337402,-48.67567825317383,0
9.917999999999665,-0.00039449185715056956,-2.8074326110072434e-05,-0.0003666130651254207,0.0,0.0,0.0,0.0,5.130884801474167e-06,-0.0006886952905915678,-0.0029072861652821302,0.9985567927360535,0.0,0.0,0.0,0.2686387896537781,1.7945584058761597,4.75477409362793,-48.62415313720703,0
19.816000000000713,-0.0004339205625001341,-4.470731073524803e-05,-0.0003779246471822262,0.0,0.0,0.0,0.0,0.002630059141665697,-0.0012862952426075935,0.002550808247178793,1.0017389059066772,0.0,0.0,0.0,0.26799336075782776,1.7913236618041992,4.761821746826172,-48.50733184814453,0
29.736000000000786,-0.00042029362521134317,7.727222509856801e-06,-0.00045934063382446766,0.0,0.0,0.0,0.0,-0.0014861265663057566,-0.0006159218028187752,0.00019141675147693604,1.0021800994873047,0.0,0.0,0.0,0.26721855998039246,1.7888225317001343,4.755080223083496,-48.367088317871094,0
39.63900000000103,-0.0004581105022225529,-2.317392500117421e-06,-0.00047498606727458537,0.0,0.0,0.0,0.0,-0.0012553909327834845,-0.00196200143545866,0.0004131153109483421,1.000044584274292,0.0,0.0,0.0,0.2669999599456787,1.7887561321258545,4.757185459136963,-48.32752227783203,0
49.56000000000131,-0.00045227885129861534,2.0339430193416774e-05,-0.0005489030154421926,0.0,0.0,0.0,0.0,-0.0011387955164536834,-0.002170276129618287,-0.0016656701918691397,1.000657558441162,0.0,0.0,0.0,0.2675502300262451,1.7903618812561035,4.753247261047363,-48.4271240234375,0
59.46700000000055,-0.0004895945894531906,1.1058659765694756e-05,-0.0005673816776834428,0.0,0.0,0.0,0.0,-0.0004845082585234195,-0.002659745514392853,-0.0004915407043881714,1.0002593994140625,0.0,0.0,0.0,0.26677462458610535,1.791024088859558,4.750227928161621,-48.28673553466797,0
69.38299999999981,-0.0005115983076393604,2.9321270631044172e-05,-0.0006015633116476238,0.0,0.0,0.0,0.0,-0.0013815650017932057,0.001441302476450801,-0.0006279940134845674,1.001315951347351,0.0,0.0,0.0,0.2658456265926361,1.7908744812011719,4.7441911697387695,-48.11858367919922,0
79.28600000000006,-0.000552372308447957,1.901764699141495e-05,-0.0006202232325449586,0.0,0.0,0.0,0.0,-0.00083974190056324,0.002237972803413868,0.0008317685569636524,1.0013083219528198,0.0,0.0,0.0,0.2660071849822998,1.797439694404602,4.751343727111816,-48.1478271484375,0
89.20300000000134,-0.0005708661046810448,5.0085702241631225e-05,-0.0006531468825414777,0.0,0.0,0.0,0.0,-0.001044218777678907,0.005151448771357536,-0.00024383758136536926,1.0005260705947876,0.0,0.0,0.0,0.2660708427429199,1.794324517250061,4.73242712020874,-48.15934753417969,0
99.11399999999958,-0.0006135650328360498,4.02323785237968e-05,-0.0006710017332807183,0.0,0.0,0.0,0.0,0.0013125326950103045,0.002067492576315999,0.0017774066654965281,1.0002321004867554,0.0,0.0,0.0,0.26582545042037964,1.7959955930709839,4.721474647521973,-48.114933013916016,0
109.03399999999965,-0.0006570685072802007,2.9513164918171242e-05,-0.0006883825990371406,0.0,0.0,0.0,0.0,-0.0028037899173796177,-0.001589056453667581,-0.0012652733130380511,1.0002739429473877,0.0,0.0,0.0,0.2656017243862152,1.7926048040390015,4.715105056762695,-48.074440002441406,0
118.9359999999997,-0.0007019972545094788,1.7617581761442125e-05,-0.0007052560104057193,0.0,0.0,0.0,0.0,0.0015063254395499825,0.0037181114312261343,-0.00416253786534071,1.0003570318222046,0.0,0.0,0.0,0.26518329977989197,1.7999839782714844,4.720185279846191,-47.99870300292969,0
128.85900000000038,-0.0007492161821573973,5.183010216569528e-06,-0.0007215341902337968,0.0,0.0,0.0,0.0,0.0011425204575061798,-0.0042545911855995655,0.003556236159056425,0.9999637007713318,0.0,0.0,0.0,0.26359379291534424,1.7937345504760742,4.7046990394592285,-47.71099853515625,0
138.75600000000122,-0.0007990187732502818,-8.277486813312862e-06,-0.0007373951375484467,0.0,0.0,0.0,0.0,-0.001543864025734365,-0.0078770462423563,0.0006903073517605662,1.0033000707626343,0.0,0.0,0.0,0.2634381353855133,1.7921966314315796,4.695598125457764,-47.682823181152344,0
148.67699999999968,-0.0008504389552399516,-2.4183969799196348e-05,-0.0007520439685322344,0.0,0.0,0.0,0.0,0.0014579035341739655,0.002644912339746952,-0.0009921820601448417,1.0010970830917358,0.0,0.0,0.0,0.2635524272918701,1.7849342823028564,4.694751262664795,-47.703514099121094,0
158.57999999999993,-0.00012616337335202843,-0.00017430228763259947,-4.0476124922861345e-06,0.0,0.0,0.0,0.0,-0.0018997208680957556,0.004655458964407444,-0.0001725873735267669,0.9993329644203186,0.0,0.0,0.0,0.26389575004577637,1.7867095470428467,4.821756362915039,-47.765655517578125,0
168.50500000000102,-0.00014764565275982022,-0.00019565697584766895,1.3918764125264715e-05,0.0,0.0,0.0,0.0,-0.0019487941171973944,7.025975355645642e-05,0.0019436232978478074,1.0011979341506958,0.0,0.0,0.0,0.26430949568748474,1.7870748043060303,4.8183183670043945,-47.840545654296875,0
178.40700000000106,-0.00014429810107685626,-0.00016317715926561505,9.970868995878845e-05,0.0,0.0,0.0,0.0,0.0007790659437887371,-0.0037150441203266382,-5.979605339234695e-05,1.0016335248947144,0.0,0.0,0.0,0.26439470052719116,1.7899048328399658,4.801684379577637,-47.8559684753418,0
188.3209999999999,-0.00016866566147655249,-0.00018313550390303135,0.00012330496974755079,0.0,0.0,0.0,0.0,0.0013084616512060165,0.009208387695252895,-0.0011474833590909839,1.0001729726791382,0.0,0.0,0.0,0.2643192708492279,1.7885890007019043,4.8037943840026855,-47.84231185913086,0
198.22700000000077,-0.00019574911857489496,-0.00020369842241052538,0.0001482730294810608,0.0,0.0,0.0,0.0,-0.0007810915121808648,-0.002471698448061943,0.0003327284357510507,1.0021398067474365,0.0,0.0,0.0,0.26404017210006714,1.7859376668930054,4.783564567565918,-47.79179382324219,0
208.14999999999964,-0.00022620429808739573,-0.0002250868856208399,0.00017418469360563904,0.0,0.0,0.0,0.0,-0.0024577334988862276,-0.00025637581711634994,0.002304044086486101,1.0025196075439453,0.0,0.0,0.0,0.26320305466651917,1.7818140983581543,4.77618408203125,-47.64027786254883,0
218.0510000000013,-0.00014789671695325524,-0.000261322915321216,0.0002099455741699785,0.0,0.0,0.0,0.0,-0.001016611815430224,0.005216137506067753,-0.0005789880524389446,1.001997470855713,0.0,0.0,0.0,0.2641523480415344,1.7863202095031738,4.772249698638916,-47.81209945678711,0
227.96900000000096,-0.00017988940817303956,-0.0002875611826311797,0.00024065261823125184,0.0,0.0,0.0,0.0,0.0018656012834981084,-0.0024803748819977045,-0.0031659062951803207,0.9998462796211243,0.0,0.0,0.0,0.2642933428287506,1.7848544120788574,4.7601518630981445,-47.83761978149414,0
237.8739999999998,-0.0001457943144487217,-0.00030362262623384595,0.0002886670408770442,0.0,0.0,0.0,0.0,0.0025715178344398737,0.006614391226321459,-0.003199351020157337,0.9997076392173767,0.0,0.0,0.0,0.2631547749042511,1.7814478874206543,4.760003566741943,-47.63153839111328,0
247.8000000000011,-0.00017911288887262344,-0.0003320712421555072,0.0003221699153073132,0.0,0.0,0.0,0.0,0.00017171080980915576,-0.004763084929436445,0.005152770318090916,0.99953293800354,0.0,0.0,0.0,0.2626837491989136,1.7724360227584839,4.740386962890625,-47.54628372192383,0
257.6970000000001,-0.00021467721671797335,-0.0003615860769059509,0.00035562063567340374,0.0,0.0,0.0,0.0,-0.0016535124741494656,-0.0005647637881338596,-0.0021562129259109497,0.9999435544013977,0.0,0.0,0.0,0.26309242844581604,1.7658017873764038,4.737509250640869,-47.62025451660156,0
267.616,-0.0002535929379519075,-0.00039169349474832416,0.00038891914300620556,0.0,0.0,0.0,0.0,2.521739952499047e-05,0.0019380631856620312,-5.483463974087499e-05,1.0005589723587036,0.0,0.0,0.0,0.2625046670436859,1.7658110857009888,4.733867168426514,-47.51387023925781,0
277.52499999999964,-0.00012713686737697572,-0.0004257044638507068,0.00044583281851373613,0.0,0.0,0.0,0.0,-0.0006674057804048061,0.006084808614104986,0.005342189222574234,1.0010430812835693,0.0,0.0,0.0,0.25876209139823914,1.7577921152114868,4.772005081176758,-46.836456298828125,0
287.4430000000011,-0.00016396812861785293,-0.00045987608609721065,0.00048268624232150614,0.0,0.0,0.0,0.0,-0.0007949434220790863,-0.0012302965624257922,0.0016710564959794283,1.0017757415771484,0.0,0.0,0.0,0.2604692280292511,1.7574193477630615,4.760471820831299,-47.145450592041016,0
297.35200000000077,-0.00020289391977712512,-0.0004962213570252061,0.0005211229436099529,0.0,0.0,0.0,0.0,0.00017247106006834656,0.00066471315221861,-0.0014027291908860207,1.0028945207595825,0.0,0.0,0.0,0.26074767112731934,1.7534950971603394,4.7467546463012695,-47.19584655761719,0
307.26900000000023,-0.0002438278606859967,-0.000533730024471879,0.0005618236609734595,0.0,0.0,0.0,0.0,-0.0019746560137718916,-0.002957887016236782,-0.0021802783012390137,0.9995833039283752,0.0,0.0,0.0,0.2605237364768982,1.7514384984970093,4.739964962005615,-47.155311584472656,0
317.1779999999999,-0.00023897892970126122,-0.0005356287583708763,0.00063619005959481,0.0,0.0,0.0,0.0,0.00046785749145783484,-3.489633309072815e-05,7.083459058776498e-05,0.9985004663467407,0.0,0.0,0.0,0.2603042721748352,1.7495535612106323,4.749891757965088,-47.1155891418457,0
327.09300000000076,-0.00028015373391099274,-0.0005718695465475321,0.0006816872046329081,0.0,0.0,0.0,0.0,-0.0011599893914535642,-0.0017002240056172013,0.0010241352720186114,0.9999811053276062,0.0,0.0,0.0,0.2596471607685089,1.750643253326416,4.740913391113281,-46.99665451049805,0
336.9920000000002,-0.00030050615896470845,-0.0005590146174654365,0.0007632555207237601,0.0,0.0,0.0,0.0,-0.0031081654597073793,-0.0006617949693463743,0.002093689749017358,0.999720573425293,0.0,0.0,0.0,0.2600046992301941,1.750301718711853,4.742025375366211,-47.06136703491211,0
346.9160000000011,-0.000122111858217977,-0.0001145109927165322,-0.00015042844461277127,0.0,0.0,0.0,0.0,0.0019965076353400946,0.0008332770667038858,0.0035343579947948456,1.0000402927398682,0.0,0.0,0.0,0.2548987865447998,1.8394047021865845,4.782085418701172,-46.13718795776367,0
356.8209999999999,-0.00015923664614092559,-0.00013130484148859978,-0.00013858388410881162,0.0,0.0,0.0,0.0,-0.00020573449728544801,0.0010345112532377243,0.0013615693897008896,0.9994342923164368,0.0,0.0,0.0,0.2556634247303009,1.840622067451477,4.776011943817139,-46.27558898925781,0
366.737000000001,-0.0001478193880757317,-5.4623258620267734e-05,-0.0002818016801029444,0.0,0.0,0.0,0.0,-0.0010712849907577038,-0.005231255665421486,0.0040636081248521805,1.0009695291519165,0.0,0.0,0.0,0.2549799382686615,1.8392633199691772,4.772974014282227,-46.151878356933594,0
376.64000000000124,-0.0001867881219368428,-7.042225479381159e-05,-0.00027653848519548774,0.0,0.0,0.0,0.0,0.0005749904667027295,-0.0025319100823253393,0.007775329053401947,1.002403736114502,0.0,0.0,0.0,0.255621075630188,1.8328200578689575,4.781435966491699,-46.267921447753906,0
386.5650000000005,-0.000216495682252571,-4.142777470406145e-05,-0.0002933545911218971,0.0,0.0,0.0,0.0,-0.00021881058637518436,-0.002769499784335494,0.00047006001113913953,1.0003458261489868,0.0,0.0,0.0,0.25733646750450134,1.82514488697052,4.777706146240234,-46.57841110229492,0
396.46399999999994,-0.00010432950512040406,-0.00010846457007573918,-0.00019130353757645935,0.0,0.0,0.0,0.0,0.003275542287155986,0.0038370632100850344,-0.0028899621684104204,0.998833179473877,0.0,0.0,0.0,0.2583158016204834,1.8287025690078735,4.775277614593506,-46.75567626953125,0
406.380000000001,-0.00011130344500998035,-7.779504812788218e-05,-0.000212826780625619,0.0,0.0,0.0,0.0,0.0004580997920129448,-0.0020711272954940796,0.0023063383996486664,0.9982788562774658,0.0,0.0,0.0,0.26464229822158813,1.834627389907837,4.767684459686279,-47.900779724121094,0
416.2910000000011,-0.00015158794121816754,-9.584824874764308e-05,-0.00020393084560055286,0.0,0.0,0.0,0.0,0.002915283665060997,0.0024321069940924644,-7.269970228662714e-05,0.999904453754425,0.0,0.0,0.0,0.26393964886665344,1.8298165798187256,4.762385845184326,-47.773597717285156,0
426.21200000000135,-0.0001910771243274212,-8.595821418566629e-05,-0.0001850586850196123,0.0,0.0,0.0,0.0,0.002771397354081273,-0.0006902840104885399,0.005645438097417355,1.0006427764892578,0.0,0.0,0.0,0.2706475555896759,1.826818823814392,4.7446088790893555,-48.98774719238281,0
436.1110000000008,-9.694847540231422e-05,-0.00014579491107724607,-0.00011423209798522294,0.0,0.0,0.0,0.0,0.00042357612983323634,-0.0020176584366708994,0.0013601965038105845,1.0012471675872803,0.0,0.0,0.0,0.27223628759384155,1.8210668563842773,4.736739158630371,-49.27531051635742,0
446.02900000000045,-5.4942298447713256e-05,-5.765758760389872e-05,-0.0001887782127596438,0.0,0.0,0.0,0.0,0.003403859445825219,0.0031059335451573133,0.0030765847768634558,0.9993641972541809,0.0,0.0,0.0,0.2713673710823059,1.825853705406189,4.735199928283691,-49.11803436279297,0
455.9340000000011,-9.81530174612999e-05,-7.928619743324816e-05,-0.00018108077347278595,0.0,0.0,0.0,0.0,0.003520743688568473,0.0007061827927827835,-0.0006026180344633758,0.999360203742981,0.0,0.0,0.0,0.2721324563026428,1.8180919885635376,4.729895114898682,-49.25651550292969,0
465.8580000000002,-9.971632243832573e-05,-4.674197771237232e-05,-0.00022979093773756176,0.0,0.0,0.0,0.0,-0.00014432468742597848,-0.0035439166240394115,0.0034836994018405676,1.000971794128418,0.0,0.0,0.0,0.2723884582519531,1.8140366077423096,4.716466426849365,-49.3028564453125,0
475.7569999999996,-7.485901733161882e-05,-8.61419684952125e-05,-0.00019952398724853992,0.0,0.0,0.0,0.0,0.003939635585993528,0.00026451225858181715,0.002037015510722995,1.001656174659729,0.0,0.0,0.0,0.27230966091156006,1.8139358758926392,4.718697547912598,-49.28859329223633,0
485.6769999999997,-9.226233669323847e-05,-6.208736886037514e-05,-0.00021240381465759128,0.0,0.0,0.0,0.0,-0.002093157498165965,-0.0020927588921040297,0.0007529004942625761,1.0000156164169312,0.0,0.0,0.0,0.271605521440506,1.8093249797821045,4.719987392425537,-49.161136627197266,0
495.5799999999999,-0.00013680770643986762,-8.2303216913715e-05,-0.00020740354375448078,0.0,0.0,0.0,0.0,0.0022707900498062372,0.0019039821345359087,0.000808589393272996,1.000025749206543,0.0,0.0,0.0,0.2707501947879791,1.8128852844238281,4.70875358581543,-49.006324768066406,0
505.5010000000002,-0.00016140703519340605,-6.201554788276553e-05,-0.00022435381833929569,0.0,0.0,0.0,0.0,-0.0016483661020174623,-0.003151321318000555,0.0004406914522405714,0.9989224672317505,0.0,0.0,0.0,0.2716093063354492,1.8075768947601318,4.7000412940979,-49.16181945800781,0
515.4089999999997,-0.00021065372857265174,-8.410033478867263e-05,-0.0002209727099398151,0.0,0.0,0.0,0.0,0.0017938651144504547,0.0050733331590890884,0.00021098312572576106,0.9989876747131348,0.0,0.0,0.0,0.27168989181518555,1.805614709854126,4.695225238800049,-49.17640686035156,0
525.3240000000005,-0.00023258657893165946,2.7556022814678727e-06,-0.00023500261886510998,0.0,0.0,0.0,0.0,0.0013524902751669288,0.0003876538830809295,0.003662771312519908,0.9992018342018127,0.0,0.0,0.0,0.27135783433914185,1.7982107400894165,4.6842193603515625,-49.11630630493164,0
535.2330000000002,-0.0002843400288838893,-1.800666723283939e-05,-0.00023502962721977383,0.0,0.0,0.0,0.0,-0.001327752834185958,0.003379265544936061,0.0017310017719864845,1.0006046295166016,0.0,0.0,0.0,0.2713703513145447,1.7947120666503906,4.672853469848633,-49.11857223510742,0
545.148000000001,-0.00029335744329728186,1.1445903510320932e-05,-0.0003127804375253618,0.0,0.0,0.0,0.0,0.0013520579086616635,-0.0033422287087887526,0.003478327300399542,1.001022458076477,0.0,0.0,0.0,0.27126458287239075,1.7932720184326172,4.66429328918457,-49.09942626953125,0
555.0519999999997,-0.0003459510626271367,-9.065883205039427e-06,-0.0003188180271536112,0.0,0.0,0.0,0.0,-0.0010610913159325719,-0.0005828107823617756,0.00019687495660036802,1.001071810722351,0.0,0.0,0.0,0.27129319310188293,1.7893905639648438,4.657148838043213,-49.10460662841797,0
564.9740000000002,-0.00035519906668923795,2.7942445740336552e-05,-0.00039335546898655593,0.0,0.0,0.0,0.0,-0.0031729598995298147,0.0018998923478648067,-8.561803406337276e-05,1.0009115934371948,0.0,0.0,0.0,0.2716674506664276,1.783899188041687,4.6576619148254395,-49.17234802246094,0
574.875,-0.00040695822099223733,1.0321453373762779e-05,-0.0004033451550640166,0.0,0.0,0.0,0.0,0.0037431023083627224,-0.0015840010019019246,-0.0018129597883671522,0.9992798566818237,0.0,0.0,0.0,0.2718048393726349,1.793040156364441,4.660585403442383,-49.19721984863281,0
584.8000000000011,-0.0004410166875459254,3.9761805965099484e-05,-0.0004308364004828036,0.0,0.0,0.0,0.0,0.0015770521713420749,-0.0033173675183206797,-0.0013863400090485811,0.9977610111236572,0.0,0.0,0.0,0.2718738615512848,1.7879917621612549,4.660739898681641,-49.209712982177734,0
594.6980000000003,-0.0004946326371282339,2.4377965019084513e-05,-0.0004425839288160205,0.0,0.0,0.0,0.0,-0.0010820988100022078,0.003839025739580393,-0.0004605240828823298,1.0007647275924683,0.0,0.0,0.0,0.2720843255519867,1.7834038734436035,4.658550262451172,-49.247806549072266,0
604.6229999999996,-0.0005203527398407459,4.942544546793215e-05,-0.0004972583847120404,0.0,0.0,0.0,0.0,0.0012634864542633295,0.0035386886447668076,0.0010874547297134995,1.0006263256072998,0.0,0.0,0.0,0.26498064398765564,1.802316427230835,4.661351203918457,-47.9620246887207,0
614.5249999999996,-0.00011296987941022962,-0.00011648602958302945,-0.0001608999154996127,0.0,0.0,0.0,0.0,-0.0006147377425804734,-0.0009306975989602506,-5.031559703638777e-05,1.0008978843688965,0.0,0.0,0.0,0.2635140120983124,1.7723661661148071,4.766035079956055,-47.696563720703125,0
624.4449999999997,-0.00015888285997789353,-0.0001606661535333842,-0.00014341007045004517,0.0,0.0,0.0,0.0,0.00150625454261899,0.003378735389560461,-0.0016935397870838642,0.9993962645530701,0.0,0.0,0.0,0.2632392942905426,1.766234040260315,4.762093544006348,-47.6468391418457,0
634.353000000001,-6.898897117935121e-05,-0.00025009657838381827,-0.00011372545850463212,0.0,0.0,0.0,0.0,0.001317109796218574,0.00012344228161964566,0.006709317676723003,0.999439537525177,0.0,0.0,0.0,0.26264435052871704,1.761549711227417,4.753833770751953,-47.539154052734375,0
644.268,-9.80348777375184e-05,-0.0002484914439264685,-0.00010255839879391715,0.0,0.0,0.0,0.0,-0.0008998294360935688,-0.0005169791984371841,0.0009627534309402108,1.0016040802001953,0.0,0.0,0.0,0.2638041377067566,1.7562198638916016,4.746608257293701,-47.74907302856445,0
654.1710000000003,-0.00013225447037257254,-0.00027787929866462946,-9.756563667906448e-05,0.0,0.0,0.0,0.0,0.00029717685538344085,-0.0018308552680537105,-0.005516692064702511,1.0025784969329834,0.0,0.0,0.0,0.2633688151836395,1.7587602138519287,4.745868682861328,-47.6702766418457,0
664.0860000000011,-0.000152378692291677,-0.0002546522591728717,-9.76140727289021e-05,0.0,0.0,0.0,0.0,-0.002698622876778245,0.0022982105147093534,-3.417061816435307e-05,1.001875400543213,0.0,0.0,0.0,0.2619081437587738,1.7554446458816528,4.743946075439453,-47.4058952331543,0
673.9930000000004,-0.00019029817485716194,-0.0002849472512025386,-8.912145858630538e-05,0.0,0.0,0.0,0.0,-0.0011563933221623302,-0.0014247600920498371,0.0017947375308722258,1.0019843578338623,0.0,0.0,0.0,0.2618357241153717,1.7581242322921753,4.739706039428711,-47.39278793334961,0
683.9089999999997,-0.00018688847194425762,-0.00020219375437591225,-0.00013879012840334326,0.0,0.0,0.0,0.0,-0.0023887990973889828,0.003526521846652031,-0.0017295260913670063,1.0021206140518188,0.0,0.0,0.0,0.2626711428165436,1.759453296661377,4.742985248565674,-47.544002532958984,0
693.8170000000009,-0.0002258045569760725,-0.00023308611707761884,-0.00013047592074144632,0.0,0.0,0.0,0.0,-0.0020478724036365747,-0.004763239994645119,0.0011953806970268488,1.0002704858779907,0.0,0.0,0.0,0.2612864673137665,1.7607412338256836,4.731622219085693,-47.293373107910156,0
703.7290000000012,-0.0002336408506380394,-0.00014682004984933883,-0.00016869437240529805,0.0,0.0,0.0,0.0,0.003449746174737811,0.003938085865229368,-0.0017765722004696727,1.0003788471221924,0.0,0.0,0.0,0.2616747319698334,1.76115083694458,4.7294602394104,-47.3636474609375,0
713.652,-0.0001279455900657922,-0.0001941205409821123,-5.6548320571891963e-05,0.0,0.0,0.0,0.0,0.002494547050446272,0.0037979441694915295,0.001999811502173543,1.0019334554672241,0.0,0.0,0.0,0.2610773742198944,1.7514328956604004,4.717236042022705,-47.255523681640625,0
723.5519999999997,-0.00010327174823032692,-0.0001365958887618035,-0.0001102737951441668,0.0,0.0,0.0,0.0,0.001877492293715477,0.0021306807175278664,-0.0005875222850590944,1.0012638568878174,0.0,0.0,0.0,0.2685299515724182,1.762358546257019,4.711268424987793,-48.604454040527344,0
733.469000000001,-0.00013899881741963327,-0.00016149923612829298,-9.969170059775934e-05,0.0,0.0,0.0,0.0,0.0005416278727352619,-0.0006232841988094151,0.0008031650213524699,1.0007047653198242,0.0,0.0,0.0,0.2681802809238434,1.759982705116272,4.696632385253906,-48.54116439819336,0
743.3770000000004,-0.00014116603415459394,-0.00012102549226256087,-0.00013073750596959144,0.0,0.0,0.0,0.0,-0.0004706127801910043,0.004604762885719538,-0.001463654451072216,1.0009880065917969,0.0,0.0,0.0,0.2678888142108917,1.7622957229614258,4.703832149505615,-48.488407135009766,0
753.2960000000003,-0.0001802152837626636,-0.00014621733862441033,-0.00012081344902981073,0.0,0.0,0.0,0.0,0.0034225352574139833,-0.001379507826641202,-0.00022978396737016737,1.001887559890747,0.0,0.0,0.0,0.2677868902683258,1.7633711099624634,4.6952667236328125,-48.46995544433594,0
763.1990000000005,-0.000189674916327931,-0.00010925681272055954,-0.00016165578563231975,0.0,0.0,0.0,0.0,-0.0025823970790952444,-0.003829921130090952,-0.0017544451402500272,0.9999575614929199,0.0,0.0,0.0,0.2670598030090332,1.7550314664840698,4.688294410705566,-48.338356018066406,0
773.1220000000012,-0.00023013271857053041,-0.00013258098624646664,-0.00015293604519683868,0.0,0.0,0.0,0.0,0.0002559951099101454,0.0004134705231990665,0.0035031847655773163,1.001185417175293,0.0,0.0,0.0,0.2662576138973236,1.7589857578277588,4.690525531768799,-48.19315719604492,0
783.023000000001,-0.0002258340537082404,-8.511092892149463e-05,-0.00023530918406322598,0.0,0.0,0.0,0.0,-0.001976489555090666,-0.0027658722829073668,0.00557712372392416,1.0014413595199585,0.0,0.0,0.0,0.2732088565826416,1.7785471677780151,4.707388877868652,-49.45134353637695,0
792.9400000000005,-0.0002653129049576819,-0.0001049506536219269,-0.00023122155107557774,0.0,0.0,0.0,0.0,-0.0019302715081721544,-0.00018098663713317364,-0.0012779136886820197,1.0012967586517334,0.0,0.0,0.0,0.2731103003025055,1.7765426635742188,4.702377796173096,-49.43350601196289,0
802.8460000000014,-0.0002673038688953966,-3.9089563870220445e-06,-0.0002894317440222949,0.0,0.0,0.0,0.0,0.004244946409016848,0.001267851097509265,0.0018534308765083551,0.9990265369415283,0.0,0.0,0.0,0.27412930130958557,1.8145170211791992,4.7175140380859375,-49.617950439453125,0
812.768,-8.777208131505176e-05,-0.0001135292841354385,-0.00015430910571012646,0.0,0.0,0.0,0.0,-0.0011665470665320754,-0.001115943188779056,-0.0009489906369708478,1.0008466243743896,0.0,0.0,0.0,0.2748572826385498,1.789177656173706,4.7600226402282715,-49.74971389770508,0
822.6689999999999,-7.300436118384823e-05,-7.321782322833315e-05,-0.00020924423006363213,0.0,0.0,0.0,0.0,0.0003951198887079954,-0.0016010135877877474,-0.0017564010340720415,1.0018086433410645,0.0,0.0,0.0,0.27448606491088867,1.7922914028167725,4.755852699279785,-49.68252182006836,0
832.5900000000001,4.177906521363184e-05,-0.00012927662464790046,-0.0001544786209706217,0.0,0.0,0.0,0.0,0.0003811267379205674,-0.0013859865721315145,-0.0011128692422062159,1.0011374950408936,0.0,0.0,0.0,0.2730698585510254,1.7879879474639893,4.742476463317871,-49.42618942260742,0
842.4930000000004,1.012106440612115e-05,-0.00013350456720218062,-0.0001445413799956441,0.0,0.0,0.0,0.0,0.002396056894212961,0.0026452105958014727,0.002470810431987047,0.9997976422309875,0.0,0.0,0.0,0.27286407351493835,1.7849624156951904,4.733531951904297,-49.38894271850586,0
852.4189999999999,2.0017832866869867e-06,-0.00013089437561575323,-0.00011154156527481973,0.0,0.0,0.0,0.0,-0.0021572995465248823,0.0006485575577244163,-1.1560592611203901e-05,0.9992402791976929,0.0,0.0,0.0,0.2733718454837799,1.7796823978424072,4.7207536697387695,-49.4808464050293,0
862.3170000000009,-4.790812818100676e-05,-0.00014534495130646974,-7.811098475940526e-05,0.0,0.0,0.0,0.0,0.00014371643192134798,-0.0016575470799580216,-0.0014587129699066281,0.9990518093109131,0.0,0.0,0.0,0.27307555079460144,1.7801294326782227,4.71743631362915,-49.427215576171875,0
872.2420000000002,-7.471667049685493e-05,-0.0001576335052959621,-5.604397301794961e-05,0.0,0.0,0.0,0.0,-0.00278482586145401,0.002687073079869151,0.0013256779639050364,0.9995008111000061,0.0,0.0,0.0,0.2730119824409485,1.7759259939193726,4.712684154510498,-49.41571044921875,0
882.1400000000012,-8.313223952427506e-05,-0.00011975889356108382,-6.726925494149327e-05,0.0,0.0,0.0,0.0,0.00018559597083367407,-0.008177394978702068,-0.0018237321637570858,1.0015110969543457,0.0,0.0,0.0,0.2726441025733948,1.7793503999710083,4.696689605712891,-49.34912872314453,0
892.0600000000013,-0.00011796009493991733,-0.00011146310134790838,-3.626304169301875e-05,0.0,0.0,0.0,0.0,0.00038794620195403695,0.0014985408633947372,0.00010709421621868387,0.9996721744537354,0.0,0.0,0.0,0.2719004452228546,1.7789080142974854,4.717018127441406,-49.21451950073242,0
901.9719999999998,-0.00011131609790027142,-8.808019629213959e-05,-8.053296187426895e-05,0.0,0.0,0.0,0.0,0.001392653794027865,-0.0004358559672255069,0.003200395731255412,1.0000596046447754,0.0,0.0,0.0,0.2719949781894684,1.7810331583023071,4.702651023864746,-49.231632232666016,0
911.8860000000004,-0.00015650587738491595,-0.00011105983867309988,-6.979324098210782e-05,0.0,0.0,0.0,0.0,0.0028484282083809376,0.0018483137246221304,0.0015923118917271495,1.0002272129058838,0.0,0.0,0.0,0.27214816212654114,1.7782732248306274,4.704265594482422,-49.259361267089844,0
921.7890000000007,-8.130964852171019e-05,-6.632422446273267e-05,-6.187187682371587e-05,0.0,0.0,0.0,0.0,0.003995426464825869,-0.003704903880134225,-0.0002740721101872623,1.0035367012023926,0.0,0.0,0.0,0.2713976204395294,1.7770590782165527,4.690673351287842,-49.123512268066406,0
931.7180000000008,-0.00012534178677015007,-9.052136010723189e-05,-4.920321225654334e-05,0.0,0.0,0.0,0.0,-0.0002570799260865897,-0.00351337599568069,0.002000783570110798,1.0033495426177979,0.0,0.0,0.0,0.2699158787727356,1.7708499431610107,4.688575267791748,-48.85531234741211,0
941.6149999999998,-8.508159226039425e-05,-6.0625869082286954e-05,-5.987181430100463e-05,0.0,0.0,0.0,0.0,-0.0021337883081287146,-0.0007988118450157344,0.0013521184446290135,1.001708984375,0.0,0.0,0.0,0.27017685770988464,1.7679593563079834,4.686863899230957,-48.902549743652344,0
951.5400000000009,-0.00013101872173137963,-8.597607666160911e-05,-4.243169314577244e-05,0.0,0.0,0.0,0.0,0.00449003092944622,0.001565279671922326,-0.004487455356866121,0.9994211792945862,0.0,0.0,0.0,0.268904447555542,1.7732553482055664,4.678434371948242,-48.6722412109375,0
961.4440000000013,-0.00014979297702666372,-7.832285336917266e-05,-2.1617592210532166e-05,0.0,0.0,0.0,0.0,-4.611714030033909e-05,0.001537181786261499,0.0015373637434095144,0.9986792206764221,0.0,0.0,0.0,0.26891398429870605,1.7672715187072754,4.671886444091797,-48.67396545410156,0
971.362000000001,-0.0001989650772884488,-0.00010405154898762703,-2.9425373213598505e-06,0.0,0.0,0.0,0.0,-0.0009145255899056792,-0.0017481070244684815,0.00507068308070302,1.0001397132873535,0.0,0.0,0.0,0.26954469084739685,1.7668651342391968,4.6600260734558105,-48.788124084472656,0
981.2600000000002,-9.831489296630025e-05,-0.00015865483146626502,1.3048426808381919e-05,0.0,0.0,0.0,0.0,0.00023468576546292752,-0.0012053856626152992,-0.0006239002104848623,0.998641312122345,0.0,0.0,0.0,0.2707723081111908,1.7654694318771362,4.660584926605225,-49.01033020019531,0
991.1760000000013,-0.0001480148930568248,-0.00018744674162007868,3.059029404539615e-05,0.0,0.0,0.0,0.0,0.0015433900989592075,7.098313290043734e-06,-0.0020762882195413113,1.0008420944213867,0.0,0.0,0.0,0.27013981342315674,1.7640365362167358,4.654372692108154,-48.895843505859375,0
1001.0820000000003,-8.703581261215732e-05,-0.00016558651986997575,3.2746065699029714e-05,0.0,0.0,0.0,0.0,0.002947988221421838,0.00219842791557312,-0.0002865598362404853,1.0012669563293457,0.0,0.0,0.0,0.26893946528434753,1.7598477602005005,4.648697376251221,-48.6785774230957,0
1011.005000000001,-0.0001378407614538446,-0.00019677201635204256,4.9786649469751865e-05,0.0,0.0,0.0,0.0,-0.0020713149569928646,-0.0012841337593272328,0.005133471451699734,1.0021194219589233,0.0,0.0,0.0,0.26959243416786194,1.7516154050827026,4.637520790100098,-48.79676055908203,0
1020.9150000000009,-6.603556539630517e-05,-0.0001747144415276125,4.3385065509937704e-05,0.0,0.0,0.0,0.0,-0.0019749251659959555,-0.0014641097513958812,0.005064394325017929,1.0019316673278809,0.0,0.0,0.0,0.2704298794269562,1.7528955936431885,4.637731552124023,-48.94834518432617,0
1030.8230000000003,-0.00011697556328726932,-0.00020760511688422412,6.209411367308348e-05,0.0,0.0,0.0,0.0,-0.002531485166400671,-0.003185004461556673,0.0025094919838011265,0.9997762441635132,0.0,0.0,0.0,0.2712283432483673,1.7516282796859741,4.6373114585876465,-49.09286880493164,0
1040.7309999999998,-3.809124609688297e-05,-0.00019881797197740525,1.2898369732283754e-06,0.0,0.0,0.0,0.0,0.00012392015196383,-0.0032120528630912304,-0.0039461879059672356,1.0007191896438599,0.0,0.0,0.0,0.2714817225933075,1.7553040981292725,4.635409355163574,-49.13873291015625,0
1050.6530000000002,-9.082476753974333e-05,-0.00023356478777714074,1.5761541362735443e-05,0.0,0.0,0.0,0.0,0.0005822791717946529,0.0021656486205756664,-0.0008963161380961537,1.001038908958435,0.0,0.0,0.0,0.2702137231826782,1.7573425769805908,4.643303394317627,-48.90922164916992,0
1060.5519999999997,-5.528040856006555e-05,-0.00016266830789390951,-3.499345257296227e-05,0.0,0.0,0.0,0.0,0.0003835781244561076,0.0014941049739718437,-0.0021148654632270336,1.000717043876648,0.0,0.0,0.0,0.26839128136634827,1.7550244331359863,4.62930154800415,-48.5793571472168,0
1070.4719999999998,-0.00010837613081093878,-0.0001934764295583591,-2.325226887478493e-05,0.0,0.0,0.0,0.0,-0.0017101088305935264,-0.002325809095054865,-0.003770235227420926,1.0011208057403564,0.0,0.0,0.0,0.26913025975227356,1.7562392950057983,4.630435466766357,-48.713111877441406,0
1080.3810000000012,-6.75522314850241e-05,-0.0001170462928712368,-0.00010836387809831649,0.0,0.0,0.0,0.0,0.0025447860825806856,-0.0037298689130693674,0.0012809273321181536,0.9996787905693054,0.0,0.0,0.0,0.268046498298645,1.7565104961395264,4.633200168609619,-48.51695251464844,0
1090.2939999999999,-0.00012488003994803876,-0.00014694788842462003,-0.00010208932508248836,0.0,0.0,0.0,0.0,-0.002680001547560096,-0.0016566417180001736,-0.0006546199438162148,0.9990444183349609,0.0,0.0,0.0,0.26923370361328125,1.7465020418167114,4.631984233856201,-48.73183822631836,0
1100.2000000000007,-5.987565600662492e-05,-0.00015613767027389258,-0.00011402639938751236,0.0,0.0,0.0,0.0,-0.0016747219488024712,-0.0007509186980314553,0.0006603823858313262,0.9995797276496887,0.0,0.0,0.0,0.2692626416683197,1.7462400197982788,4.6272711753845215,-48.7370719909668,0
1110.1180000000004,-0.0001162386906798929,-0.00018732318130787462,-0.00011013457697117701,0.0,0.0,0.0,0.0,0.0026473698671907187,-0.00022541944053955376,-0.0015479291323572397,1.0001362562179565,0.0,0.0,0.0,0.2699430286884308,1.7482898235321045,4.632176399230957,-48.8602294921875,0
1120.0300000000007,-6.336683873087168e-05,-0.00013687998580280691,-0.00011853620526380837,0.0,0.0,0.0,0.0,-0.002861152635887265,-0.0047465660609304905,-0.004117500502616167,1.0007081031799316,0.0,0.0,0.0,0.26917028427124023,1.743975281715393,4.628693103790283,-48.72035217285156,0
1129.9390000000003,-0.00011873207404278219,-0.00016741573926992714,-0.00011502704001031816,0.0,0.0,0.0,0.0,-0.000703793833963573,0.0009358500828966498,-0.0016721056308597326,1.0000030994415283,0.0,0.0,0.0,0.26794227957725525,1.7453757524490356,4.629263877868652,-48.498085021972656,0
1139.8469999999998,-4.590178650687449e-05,-0.00011538386752363294,-0.00017954570648726076,0.0,0.0,0.0,0.0,0.001919443137012422,0.0001784510095603764,-0.0012945388443768024,1.0023255348205566,0.0,0.0,0.0,0.26713502407073975,1.7490359544754028,4.62786340713501,-48.35197067260742,0
1149.7669999999998,-0.00010290990758221596,-0.00014455695054493845,-0.0001795263815438375,0.0,0.0,0.0,0.0,0.002516823587939143,0.0026175756938755512,-0.001366160111501813,1.0032644271850586,0.0,0.0,0.0,0.26729920506477356,1.7416777610778809,4.621746063232422,-48.38168716430664,0
1159.67,-9.577203309163451e-05,-9.338749077869579e-05,-0.0002402207173872739,0.0,0.0,0.0,0.0,-0.00492345355451107,-0.0018945722840726376,0.006390403024852276,1.0008373260498047,0.0,0.0,0.0,0.2679753601551056,1.734704613685608,4.605247497558594,-48.50407028198242,0
1169.5870000000014,-0.00015161739429458976,-0.00012187140237074345,-0.0002398921933490783,0.0,0.0,0.0,0.0,0.005616696551442146,-0.0011386603582650423,0.005015674512833357,0.9994636178016663,0.0,0.0,0.0,0.26931923627853394,1.738067865371704,4.604266166687012,-48.747318267822266,0
1179.4940000000006,-5.921072079217993e-05,-0.00010265780292684212,-0.00017908077279571444,0.0,0.0,0.0,0.0,-0.00250354059971869,-0.005051035434007645,-0.0003451675293035805,1.0013575553894043,0.0,0.0,0.0,0.27151650190353394,1.7252559661865234,4.597355842590332,-49.14502716064453,0
1189.4050000000007,-0.00011115350935142487,-0.0001307965285377577,-0.0001727257767925039,0.0,0.0,0.0,0.0,-0.002326385350897908,-0.002421511337161064,0.0018060920992866158,1.000144362449646,0.0,0.0,0.0,0.27103832364082336,1.722963809967041,4.600238800048828,-49.0584716796875,0
1199.3190000000013,-6.358548125717789e-05,-0.00011017244833055884,-0.00016247696476057172,0.0,0.0,0.0,0.0,0.0011089590843766928,0.00241476739756763,0.003759357612580061,0.9996589422225952,0.0,0.0,0.0,0.2717752158641815,1.721021056175232,4.597907543182373,-49.19185256958008,0
1209.2350000000006,-0.00011596528929658234,-0.00014072067278902978,-0.0001547052524983883,0.0,0.0,0.0,0.0,-0.0007181931869126856,0.0019690925255417824,0.004148415755480528,0.999692976474762,0.0,0.0,0.0,0.27293092012405396,1.7148722410202026,4.595645427703857,-49.401039123535156,0
1219.1409999999996,-0.00010232986096525565,-8.622946916148067e-05,-0.00021486122568603605,0.0,0.0,0.0,0.0,0.0014127184404060245,0.0009212229633703828,-0.0028392767999321222,1.0010277032852173,0.0,0.0,0.0,0.27238383889198303,1.7134593725204468,4.5849409103393555,-49.30201721191406,0
1229.054,-0.00015678729687351733,-0.00011562270810827613,-0.00021223722433205694,0.0,0.0,0.0,0.0,-0.0006759348325431347,-0.002682239282876253,-0.0015460210852324963,1.000113606452942,0.0,0.0,0.0,0.2721315324306488,1.706032395362854,4.577175617218018,-49.256351470947266,0
1238.964,-8.935314690461382e-05,-6.060580926714465e-05,-0.00014551538333762437,0.0,0.0,0.0,0.0,-4.87165550566715e-07,-0.005187280476093292,-0.002144203521311283,0.9995303750038147,0.0,0.0,0.0,0.26580810546875,1.7185052633285522,4.57819938659668,-48.11179733276367,0
1248.8760000000002,-0.00014074721548240632,-8.695240103406832e-05,-0.00013693371147383004,0.0,0.0,0.0,0.0,-0.0027594806160777807,0.0007031469140201807,-0.001218833145685494,1.0002366304397583,0.0,0.0,0.0,0.2655291259288788,1.717382788658142,4.576958179473877,-48.06129837036133,0
1258.7880000000005,-5.9540900110732764e-05,-9.961181785911322e-05,-0.00013747718185186386,0.0,0.0,0.0,0.0,0.0015998039161786437,0.0024246922694146633,-0.008900572545826435,0.9990344047546387,0.0,0.0,0.0,0.26488906145095825,1.7205151319503784,4.56795597076416,-47.94544219970703,0
1268.6990000000005,-0.00011826498666778207,-0.00012997248268220574,-0.00012878200504928827,0.0,0.0,0.0,0.0,0.0038754523266106844,-0.002176189562305808,-0.0022132336162030697,1.000054121017456,0.0,0.0,0.0,0.26220226287841797,1.7197606563568115,4.557006359100342,-47.45912551879883,0
1278.6139999999996,-6.997637683525681e-05,-0.00014908149023540318,-8.956569217843935e-05,0.0,0.0,0.0,0.0,-0.0029336330480873585,0.00332914711907506,-0.003164386609569192,0.9998298287391663,0.0,0.0,0.0,0.2696956694126129,1.7225263118743896,4.556271076202393,-48.815452575683594,0
1288.5259999999998,-0.00012414000229910016,-0.00018104455375578254,-7.934442692203447e-05,0.0,0.0,0.0,0.0,0.001203283085487783,-0.004501379560679197,0.00014594296226277947,1.000402808189392,0.0,0.0,0.0,0.26977649331092834,1.7230204343795776,4.5495381355285645,-48.830081939697266,0
1298.438,-6.607249088119715e-05,-0.00014161916624289006,-0.00010168913286179304,0.0,0.0,0.0,0.0,0.0008065662696026266,-0.004657502751797438,0.0021459830459207296,0.9992663860321045,0.0,0.0,0.0,0.2757147252559662,1.7340734004974365,4.560610294342041,-49.9049186706543,0
1308.348,-0.00012085566413588822,-0.00017576152458786964,-9.307725122198462e-05,0.0,0.0,0.0,0.0,0.0027651828713715076,-0.0013904741499572992,-0.0034620342776179314,1.0011111497879028,0.0,0.0,0.0,0.2760983407497406,1.731935977935791,4.563131332397461,-49.97434997558594,0
1318.259,-7.925937825348228e-05,-0.00015981482283677906,-6.699485675198957e-05,0.0,0.0,0.0,0.0,-0.0030216306913644075,0.0037957283202558756,0.002761196345090866,0.9990857839584351,0.0,0.0,0.0,0.27561646699905396,1.7324681282043457,4.564153671264648,-49.88713073730469,0
1328.17,-0.00013497316103894264,-0.0001943644747370854,-5.660263559548184e-05,0.0,0.0,0.0,0.0,-0.002784434938803315,-0.0011046120198443532,0.0007945391698740423,0.9998024702072144,0.0,0.0,0.0,0.27680492401123047,1.7320215702056885,4.549962997436523,-50.102237701416016,0
1338.0820000000003,-6.578912871191278e-05,-0.00018332194304093719,-4.389847526908852e-05,0.0,0.0,0.0,0.0,0.001361996284686029,0.004134867340326309,0.0023228407371789217,0.998214066028595,0.0,0.0,0.0,0.27611681818962097,1.7312825918197632,4.55006742477417,-49.977691650390625,0
1347.9979999999996,-6.119725003372878e-05,-0.00013883291103411466,-8.94186450750567e-05,0.0,0.0,0.0,0.0,0.0025111795403063297,0.002016396727412939,-0.0019058227771893144,0.9991401433944702,0.0,0.0,0.0,0.27678748965263367,1.7315075397491455,4.537967205047607,-50.09908676147461,0
1357.9060000000009,-0.0001184731227112934,-0.00017331427079625428,-8.49642456159927e-05,0.0,0.0,0.0,0.0,-0.0035246792249381542,0.0018437282415106893,-0.0024278773926198483,1.0013165473937988,0.0,0.0,0.0,0.27544867992401123,1.7232913970947266,4.522743225097656,-49.85675811767578,0
1367.8190000000013,-0.00012877621338702738,-0.00011559209087863564,-0.0001200030164909549,0.0,0.0,0.0,0.0,0.0022958784829825163,-0.0021325326524674892,0.004379306919872761,0.998336136341095,0.0,0.0,0.0,0.27552875876426697,1.7286272048950195,4.510363578796387,-49.87125015258789,0
1377.7330000000002,-0.00018763449043035507,-0.0001492996234446764,-0.00011840312072308734,0.0,0.0,0.0,0.0,-0.003763172309845686,-0.0030660091433674097,-0.00021465049940161407,1.000184416770935,0.0,0.0,0.0,0.2763032019138336,1.7242259979248047,4.508519172668457,-50.01142883300781,0
1387.6450000000004,-0.00022715091472491622,-0.00011157521657878533,-0.00013039603072684258,0.0,0.0,0.0,0.0,0.0010904292576014996,-0.0007029462140053511,0.00010855647269636393,1.0000603199005127,0.0,0.0,0.0,0.2826138436794281,1.7433243989944458,4.526352405548096,-51.15366744995117,0
1397.5529999999999,-0.00010638497769832611,-0.0001817059237509966,-3.1532352295471355e-05,0.0,0.0,0.0,0.0,0.002905535977333784,0.0027271814178675413,0.0016095839673653245,0.9992793202400208,0.0,0.0,0.0,0.28180229663848877,1.732568621635437,4.576318264007568,-51.006778717041016,0
1407.4700000000012,-8.987164619611576e-05,-0.00011736984743038192,-8.470867032883689e-05,0.0,0.0,0.0,0.0,-0.0036403057165443897,-0.0017065801657736301,-0.003258896991610527,1.0034136772155762,0.0,0.0,0.0,0.2827659249305725,1.7337925434112549,4.569806098937988,-51.181190490722656,0
1417.3780000000006,-0.00013873641728423536,-0.00014852758613415062,-8.160463039530441e-05,0.0,0.0,0.0,0.0,0.0018697053892537951,0.0011692174011841416,-0.003218647325411439,1.002966284751892,0.0,0.0,0.0,0.28146928548812866,1.7349032163619995,4.564462184906006,-50.946502685546875,0
1427.2920000000013,-0.00014403679233510047,-9.917040006257594e-05,-0.00011804488894995302,0.0,0.0,0.0,0.0,0.0004756006528623402,-0.00030406549922190607,-0.0004427264502737671,1.001184105873108,0.0,0.0,0.0,0.28153926134109497,1.7319755554199219,4.5585432052612305,-50.95916748046875,0
1437.2000000000007,-0.00012141582556068897,-9.835948731051758e-05,-5.04340096085798e-05,0.0,0.0,0.0,0.0,-0.0006655652541667223,-0.0007026126841083169,0.0009875664254650474,0.9996809959411621,0.0,0.0,0.0,0.2790754437446594,1.734437346458435,4.559232711791992,-50.51321029663086,0
1447.1229999999996,-0.0001445399539079517,-7.709447527304292e-05,-5.57599232706707e-05,0.0,0.0,0.0,0.0,0.0010990060400217772,0.002141516888514161,0.0014837845228612423,1.0007891654968262,0.0,0.0,0.0,0.27949976921081543,1.7318518161773682,4.552708625793457,-50.59001541137695,0
1457.0249999999996,-0.00019331178918946534,-0.00010628253949107602,-4.557759893941693e-05,0.0,0.0,0.0,0.0,0.0010979509679600596,0.0011682859621942043,0.00027762475656345487,1.0015144348144531,0.0,0.0,0.0,0.27977994084358215,1.7320996522903442,4.550878524780273,-50.64072799682617,0
1466.9359999999997,-0.000182704723556526,-6.131192640168592e-05,-0.00010581564129097387,0.0,0.0,0.0,0.0,-0.0020876224152743816,-0.000852355151437223,-0.0003269977169111371,0.9988696575164795,0.0,0.0,0.0,0.2798984944820404,1.7281445264816284,4.5429816246032715,-50.66218185424805,0
1476.8469999999998,-0.00023048609727993608,-8.938145765569061e-05,-9.942269389284775e-05,0.0,0.0,0.0,0.0,0.0003488290240056813,-0.004581584595143795,-0.002104689832776785,0.9992754459381104,0.0,0.0,0.0,0.27908483147621155,1.7271862030029297,4.533210754394531,-50.51490783691406,0
1486.759,-0.0002189981023548171,-2.774945824057795e-05,-0.00017368346743751317,0.0,0.0,0.0,0.0,0.002040210412815213,-0.0024016371462494135,0.0015082452446222305,1.0006681680679321,0.0,0.0,0.0,0.2790731191635132,1.7218618392944336,4.5384626388549805,-50.51279067993164,0
1496.6720000000005,-0.0002650969836395234,-5.2169139962643385e-05,-0.00017398579802829772,0.0,0.0,0.0,0.0,-0.001676725223660469,-0.0010961261577904224,-0.0010789185762405396,1.0019423961639404,0.0,0.0,0.0,0.2783510088920593,1.7233672142028809,4.536594390869141,-50.382083892822266,0
1506.5820000000003,-0.000274720077868551,-3.052169267903082e-05,-0.00022721834830008447,0.0,0.0,0.0,0.0,0.0009527980582788587,-0.004750328604131937,0.0010757308918982744,0.9999271631240845,0.0,0.0,0.0,0.2781434655189514,1.7275370359420776,4.5378804206848145,-50.34452438354492,0
1516.4940000000006,-0.00032198181725107133,-5.591246736003086e-05,-0.00022912098211236298,0.0,0.0,0.0,0.0,0.001689940458163619,0.004871347453445196,-0.0010264196898788214,0.999920666217804,0.0,0.0,0.0,0.27754977345466614,1.7242441177368164,4.5396294593811035,-50.237064361572266,0
1526.4060000000009,-0.00033360306406393647,-3.017506969626993e-05,-0.00027815927751362324,0.0,0.0,0.0,0.0,0.0007101646042428911,-0.0038850458804517984,0.003339321119710803,0.99980628490448,0.0,0.0,0.0,0.2772175073623657,1.7241055965423584,4.541438579559326,-50.176918029785156,0
1536.3180000000011,-0.0003819122212007642,-5.683254494215362e-05,-0.0002834645565599203,0.0,0.0,0.0,0.0,-0.003212415147572756,-0.002720772521570325,5.455806967802346e-05,1.0024646520614624,0.0,0.0,0.0,0.2779535949230194,1.7148274183273315,4.535704612731934,-50.31015396118164,0
1546.2330000000002,-0.000395116803701967,-1.2966183021489996e-05,-0.00031953651341609657,0.0,0.0,0.0,0.0,-0.0011183532187715173,0.0016422508051618934,-0.000440868956502527,0.9998264312744141,0.0,0.0,0.0,0.2780659794807434,1.7179807424545288,4.5390825271606445,-50.33049774169922,0
1556.148000000001,-9.963049524230883e-05,-0.0001531366870040074,-8.901496767066419e-05,0.0,0.0,0.0,0.0,-0.0014661697205156088,-0.0007772644748911262,0.0011466011637821794,0.9987247586250305,0.0,0.0,0.0,0.278313010931015,1.6928470134735107,4.62325382232666,-50.375205993652344,0
1566.062,-0.00010532321903156117,-0.0001330725644947961,-9.652029257267714e-05,0.0,0.0,0.0,0.0,-0.0005708714597858489,-0.00204798998311162,-0.0019127709092572331,0.9989717602729797,0.0,0.0,0.0,0.2765239179134369,1.6946204900741577,4.617811679840088,-50.0513801574707,0
1575.9650000000001,9.624262929719407e-06,-0.0001919115020427853,-3.317884329590015e-05,0.0,0.0,0.0,0.0,0.001388557138852775,-0.000703785044606775,0.0008134020608849823,0.9976119995117188,0.0,0.0,0.0,0.2757819592952728,1.6957324743270874,4.61639928817749,-49.91708755493164,0
1585.8770000000004,2.7269183192402124e-05,-0.00014289628597907722,-6.529323582071811e-05,0.0,0.0,0.0,0.0,-0.002279506763443351,-0.00026675956905819476,-0.002134133828803897,0.9999356269836426,0.0,0.0,0.0,0.2760842740535736,1.6877672672271729,4.6197896003723145,-49.9718017578125,0
1595.7890000000007,-4.088329660589807e-05,-0.0001489124697400257,-5.9695896197808906e-05,0.0,0.0,0.0,0.0,0.0008053263882175088,-0.0009296459029428661,-0.0012404238805174828,0.999506413936615,0.0,0.0,0.0,0.2747706174850464,1.6970503330230713,4.611968517303467,-49.73402786254883,0
1605.701000000001,-2.536329884605948e-05,-0.00010807436046889052,-9.985138603951782e-05,0.0,0.0,0.0,0.0,-0.004376804921776056,-0.000285691290628165,-0.00046441543963737786,1.0008289813995361,0.0,0.0,0.0,0.26783156394958496,1.7105510234832764,4.613431453704834,-48.47804260253906,0
1615.6149999999998,-3.2939817174337804e-05,-0.00013908196706324816,-9.041994053404778e-05,0.0,0.0,0.0,0.0,-0.000752288440708071,-0.0014211387606337667,-0.0006625722744502127,0.9982026219367981,0.0,0.0,0.0,0.266412615776062,1.7115501165390015,4.602216720581055,-48.221214294433594,0
1625.5249999999996,-2.580172622401733e-05,-0.00011738331522792578,-0.0001272914814762771,0.0,0.0,0.0,0.0,0.00018481415463611484,-0.0007982882088981569,0.004085442516952753,0.9995131492614746,0.0,0.0,0.0,0.26604318618774414,1.7067228555679321,4.602295398712158,-48.15434646606445,0
1635.4410000000007,-8.656321733724326e-05,-7.484739035135135e-05,-0.00010574267798801884,0.0,0.0,0.0,0.0,0.0012543491320684552,0.0055014570243656635,-0.004049563314765692,1.0006123781204224,0.0,0.0,0.0,0.2655361294746399,1.6960718631744385,4.590701580047607,-48.062564849853516,0
1645.3490000000002,-9.546101500745863e-05,-6.248030695132911e-05,-0.00013134823529981077,0.0,0.0,0.0,0.0,-0.0010407168883830309,-0.003295561531558633,-0.0005460937391035259,0.9990048408508301,0.0,0.0,0.0,0.26450595259666443,1.6873369216918945,4.575420379638672,-47.87610626220703,0
1655.259,-9.309981396654621e-05,-6.0980233683949336e-05,-0.0001069388454197906,0.0,0.0,0.0,0.0,0.0008812363375909626,-0.0035074350889772177,0.00013699532428290695,1.0001250505447388,0.0,0.0,0.0,0.26438215374946594,1.6883113384246826,4.574860572814941,-47.853694915771484,0
1665.1820000000007,-9.998273162636906e-05,-5.584009340964258e-05,-0.0001409452233929187,0.0,0.0,0.0,0.0,0.0010813549160957336,-0.0013005910441279411,0.004244641400873661,1.0017948150634766,0.0,0.0,0.0,0.26524457335472107,1.6864206790924072,4.575098991394043,-48.009796142578125,0
1675.0830000000005,-0.00010272537474520504,-4.9964975914917886e-05,-0.00011134778469568118,0.0,0.0,0.0,0.0,0.000939220713917166,-0.004091133829206228,-0.0023487452417612076,1.0010807514190674,0.0,0.0,0.0,0.2669728398323059,1.689880132675171,4.580243110656738,-48.32261657714844,0
1684.996000000001,-0.00011609665671130642,-4.5333566959016025e-05,-0.0001416980812791735,0.0,0.0,0.0,0.0,0.003740853862836957,0.0037714990321546793,-0.0008104384178295732,1.000426173210144,0.0,0.0,0.0,0.26592323184013367,1.681463360786438,4.570718288421631,-48.132633209228516,0
1694.911,-7.965742406668141e-05,-9.425118332728744e-05,-0.00012201932986499742,0.0,0.0,0.0,0.0,-0.0006765410071238875,-0.0017678069416433573,0.004920674953609705,0.9995609521865845,0.0,0.0,0.0,0.26471981406211853,1.6831640005111694,4.569562911987305,-47.91481018066406,0
1704.8220000000001,-8.978419646155089e-05,-7.379806629614905e-05,-0.00015595518925692886,0.0,0.0,0.0,0.0,-0.0030802444089204073,0.002693385351449251,0.0011763321235775948,1.0004791021347046,0.0,0.0,0.0,0.2656819522380829,1.6789551973342896,4.561586380004883,-48.08896255493164,0
1714.732,-0.00014180800644680858,-0.00010620625835144892,-0.0001568863372085616,0.0,0.0,0.0,0.0,0.003749802941456437,0.00015591795090585947,0.0009950364474207163,1.0020321607589722,0.0,0.0,0.0,0.2659217417240143,1.6837207078933716,4.56118106842041,-48.132362365722656,0
1724.648000000001,-0.00018823139544110745,-9.842832514550537e-05,-0.00015634161536581814,0.0,0.0,0.0,0.0,-0.0014036506181582808,-0.001781088882125914,0.004736070055514574,1.0019155740737915,0.0,0.0,0.0,0.26618632674217224,1.6758228540420532,4.55507230758667,-48.18025588989258,0
1734.554,-0.00010522404045332223,-0.00015808086027391255,-9.26034917938523e-05,0.0,0.0,0.0,0.0,-0.0040852976962924,-0.003073649713769555,0.00027014577062800527,1.0008387565612793,0.0,0.0,0.0,0.2676381766796112,1.670967698097229,4.552623748779297,-48.44303894042969,0
1744.473,-0.00010007607488660142,-9.914435941027477e-05,-0.0001348198566120118,0.0,0.0,0.0,0.0,0.0016840039752423763,-0.003217132296413183,-0.001635070308111608,1.000892162322998,0.0,0.0,0.0,0.2677730917930603,1.6781271696090698,4.563007354736328,-48.46746063232422,0
1754.3850000000002,-0.00015733706823084503,-0.00013426381337922066,-0.00012892743689008057,0.0,0.0,0.0,0.0,-0.0026815941091626883,-0.004372308496385813,0.0035639971029013395,1.000810980796814,0.0,0.0,0.0,0.2661425769329071,1.6707558631896973,4.56146764755249,-48.172340393066406,0
1764.299000000001,-0.00014698554878123105,-7.837808516342193e-05,-0.00019884301582351327,0.0,0.0,0.0,0.0,0.0004211018094792962,0.003925756551325321,0.0015895320102572441,0.9991966485977173,0.0,0.0,0.0,0.26696979999542236,1.6777544021606445,4.568635940551758,-48.32206344604492,0
1774.2080000000005,-0.00020373982260935009,-0.00011457790242275223,-0.00019782641902565956,0.0,0.0,0.0,0.0,0.0007471631397493184,-0.0012502020690590143,-0.0028762214351445436,0.999858558177948,0.0,0.0,0.0,0.2668580412864685,1.6784894466400146,4.564389228820801,-48.30183410644531,0
1784.125,-0.00021224937518127263,-5.782175503554754e-05,-0.00025831605307757854,0.0,0.0,0.0,0.0,-0.0013407510705292225,-0.00018059943977277726,-0.0009037933778017759,0.999426543712616,0.0,0.0,0.0,0.265523225069046,1.670602560043335,4.562600135803223,-48.06023406982422,0
1794.0330000000013,-9.069936641026288e-05,-0.00012384145520627499,-0.0001550772285554558,0.0,0.0,0.0,0.0,0.0003410617937333882,-0.0011127754114568233,0.003904975950717926,1.0019612312316895,0.0,0.0,0.0,0.26339924335479736,1.6673825979232788,4.603455543518066,-47.675785064697266,0
1803.946,-7.053285662550479e-05,-6.368060712702572e-05,-0.00022061170602682978,0.0,0.0,0.0,0.0,-0.0006417535478249192,0.00246765767224133,0.0016066360985860229,1.0001202821731567,0.0,0.0,0.0,0.26443275809288025,1.6647192239761353,4.60532283782959,-47.862857818603516,0
1813.853000000001,-4.634637662093155e-05,-0.00010478636249899864,-0.0001931225706357509,0.0,0.0,0.0,0.0,0.002825430827215314,0.0019006348447874188,0.000935790129005909,1.002112865447998,0.0,0.0,0.0,0.2640334963798523,1.6618378162384033,4.594118595123291,-47.790584564208984,0
1823.7740000000013,-6.025541733833961e-05,-9.2551221314352e-05,-0.00022263743449002504,0.0,0.0,0.0,0.0,0.0034835494589060545,0.0008504386059939861,7.85478334819345e-07,0.9995163083076477,0.0,0.0,0.0,0.270668625831604,1.6621556282043457,4.593742370605469,-48.99155807495117,0
1833.6810000000005,-5.9868558309972286e-05,-0.00011669296509353444,-0.00019601592794060707,0.0,0.0,0.0,0.0,-0.00012669854913838208,0.0003084478958044201,-0.0016368955839425325,1.001975178718567,0.0,0.0,0.0,0.26971980929374695,1.6553066968917847,4.589948654174805,-48.819820404052734,0
1843.598,-0.00011150973296025768,-0.00013424275675788522,-0.000184307195013389,0.0,0.0,0.0,0.0,0.0018667132826521993,0.004179906565696001,0.00163567578420043,1.0014712810516357,0.0,0.0,0.0,0.2704648971557617,1.65126633644104,4.587863445281982,-48.954681396484375,0
1853.5030000000006,-0.00016591930761933327,-0.00017575506353750825,-0.00017841460066847503,0.0,0.0,0.0,0.0,-0.0012363765854388475,0.000788818288128823,-0.0027854046784341335,1.0007944107055664,0.0,0.0,0.0,0.2695075571537018,1.6470164060592651,4.575815677642822,-48.781402587890625,0
1863.4170000000013,-0.00020639252034015954,-0.00015224730304908007,-0.00017212818784173578,0.0,0.0,0.0,0.0,0.00187952839769423,0.00015997755690477788,-0.0001887993566924706,0.999696671962738,0.0,0.0,0.0,0.2684607207775116,1.6448371410369873,4.5687031745910645,-48.591922760009766,0
1873.3360000000011,-0.00014138492406345904,-0.00014918459055479616,-7.11403408786282e-05,0.0,0.0,0.0,0.0,-0.0008573820232413709,0.0015901519218459725,0.002289348281919956,0.9991406798362732,0.0,0.0,0.0,0.2675632834434509,1.6364716291427612,4.565282344818115,-48.42948532104492,0
1883.2399999999998,-0.00015943458129186183,-0.00012339830573182553,-8.036424696911126e-05,0.0,0.0,0.0,0.0,-0.0012604244984686375,-0.00320872338488698,0.001513541559688747,1.001320242881775,0.0,0.0,0.0,0.2696153521537781,1.6364938020706177,4.556586265563965,-48.80091094970703,0
1893.1509999999998,-0.00021508618374355137,-0.0001684993039816618,-6.663445674348623e-05,0.0,0.0,0.0,0.0,-0.0012349336175248027,-0.0027629544492810965,0.002361874794587493,0.9993669986724854,0.0,0.0,0.0,0.27068501710891724,1.6353682279586792,4.554287910461426,-48.99452590942383,0
1903.0730000000003,-0.00023890697048045695,-0.00016713119111955166,-8.696640725247562e-05,0.0,0.0,0.0,0.0,0.00208920962177217,0.0008175899856723845,0.0009540675091557205,0.9994630813598633,0.0,0.0,0.0,0.2697082757949829,1.6320573091506958,4.556526184082031,-48.81772994995117,0
1912.9760000000006,-0.00029575085500255227,-0.00021442210709210485,-7.570933667011559e-05,0.0,0.0,0.0,0.0,8.821437950246036e-05,-0.0034403163008391857,0.0013423585332930088,0.9991307854652405,0.0,0.0,0.0,0.26951226592063904,1.6261464357376099,4.543118476867676,-48.782257080078125,0
1922.8860000000004,-0.0002886138972826302,-0.0001265647733816877,-0.00013916002353653312,0.0,0.0,0.0,0.0,0.001311104861088097,0.00365643878467381,0.0032551276963204145,1.0024248361587524,0.0,0.0,0.0,0.26920241117477417,1.6612392663955688,4.575523853302002,-48.72616958618164,0
1932.8019999999997,-6.469646177720279e-05,-0.00021353657939471304,3.298231604276225e-05,0.0,0.0,0.0,0.0,0.0025830399245023727,-0.001493878080509603,-2.4775019483058713e-05,1.0020803213119507,0.0,0.0,0.0,0.26752814650535583,1.6502748727798462,4.630080223083496,-48.423126220703125,0
1942.7210000000014,-3.1019460493553197e-06,-0.00012781427358277142,-6.30331996944733e-05,0.0,0.0,0.0,0.0,0.0024860298726707697,0.0015453475061804056,0.0031366096809506416,1.0025999546051025,0.0,0.0,0.0,0.2673509418964386,1.6388566493988037,4.624234199523926,-48.39105224609375,0
1952.616,-4.9424761527916417e-05,-0.00015256050392054021,-4.524744872469455e-05,0.0,0.0,0.0,0.0,0.0045693605206906796,0.005269209388643503,0.0017341244965791702,0.9996702075004578,0.0,0.0,0.0,0.26751068234443665,1.6357121467590332,4.611657619476318,-48.41996765136719,0
1962.5380000000005,9.475775186729152e-06,-3.5063720133621246e-05,-0.00012169878755230457,0.0,0.0,0.0,0.0,-0.0012029947247356176,-0.00197172281332314,0.0009380126721225679,1.0003650188446045,0.0,0.0,0.0,0.27289971709251404,1.6582502126693726,4.616426467895508,-49.39539337158203,0
1972.4470000000001,-2.4604672944406047e-05,-9.136686276178807e-05,-0.00012131058610975742,0.0,0.0,0.0,0.0,0.001760189770720899,0.003692815313115716,-8.057675586314872e-05,0.9998165369033813,0.0,0.0,0.0,0.27379220724105835,1.6574757099151611,4.60629940032959,-49.55693817138672,0
1982.362000000001,2.554754019001848e-06,-1.3786187992081977e-05,-0.00017434143228456378,0.0,0.0,0.0,0.0,-0.0029218520503491163,-0.003054915927350521,-0.0021059156861156225,1.000827670097351,0.0,0.0,0.0,0.27229979634284973,1.6609541177749634,4.607685089111328,-49.28680419921875,0
1992.2610000000004,-2.164013494621031e-05,-6.319881504168734e-05,-0.00017030880553647876,0.0,0.0,0.0,0.0,0.0012793248752132058,0.0026510674506425858,0.0018515626434236765,1.0006300210952759,0.0,0.0,0.0,0.2713097333908081,1.66403329372406,4.603631496429443,-49.107601165771484,0
2002.179,-2.6437630367581733e-05,-5.5111795518314466e-05,-0.0002118555858032778,0.0,0.0,0.0,0.0,0.00021647957328241318,0.000820179411675781,0.003273321082815528,1.0009504556655884,0.0,0.0,0.0,0.2715669870376587,1.6632137298583984,4.603597164154053,-49.15416717529297,0
2012.0879999999997,-3.1058974855113775e-05,-9.20126840355806e-05,-0.00019411528774071485,0.0,0.0,0.0,0.0,-0.002241357695311308,-0.0031945754308253527,-0.0006121983169578016,0.9988038539886475,0.0,0.0,0.0,0.27194494009017944,1.658454179763794,4.593568801879883,-49.222572326660156,0
2022.014000000001,-8.72911186888814e-05,-0.00011869387526530772,-0.00017828214913606644,0.0,0.0,0.0,0.0,-0.0023674331605434418,-0.004542625974863768,0.004052950069308281,0.9985716342926025,0.0,0.0,0.0,0.27034705877304077,1.6624270677566528,4.590564250946045,-48.93335723876953,0
2031.9130000000005,-6.492197280749679e-05,-0.0001459932536818087,-0.0001427389943273738,0.0,0.0,0.0,0.0,0.0032386076636612415,0.0044616819359362125,-0.0026734950952231884,0.9998645782470703,0.0,0.0,0.0,0.27119630575180054,1.665476679801941,4.59912109375,-49.08707046508789,0
2041.826000000001,-7.597767398692667e-05,-0.00011397119669709355,-0.00016926419630181044,0.0,0.0,0.0,0.0,-0.0014145614113658667,-0.00299385585822165,0.003710927441716194,1.0016051530838013,0.0,0.0,0.0,0.26999229192733765,1.6543272733688354,4.591517925262451,-48.869144439697266,0
2051.747000000001,2.4770628442638554e-05,-0.00019237824017181993,-0.00012866538600064814,0.0,0.0,0.0,0.0,-0.002225665608420968,0.0015347079606726766,0.0029522280674427748,1.0015209913253784,0.0,0.0,0.0,0.2702758014202118,1.660008430480957,4.592892646789551,-48.92045974731445,0
2061.6550000000007,-2.6804367735167034e-05,-0.00022237007215153426,-0.0001174865901703015,0.0,0.0,0.0,0.0,0.0015754849882796407,0.003402173751965165,0.00033177476143464446,1.000903844833374,0.0,0.0,0.0,0.27024534344673157,1.650589942932129,4.585181713104248,-48.91494369506836,0
2071.563,-7.619478856213391e-05,-0.00020816788310185075,-7.5729243690148e-05,0.0,0.0,0.0,0.0,-0.00016126365517266095,-0.004131078254431486,-0.0012854820815846324,0.9992123246192932,0.0,0.0,0.0,0.27026626467704773,1.648985505104065,4.586906909942627,-48.91873550415039,0
2081.474,-6.55094045214355e-05,-0.00016070716083049774,-0.00012093818804714829,0.0,0.0,0.0,0.0,-0.000624081352725625,-0.0016249591717496514,-0.0017429038416594267,1.0005309581756592,0.0,0.0,0.0,0.26889365911483765,1.6476494073867798,4.59102725982666,-48.6702880859375,0
2091.383,-0.00012473578681237996,-0.00020987223251722753,-0.0001128934818552807,0.0,0.0,0.0,0.0,0.0008447770378552377,0.002906937850639224,-0.004209085367619991,1.0013070106506348,0.0,0.0,0.0,0.26808521151542664,1.6500260829925537,4.589587688446045,-48.52396011352539,0
2101.303,-0.00012687488924711943,-0.00015937237185426056,-0.00015555802383460104,0.0,0.0,0.0,0.0,0.0026454422622919083,-0.002638894598931074,-0.000780144240707159,0.9981120824813843,0.0,0.0,0.0,0.266353964805603,1.642016887664795,4.587774276733398,-48.21059799194336,0
2111.2090000000007,-0.00018772763723973185,-0.00020516195218078792,-0.00015003813314251602,0.0,0.0,0.0,0.0,-0.0012588370591402054,0.0010009148390963674,-0.0013526042457669973,0.999156653881073,0.0,0.0,0.0,0.2658146917819977,1.6442171335220337,4.587011337280273,-48.11298370361328,0
