timestamp,stateEstimate.x,stateEstimate.y,stateEstimate.z,controller.cmd_thrust,controller.cmd_roll,controller.cmd_pitch,controller.cmd_yaw,controller.r_roll,controller.r_pitch,controller.r_yaw,controller.accelz,controller.actuatorThrust,controller.roll,controller.pitch,controller.yaw,controller.rollRate,controller.pitchRate,controller.yawRate,controller.ctr_yaw
0.0,-9.972908628697041e-06,-4.388750676298514e-05,-0.00010637678497005254,0.0,0.0,0.0,0.0,-0.00014175339310895652,-0.0011072054039686918,-0.0017280090833082795,0.9972345232963562,0.0,0.0,0.0,0.2183598428964615,-1.365492343902588,3.3167002201080322,-39.523563385009766,0
9.90899999999965,-0.00014498770178761333,-8.483119745505974e-05,-0.00011443292169133201,0.0,0.0,0.0,0.0,-0.003435279708355665,-0.0012047664495185018,0.003230809234082699,0.9997522830963135,0.0,0.0,0.0,0.2187424749135971,-1.3641468286514282,3.318798065185547,-39.59282302856445,0
19.818999999999505,-6.798062531743199e-05,-0.00011862652900163084,-5.522351784748025e-05,0.0,0.0,0.0,0.0,0.001782611128874123,0.0008785788668319583,0.000131454857182689,0.9994409084320068,0.0,0.0,0.0,0.22012558579444885,-1.3602001667022705,3.331171989440918,-39.843170166015625,0
29.72099999999955,-0.00016152526950463653,-0.00011317150347167626,-7.530554285040125e-05,0.0,0.0,0.0,0.0,0.00045208842493593693,-0.0036137865390628576,-0.0005790048162452877,0.9997965693473816,0.0,0.0,0.0,0.21926724910736084,-1.3640767335891724,3.3245849609375,-39.687808990478516,0
39.6309999999994,-0.00012391673226375133,-0.00015504843031521887,-4.302876186557114e-05,0.0,0.0,0.0,0.0,-0.0023924936540424824,0.0009733873303048313,0.0028255933430045843,1.0026272535324097,0.0,0.0,0.0,0.22605793178081512,-1.3775516748428345,3.3516902923583984,-40.916934967041016,0
49.54600000000028,-0.00019362947205081582,-0.00012922286987304688,-7.750124495942146e-05,0.0,0.0,0.0,0.0,-0.001548703177832067,0.0003230497823096812,0.0019260672852396965,1.0009936094284058,0.0,0.0,0.0,0.2252396196126938,-1.3715260028839111,3.3473663330078125,-40.76881790161133,0
59.45600000000013,-0.00017000327352434397,-0.00010937273327726871,-1.2513542060332838e-05,0.0,0.0,0.0,0.0,-0.0007909384439699352,0.0017712439876049757,0.0008913868805393577,1.0009011030197144,0.0,0.0,0.0,0.22499890625476837,-1.3668079376220703,3.3481218814849854,-40.725250244140625,0
69.36700000000019,-0.00016490679990965873,-1.4383872439793777e-05,-8.55814796523191e-05,0.0,0.0,0.0,0.0,-0.002376752905547619,0.0011218945728614926,0.002485748613253236,0.9996392130851746,0.0,0.0,0.0,0.22598333656787872,-1.3601750135421753,3.3393008708953857,-40.9034309387207,0
79.28000000000065,-0.00017950682376977056,-2.1323139662854373e-05,-5.6815148127498105e-05,0.0,0.0,0.0,0.0,0.000933927483856678,-0.000656849704682827,0.0027482847217470407,0.9990921020507812,0.0,0.0,0.0,0.2265516221523285,-1.3589751720428467,3.346148729324341,-41.00629425048828,0
89.19499999999971,-0.0001947285927599296,5.672466431860812e-05,-0.0001260522985830903,0.0,0.0,0.0,0.0,0.0007999179069884121,-0.0023743894416838884,0.0016109170392155647,0.9993211627006531,0.0,0.0,0.0,0.2261200100183487,-1.3608741760253906,3.3366246223449707,-40.92817306518555,0
99.09900000000016,-0.00021369608293753117,7.774683035677299e-05,-8.725610678084195e-05,0.0,0.0,0.0,0.0,-0.002701929770410061,0.0030883492436259985,-0.0031329842749983072,1.0007829666137695,0.0,0.0,0.0,0.22650790214538574,-1.3527504205703735,3.330552816390991,-40.998382568359375,0
109.01399999999921,-0.0002450306201353669,0.00011260907194809988,-0.00017799512716010213,0.0,0.0,0.0,0.0,0.0006919253501109779,0.003992248326539993,-0.00039965473115444183,1.000331997871399,0.0,0.0,0.0,0.22646892070770264,-1.349899411201477,3.322631597518921,-40.99132537841797,0
118.92599999999948,-0.0001294352114200592,3.375929009052925e-05,-0.00012646056711673737,0.0,0.0,0.0,0.0,0.0011262887855991721,-0.0014663748443126678,-0.0023999048862606287,0.9998051524162292,0.0,0.0,0.0,0.2258116751909256,-1.3489362001419067,3.312159776687622,-40.87236022949219,0
128.83399999999892,-0.00011761421046685427,0.00012314942432567477,-0.00022256514057517052,0.0,0.0,0.0,0.0,0.0031864147167652845,0.0004039516788907349,-0.0006689478759653866,1.0006612539291382,0.0,0.0,0.0,0.22522787749767303,-1.3500711917877197,3.3065989017486572,-40.766693115234375,0
138.7420000000002,-8.11511927167885e-05,9.826703899307176e-05,-0.0001902658841572702,0.0,0.0,0.0,0.0,-0.0005308178951963782,-0.0005200448795221746,-0.0030040480196475983,0.998551607131958,0.0,0.0,0.0,0.2244853377342224,-1.3501663208007812,3.3035366535186768,-40.632293701171875,0
148.65200000000004,-0.00015103605983313173,0.00014090370677877218,-0.00022771552903577685,0.0,0.0,0.0,0.0,-0.002648836001753807,-0.0036276450846344233,0.0043041883036494255,0.9989630579948425,0.0,0.0,0.0,0.22419221699237823,-1.3491915464401245,3.301349401473999,-40.57923889160156,0
158.5660000000007,-8.644754416309297e-05,9.848436457104981e-05,-0.00018642660870682448,0.0,0.0,0.0,0.0,-0.00022778230777475983,0.0008066121954470873,-0.0006826761527918279,0.9991052150726318,0.0,0.0,0.0,0.22344018518924713,-1.351833701133728,3.2935056686401367,-40.443115234375,0
168.48099999999977,-0.0001744992914609611,9.97211245703511e-05,-0.0002343601663596928,0.0,0.0,0.0,0.0,-0.0013281292049214244,0.0021534834522753954,0.0013967286795377731,0.9986688494682312,0.0,0.0,0.0,0.22335192561149597,-1.3521121740341187,3.2824645042419434,-40.42714309692383,0
178.387999999999,-8.525484736310318e-05,2.9900684239692055e-05,-0.00018996227299794555,0.0,0.0,0.0,0.0,-0.0005366287659853697,-0.002816998865455389,0.0027388837188482285,0.9998296499252319,0.0,0.0,0.0,0.22349004447460175,-1.3489205837249756,3.282609224319458,-40.45214080810547,0
188.29700000000048,-0.00020232965471222997,3.924623524653725e-05,-0.00019303038425277919,0.0,0.0,0.0,0.0,-0.00038891713484190404,-0.0023496211506426334,0.002901416504755616,0.9989036917686462,0.0,0.0,0.0,0.22417989373207092,-1.3501255512237549,3.27921199798584,-40.57701110839844,0
198.20999999999913,-0.00012898501881863922,-1.1025684216292575e-05,-0.00014447887951973826,0.0,0.0,0.0,0.0,-0.000504644529428333,-0.0009753818158060312,0.0008297031745314598,0.9996336698532104,0.0,0.0,0.0,0.22398075461387634,-1.3516818284988403,3.2814383506774902,-40.540958404541016,0
208.1270000000004,-0.0001773220137692988,4.8664915084373206e-05,-0.00020954289357177913,0.0,0.0,0.0,0.0,0.00028343015583232045,0.0002912664203904569,-0.001446772483177483,0.9996237754821777,0.0,0.0,0.0,0.22447045147418976,-1.3506603240966797,3.282959461212158,-40.629600524902344,0
218.02700000000004,-0.00018017011461779475,2.7143260012962855e-05,-0.0001855140144471079,0.0,0.0,0.0,0.0,-0.0038334554992616177,-0.003331660758703947,-0.002275326056405902,0.9984071254730225,0.0,0.0,0.0,0.22420252859592438,-1.34811532497406,3.2904293537139893,-40.58110427856445,0
227.9380000000001,-0.00026187548064626753,6.995574221946299e-05,-0.0002335260942345485,0.0,0.0,0.0,0.0,0.002736615017056465,0.00032470040605403483,-0.0009589394903741777,1.0013859272003174,0.0,0.0,0.0,0.22376494109630585,-1.3376768827438354,3.296745777130127,-40.501895904541016,0
237.85699999999997,-0.00021338771330192685,2.4730476070544682e-05,-0.00019624667766038328,0.0,0.0,0.0,0.0,0.0018320046365261078,0.00297745643183589,0.002251886762678623,1.000528335571289,0.0,0.0,0.0,0.22324232757091522,-1.3407487869262695,3.2928454875946045,-40.40730285644531,0
247.76699999999983,-0.0002817176573444158,5.547421460505575e-05,-0.00025489245308563113,0.0,0.0,0.0,0.0,0.0012853043153882027,-0.001785679254680872,0.002465524012222886,0.9990158081054688,0.0,0.0,0.0,0.22476062178611755,-1.340940237045288,3.2872226238250732,-40.68212127685547,0
257.6730000000007,-0.000203461735509336,-6.348585884552449e-06,-0.000207445933483541,0.0,0.0,0.0,0.0,-0.001735852682031691,0.0027963712345808744,-0.0007630160544067621,0.9974786639213562,0.0,0.0,0.0,0.22530482709407806,-1.3429664373397827,3.292762041091919,-40.78062057495117,0
267.58300000000054,-0.00026753355632536113,3.5845347156282514e-05,-0.00026458915090188384,0.0,0.0,0.0,0.0,0.0012895215768367052,-0.00017330647096969187,0.0034893762785941362,0.9989343881607056,0.0,0.0,0.0,0.22404971718788147,-1.3432575464248657,3.288229465484619,-40.553443908691406,0
277.494999999999,-0.00022756433463655412,1.539069489808753e-05,-0.00021636260498780757,0.0,0.0,0.0,0.0,-0.0031421880703419447,0.001056033419445157,0.0012334886705502868,0.997919499874115,0.0,0.0,0.0,0.2251138985157013,-1.3457796573638916,3.28406023979187,-40.74606704711914,0
287.41300000000047,-0.0002928206231445074,5.6908316764747724e-05,-0.00027493524248711765,0.0,0.0,0.0,0.0,-0.0029445625841617584,-0.0048460569232702255,-0.0002895643119700253,0.9961549043655396,0.0,0.0,0.0,0.22546645998954773,-1.3421777486801147,3.286022663116455,-40.80987548828125,0
297.3140000000003,-0.0003013771784026176,5.9830243117175996e-05,-0.00024533586110919714,0.0,0.0,0.0,0.0,0.0003758993116207421,0.00738947419449687,-0.00046226923586800694,0.9998212456703186,0.0,0.0,0.0,0.22421245276927948,-1.3316231966018677,3.29573130607605,-40.58290481567383,0
307.22400000000016,-0.0003517738659866154,0.00011927961168112233,-0.00031589309219270945,0.0,0.0,0.0,0.0,0.0012078717118129134,0.0010694001102820039,0.0023175326641649008,1.000833511352539,0.0,0.0,0.0,0.2232733517885208,-1.332470417022705,3.274644613265991,-40.41292190551758,0
317.14799999999923,-0.0003357711830176413,0.00014364515664055943,-0.0002643151965457946,0.0,0.0,0.0,0.0,-0.003181593958288431,0.0030337111093103886,-0.005908236838877201,0.9993787407875061,0.0,0.0,0.0,0.22402240335941315,-1.3333016633987427,3.275101900100708,-40.548500061035156,0
327.04199999999946,-0.0003804659645538777,0.00021774681226816028,-0.0003349807520862669,0.0,0.0,0.0,0.0,0.0024575614370405674,-0.0004096490447409451,-0.0025068437680602074,0.9996730089187622,0.0,0.0,0.0,0.2230447232723236,-1.3253132104873657,3.271303415298462,-40.37153625488281,0
336.9599999999991,-0.00022886288934387267,0.00015088051441125572,-0.00025772201479412615,0.0,0.0,0.0,0.0,-0.0017627427587285638,0.00427668122574687,0.0018257515039294958,0.9982320666313171,0.0,0.0,0.0,0.22337986528873444,-1.3483670949935913,3.310173749923706,-40.43219757080078,0
346.869999999999,-0.00031863493495620787,0.00016243007848970592,-0.0003162332868669182,0.0,0.0,0.0,0.0,-0.0022809577640146017,-0.0007493442390114069,-0.0022810993250459433,0.999196469783783,0.0,0.0,0.0,0.22371850907802582,-1.3481475114822388,3.3021938800811768,-40.49349594116211,0
356.78000000000065,-0.00021533531253226101,9.945754572981969e-05,-0.0002664100320544094,0.0,0.0,0.0,0.0,-0.001344153075478971,0.0045761838555336,0.001366260228678584,0.9986576437950134,0.0,0.0,0.0,0.2232578545808792,-1.3439967632293701,3.2985033988952637,-40.41011428833008,0
366.6890000000003,-0.0003086056385654956,0.00013011090049985796,-0.00030175878782756627,0.0,0.0,0.0,0.0,-0.0007143146940506995,-0.0008373406599275768,0.0004987440188415349,0.9971451759338379,0.0,0.0,0.0,0.2236451357603073,-1.3389067649841309,3.287844181060791,-40.4802131652832,0
376.60599999999977,-0.00016114662867039442,3.398701301193796e-05,-0.0002469158498570323,0.0,0.0,0.0,0.0,0.0012002534931525588,-3.368791294633411e-05,-0.0016651811311021447,0.9994488954544067,0.0,0.0,0.0,0.2263326644897461,-1.3541489839553833,3.3231496810913086,-40.9666633605957,0
386.5069999999996,-0.00025378496502526104,6.618895713472739e-05,-0.00027517208945937455,0.0,0.0,0.0,0.0,0.0006213879096321762,0.001787155750207603,0.0012923154281452298,0.9987699389457703,0.0,0.0,0.0,0.22505716979503632,-1.3519617319107056,3.3172690868377686,-40.73579406738281,0
396.41699999999946,-0.00020515811047516763,5.591901754087303e-06,-0.00025280853151343763,0.0,0.0,0.0,0.0,0.0012619865592569113,-0.0024864727165549994,0.001203336869366467,0.9969195127487183,0.0,0.0,0.0,0.22600166499614716,-1.3493597507476807,3.314535617828369,-40.9067497253418,0
406.3349999999991,-0.00039270459092222154,-4.7698908019810915e-05,-0.00023567270545754582,0.0,0.0,0.0,0.0,-0.002075257943943143,0.002863083267584443,-0.0019479062175378203,0.9991689920425415,0.0,0.0,0.0,0.22690260410308838,-1.3487430810928345,3.3220458030700684,-41.069820404052734,0
416.2479999999996,-0.00021946142078377306,-0.00010773725807666779,-0.0001363834016956389,0.0,0.0,0.0,0.0,-0.00034500102628953755,-0.0014198269927874207,0.0018368357559666038,0.9984316825866699,0.0,0.0,0.0,0.22799891233444214,-1.3525863885879517,3.3517417907714844,-41.26825714111328,0
426.14799999999923,-0.00031563418451696634,-9.331102046417072e-05,-0.00017377029871568084,0.0,0.0,0.0,0.0,0.002992285881191492,0.0011532017961144447,-0.002944517880678177,0.9984811544418335,0.0,0.0,0.0,0.22772127389907837,-1.3476885557174683,3.351341485977173,-41.2180061340332,0
436.0689999999995,-0.00026969562168233097,-0.00013434336869977415,-0.00013182168186176568,0.0,0.0,0.0,0.0,0.00031359182321466506,0.0017889055889099836,-0.0011752170976251364,0.9991060495376587,0.0,0.0,0.0,0.22635923326015472,-1.3521305322647095,3.347649097442627,-40.97146987915039,0
445.96999999999935,-0.00034342482103966177,-9.276189666707069e-05,-0.00017644879699219018,0.0,0.0,0.0,0.0,0.00039346417179331183,0.0022253450006246567,-0.0024200992193073034,1.0001133680343628,0.0,0.0,0.0,0.22518619894981384,-1.3506475687026978,3.3421273231506348,-40.75914764404297,0
455.8850000000002,-0.0002924471045844257,-0.00010495684546185657,-0.00011614821414696053,0.0,0.0,0.0,0.0,0.0028414756525307894,-0.0006131146801635623,0.0009397222893312573,1.001387357711792,0.0,0.0,0.0,0.2243214100599289,-1.3532440662384033,3.3372864723205566,-40.602622985839844,0
465.79299999999967,-0.00029594197985716164,2.9616785468533635e-06,-0.00019671597692649812,0.0,0.0,0.0,0.0,0.00022531380818691105,0.0008489561732858419,-0.0011847388232126832,1.0024373531341553,0.0,0.0,0.0,0.22412237524986267,-1.358582615852356,3.3330702781677246,-40.56659698486328,0
475.7029999999995,-0.00021964147163089365,-2.2529355192091316e-05,-0.00013293229858390987,0.0,0.0,0.0,0.0,0.0005439285887405276,-0.006333332974463701,0.003963129129260778,1.0027207136154175,0.0,0.0,0.0,0.22419798374176025,-1.353922963142395,3.3293604850769043,-40.58028030395508,0
485.6190000000006,-0.0002650976530276239,4.463640652829781e-05,-0.0001905358803924173,0.0,0.0,0.0,0.0,-0.003268943168222904,-0.002293557859957218,-0.001910099177621305,1.0001951456069946,0.0,0.0,0.0,0.22660855948925018,-1.350593090057373,3.3448965549468994,-41.016597747802734,0
495.52399999999943,-0.0002134631504304707,-2.0420338842086494e-07,-0.00014717091107740998,0.0,0.0,0.0,0.0,-0.001505094114691019,-0.0024626643862575293,0.0016940636560320854,0.9965312480926514,0.0,0.0,0.0,0.22625811398029327,-1.3401786088943481,3.3487253189086914,-40.95317077636719,0
505.4410000000007,-0.0002386666601523757,6.913412653375417e-05,-0.00022951555729378015,0.0,0.0,0.0,0.0,-0.0014803216326981783,0.007662816904485226,-0.003193792887032032,0.9969952702522278,0.0,0.0,0.0,0.22612452507019043,-1.3353122472763062,3.350684642791748,-40.92898941040039,0
515.3469999999998,-0.00019183436234015971,-1.569424057379365e-08,-0.00021259971254039556,0.0,0.0,0.0,0.0,-0.004313776735216379,-0.00151308614294976,0.0025915310252457857,1.0004178285598755,0.0,0.0,0.0,0.2259361296892166,-1.3335458040237427,3.33262300491333,-40.8948860168457,0
525.2579999999998,-0.00025829908554442227,4.301221269997768e-05,-0.0002694945433177054,0.0,0.0,0.0,0.0,0.0033381544053554535,0.0001989031006814912,-0.00023395346943289042,1.0008736848831177,0.0,0.0,0.0,0.2276352047920227,-1.329288125038147,3.337031364440918,-41.202423095703125,0
535.1679999999997,-0.00022052023268770427,4.1004350350704044e-05,-0.0002196850982727483,0.0,0.0,0.0,0.0,0.0012292530154809356,9.877522097667679e-05,-0.00163324736058712,1.0009654760360718,0.0,0.0,0.0,0.22776713967323303,-1.3372559547424316,3.3342626094818115,-41.2263069152832,0
545.0789999999997,-0.0002858519146684557,8.132866787491366e-05,-0.00027885808958671987,0.0,0.0,0.0,0.0,0.0029398465994745493,-0.0033013015054166317,-0.0014466836582869291,0.9991271495819092,0.0,0.0,0.0,0.22741951048374176,-1.3361080884933472,3.325381278991699,-41.16338348388672,0
554.9899999999998,-0.00021599623141810298,5.880223761778325e-05,-0.0002226309443358332,0.0,0.0,0.0,0.0,-0.0015606500674039125,0.002870000433176756,0.0018649218836799264,0.9982299208641052,0.0,0.0,0.0,0.2264576256275177,-1.3388773202896118,3.32560658454895,-40.989280700683594,0
564.9009999999998,-0.0002895874495152384,0.00010228523751720786,-0.00026737115695141256,0.0,0.0,0.0,0.0,0.001399486092850566,0.0029367876704782248,0.0010665174340829253,0.9985620379447937,0.0,0.0,0.0,0.22564734518527985,-1.335456371307373,3.3139352798461914,-40.842620849609375,0
574.8109999999997,-0.00027422670973464847,9.847321780398488e-05,-0.00023533080820925534,0.0,0.0,0.0,0.0,-3.040086266992148e-05,0.002279763575643301,-0.0008154231472872198,0.9997994303703308,0.0,0.0,0.0,0.22561541199684143,-1.3399888277053833,3.3016321659088135,-40.83683776855469,0
584.732,-0.00033316161716356874,0.00016225239960476756,-0.00029043189715594053,0.0,0.0,0.0,0.0,-0.0050695897080004215,-0.004545622039586306,-0.00013030353875365108,1.0012778043746948,0.0,0.0,0.0,0.2252688854932785,-1.3415815830230713,3.291118621826172,-40.77411651611328,0
594.6360000000004,-0.0002702020574361086,0.00012509601947385818,-0.0002518265973776579,0.0,0.0,0.0,0.0,-0.0009864213643595576,-0.003830753266811371,0.0031239157542586327,1.0008808374404907,0.0,0.0,0.0,0.224826842546463,-1.3308424949645996,3.2970988750457764,-40.69410705566406,0
604.5519999999997,-0.00029087578877806664,0.00022458675084635615,-0.00032853148877620697,0.0,0.0,0.0,0.0,0.0016884371871128678,-0.0006973932031542063,-0.004541534930467606,0.9987984895706177,0.0,0.0,0.0,0.22459310293197632,-1.3265572786331177,3.3037099838256836,-40.651798248291016,0
614.4580000000005,-0.0002617216086946428,0.00018759752856567502,-0.00030950439395383,0.0,0.0,0.0,0.0,-3.50732370861806e-05,-0.0018304678378626704,0.005782830063253641,0.9986191987991333,0.0,0.0,0.0,0.2227153778076172,-1.329566240310669,3.304659128189087,-40.311927795410156,0
624.3670000000002,-0.00041054870234802365,0.0001806928194127977,-0.00030992896063253284,0.0,0.0,0.0,0.0,0.0012836430687457323,0.004032425116747618,-0.0021884937305003405,0.9988764524459839,0.0,0.0,0.0,0.22439789772033691,-1.324341893196106,3.302002429962158,-40.6164665222168,0
634.277,-0.00030942950979806483,0.00011225898197153583,-0.0002645787608344108,0.0,0.0,0.0,0.0,-0.00039498513797298074,-0.0027204120997339487,-0.0031115578021854162,0.9992161393165588,0.0,0.0,0.0,0.2230481058359146,-1.318183422088623,3.290318489074707,-40.37215042114258,0
644.1900000000005,-0.0004140293167438358,0.00015535176498815417,-0.0002777935878839344,0.0,0.0,0.0,0.0,-0.0017620426369830966,0.0022796429693698883,0.0016281850403174758,0.9997655749320984,0.0,0.0,0.0,0.22274579107761383,-1.3108757734298706,3.2938761711120605,-40.31743240356445,0
654.101999999999,-0.00025273283245041966,9.965748176909983e-05,-0.0001842105557443574,0.0,0.0,0.0,0.0,0.0015030339127406478,-0.0015109386295080185,0.003034215420484543,0.9979327321052551,0.0,0.0,0.0,0.22430793941020966,-1.3220685720443726,3.3273377418518066,-40.60018539428711,0
664.0239999999994,-0.00036320008803159,0.00012829602928832173,-0.00019591469026636332,0.0,0.0,0.0,0.0,-0.00025085738161578774,0.0010049251141026616,0.001530722132883966,1.0003347396850586,0.0,0.0,0.0,0.22379465401172638,-1.3241416215896606,3.32051682472229,-40.50727844238281,0
673.9249999999993,-0.00024958941503427923,7.321365410462022e-05,-0.0001279091084143147,0.0,0.0,0.0,0.0,-0.0007377519505098462,-0.0026911147870123386,0.003331156447529793,0.999845564365387,0.0,0.0,0.0,0.22397437691688538,-1.3224306106567383,3.3160736560821533,-40.5398063659668,0
683.8400000000001,-0.00034551756107248366,0.0001154932178906165,-0.0001441107306163758,0.0,0.0,0.0,0.0,0.00046906009083613753,-0.00042161738383583724,-0.001648597652092576,0.9983429312705994,0.0,0.0,0.0,0.22422535717487335,-1.3199970722198486,3.313375234603882,-40.585235595703125,0
693.7549999999992,-0.00022974675812292844,3.3480504498584196e-05,-8.337231702171266e-05,0.0,0.0,0.0,0.0,0.003667101263999939,-0.0024553132243454456,0.0002904674911405891,0.9989553689956665,0.0,0.0,0.0,0.22835290431976318,-1.3396481275558472,3.3431413173675537,-41.33232879638672,0
703.6599999999999,-0.00027334748301655054,0.0001019548944896087,-0.00014354092127177864,0.0,0.0,0.0,0.0,-0.0023285557981580496,-0.0005371064180508256,0.0008948592003434896,1.0008807182312012,0.0,0.0,0.0,0.22844721376895905,-1.3421999216079712,3.3416123390197754,-41.34939956665039,0
713.5749999999989,-0.00019784265896305442,3.9530899812234566e-05,-0.00010279318667016923,0.0,0.0,0.0,0.0,-0.000855810649227351,0.002961433259770274,-0.005102960858494043,0.9978203177452087,0.0,0.0,0.0,0.22880913317203522,-1.3383125066757202,3.335998773574829,-41.41490936279297,0
723.4840000000004,-0.00025741555145941675,9.155461157206446e-05,-0.0001548241707496345,0.0,0.0,0.0,0.0,-0.0011761081404983997,0.0012109957169741392,0.003376194043084979,0.9986732602119446,0.0,0.0,0.0,0.22744083404541016,-1.3339872360229492,3.3329615592956543,-41.167240142822266,0
733.3989999999994,-0.00019091914873570204,4.295079270377755e-05,-0.00011160013673361391,0.0,0.0,0.0,0.0,0.0012290891027078032,-0.0009565524524077773,-0.0016348219942301512,1.0013031959533691,0.0,0.0,0.0,0.22842645645141602,-1.3283330202102661,3.331160545349121,-41.345645904541016,0
743.3029999999999,-0.00023543593124486506,0.00012219225754961371,-0.00016399120795540512,0.0,0.0,0.0,0.0,0.0014023900730535388,0.00029142643325030804,-0.0014206005726009607,1.0002812147140503,0.0,0.0,0.0,0.22726836800575256,-1.3294795751571655,3.3281466960906982,-41.136024475097656,0
753.2139999999999,-0.00019122139201499522,0.00010306171316187829,-0.00012030580546706915,0.0,0.0,0.0,0.0,-0.0024600778706371784,-0.0019275643862783909,-0.0011873218463733792,0.9974167943000793,0.0,0.0,0.0,0.22654204070568085,-1.3265430927276611,3.321401834487915,-41.00455856323242,0
763.1309999999994,-0.0002683212223928422,0.00013078056508675218,-0.00017167373152915388,0.0,0.0,0.0,0.0,-0.0031493918504565954,-0.005720025394111872,-0.003849106840789318,0.998921275138855,0.0,0.0,0.0,0.22578991949558258,-1.3217498064041138,3.3170416355133057,-40.86842346191406,0
773.0460000000003,-0.00020545432926155627,0.00010289336205460131,-0.00012606161180883646,0.0,0.0,0.0,0.0,0.0037190334405750036,-0.002922263229265809,-0.002468984806910157,0.9997643828392029,0.0,0.0,0.0,0.22449243068695068,-1.3142273426055908,3.332653760910034,-40.633575439453125,0
782.9509999999991,-0.00024887779727578163,0.00013970088912174106,-0.00021620708866976202,0.0,0.0,0.0,0.0,0.0016447252128273249,0.0026078850496560335,0.000473726075142622,1.0017417669296265,0.0,0.0,0.0,0.22322101891040802,-1.3153232336044312,3.3431549072265625,-40.403446197509766,0
792.8600000000006,-0.0001957606291398406,0.00010792279499582946,-0.00018280585936736315,0.0,0.0,0.0,0.0,2.1599904357572086e-05,-0.0012093497207388282,0.0031480465549975634,0.9988782405853271,0.0,0.0,0.0,0.22387278079986572,-1.3148990869522095,3.3259079456329346,-40.52141571044922,0
802.7690000000002,-0.00024048732302617282,0.00015425845049321651,-0.00026457197964191437,0.0,0.0,0.0,0.0,0.001890100073069334,0.0043593477457761765,-0.0017013075994327664,0.9994988441467285,0.0,0.0,0.0,0.2238631248474121,-1.3129907846450806,3.3204801082611084,-40.51966857910156,0
812.6869999999999,-0.00020913314074277878,0.00012658075138460845,-0.0002392924070591107,0.0,0.0,0.0,0.0,-3.738423765753396e-05,-0.0028547036927193403,-0.00021188870596233755,0.9990487694740295,0.0,0.0,0.0,0.2231612652540207,-1.3151344060897827,3.304380416870117,-40.39263153076172,0
822.6010000000006,-0.0002712160348892212,0.00015599920880049467,-0.0003178840852342546,0.0,0.0,0.0,0.0,0.0011547219473868608,-0.0008387357229366899,0.0013339950237423182,0.9960799217224121,0.0,0.0,0.0,0.22360019385814667,-1.3128020763397217,3.308579921722412,-40.47208023071289,0
832.512999999999,-0.0002455672947689891,0.00013912978465668857,-0.0002987018378917128,0.0,0.0,0.0,0.0,0.0012324898270890117,0.0016588402213528752,0.001541784149594605,0.9970980882644653,0.0,0.0,0.0,0.22426849603652954,-1.3142858743667603,3.3108999729156494,-40.59304428100586,0
842.414999999999,-0.0003394709201529622,0.00017565287998877466,-0.0003456832200754434,0.0,0.0,0.0,0.0,-4.10657339671161e-05,-0.0019443875644356012,0.0035762074403464794,1.0010839700698853,0.0,0.0,0.0,0.22375431656837463,-1.3148924112319946,3.30898118019104,-40.49997329711914,0
852.3269999999993,-0.0002769618295133114,0.0001334946573479101,-0.0003208237758371979,0.0,0.0,0.0,0.0,0.0015084728365764022,-0.0010130697628483176,0.0020827283151447773,0.999144434928894,0.0,0.0,0.0,0.22396749258041382,-1.30922269821167,3.3075075149536133,-40.53855895996094,0
862.2389999999996,-0.00036505991010926664,0.0001665563613642007,-0.0003812065115198493,0.0,0.0,0.0,0.0,0.0009040302247740328,0.002949858782812953,0.001776208053342998,1.0017831325531006,0.0,0.0,0.0,0.22451774775981903,-1.3060588836669922,3.3062117099761963,-40.638160705566406,0
872.1499999999996,-0.0002146124024875462,9.490161028224975e-05,-0.00032076379284262657,0.0,0.0,0.0,0.0,-0.0002876735816244036,0.0006831456557847559,-0.0006648231646977365,1.0005329847335815,0.0,0.0,0.0,0.2253626137971878,-1.3296345472335815,3.3378992080688477,-40.79108428955078,0
882.0550000000003,-0.0003111035912297666,0.00012092888209735975,-0.00036107818596065044,0.0,0.0,0.0,0.0,-0.002695716917514801,-0.0020542186684906483,0.0006810490158386528,1.000307321548462,0.0,0.0,0.0,0.22550058364868164,-1.3285155296325684,3.3300459384918213,-40.81605529785156,0
891.9699999999993,-0.0001624219148652628,4.442288263817318e-05,-0.0002970593050122261,0.0,0.0,0.0,0.0,2.098994627885986e-05,0.0020138511899858713,0.0012825558660551906,0.9985072612762451,0.0,0.0,0.0,0.22739794850349426,-1.343876600265503,3.372002124786377,-41.159481048583984,0
901.8799999999992,-0.00030608527595177293,4.4293643441051245e-05,-0.00028610904701054096,0.0,0.0,0.0,0.0,-0.0032017386984080076,-0.001788766705431044,0.00039821697282604873,1.000342845916748,0.0,0.0,0.0,0.22743064165115356,-1.3513606786727905,3.354247808456421,-41.16539764404297,0
911.8009999999995,-0.00022977867047302425,9.979438800655771e-06,-0.00023049912124406546,0.0,0.0,0.0,0.0,-0.0002669294481165707,-0.007959535345435143,0.006348727736622095,1.0008825063705444,0.0,0.0,0.0,0.2268647402524948,-1.3438869714736938,3.3568334579467773,-41.06296920776367,0
921.7089999999989,-0.00035694410325959325,-7.0693931775167584e-06,-0.0002436425565974787,0.0,0.0,0.0,0.0,-0.0008543513831682503,-0.0008177320705726743,-0.0037417481653392315,0.9995905756950378,0.0,0.0,0.0,0.2287413477897644,-1.3374465703964233,3.3684816360473633,-41.40263748168945,0
931.619999999999,-0.0002122375153703615,-5.763652370660566e-05,-0.0001454437879147008,0.0,0.0,0.0,0.0,-0.0022229806054383516,0.004351207986474037,0.00012334408529568464,0.9996291995048523,0.0,0.0,0.0,0.2277321070432663,-1.3473842144012451,3.405250072479248,-41.219966888427734,0
941.527,-0.0002549018245190382,5.105972377350554e-06,-0.00019407396030146629,0.0,0.0,0.0,0.0,0.00016656309890095145,-0.0011166826589033008,0.003180501516908407,0.9994373917579651,0.0,0.0,0.0,0.22764942049980164,-1.3472753763198853,3.389753818511963,-41.20499801635742,0
951.4380000000001,-0.0001986732822842896,-2.9789689506287687e-05,-0.00014259302406571805,0.0,0.0,0.0,0.0,-0.0006764977588318288,-0.0030853480566293,0.0015687710838392377,0.9983646869659424,0.0,0.0,0.0,0.22899200022220612,-1.3443430662155151,3.385890483856201,-41.44800567626953,0
961.3449999999993,-0.00024931211373768747,2.9553568310802802e-05,-0.00018519084551371634,0.0,0.0,0.0,0.0,0.0019095351453870535,0.0037248563021421432,0.0018419595435261726,0.9988051056861877,0.0,0.0,0.0,0.22900043427944183,-1.3427379131317139,3.3863279819488525,-41.44953536987305,0
971.2579999999998,-0.00022070770501159132,3.052314059459604e-05,-0.0001286939368583262,0.0,0.0,0.0,0.0,0.0004370948299765587,-0.0007032966241240501,0.0026965364813804626,1.0001484155654907,0.0,0.0,0.0,0.228575199842453,-1.3420186042785645,3.3729045391082764,-41.3725700378418,0
981.1689999999999,-0.00027139982557855546,7.78132671257481e-05,-0.0001896769244922325,0.0,0.0,0.0,0.0,0.0009989832760766149,-0.0033436426892876625,0.001315542496740818,1.0008516311645508,0.0,0.0,0.0,0.22918853163719177,-1.3341459035873413,3.37145733833313,-41.483577728271484,0
991.0789999999997,-0.00022764095047023147,4.666503082262352e-05,-0.00014419683429878205,0.0,0.0,0.0,0.0,0.0011931188637390733,0.00023819977650418878,0.0036458142567425966,0.9999048709869385,0.0,0.0,0.0,0.22914835810661316,-1.3327407836914062,3.376157283782959,-41.4763069152832,0
1000.9940000000006,-0.0002256590814795345,0.00014495087089017034,-0.00023041380336508155,0.0,0.0,0.0,0.0,-0.0003497772850096226,-0.002722107106819749,-0.0016532375011593103,1.001289963722229,0.0,0.0,0.0,0.23081104457378387,-1.3333038091659546,3.372231960296631,-41.77725601196289,0
1010.9120000000003,-0.0001909373386297375,0.00010971007577609271,-0.00019912388233933598,0.0,0.0,0.0,0.0,0.000625812157522887,-0.0007085790857672691,1.1722174349415582e-05,0.9989590644836426,0.0,0.0,0.0,0.2297704517841339,-1.3306150436401367,3.3711235523223877,-41.58890914916992,0
1020.8130000000001,-0.0002419241500319913,0.00014497719530481845,-0.0002705330844037235,0.0,0.0,0.0,0.0,-0.0037360726855695248,-0.0005346230464056134,0.00516221160069108,1.0004284381866455,0.0,0.0,0.0,0.22884629666805267,-1.3320173025131226,3.366668224334717,-41.421634674072266,0
1030.723,-0.00018475757678970695,0.00010353504330851138,-0.00023337503080256283,0.0,0.0,0.0,0.0,0.0032285030465573072,-0.0008128557819873095,0.0032491690944880247,1.0002498626708984,0.0,0.0,0.0,0.23009371757507324,-1.3264451026916504,3.3612923622131348,-41.647422790527344,0
1040.6370000000006,-0.0002785433316603303,0.00012227111437823623,-0.00026277147117070854,0.0,0.0,0.0,0.0,-0.004577492363750935,-0.0006424076855182648,-0.002984845545142889,0.9985337257385254,0.0,0.0,0.0,0.23017184436321259,-1.3299154043197632,3.3628551959991455,-41.661563873291016,0
1050.5509999999995,-0.00020113855134695768,9.227232658304274e-05,-0.00020855943148490041,0.0,0.0,0.0,0.0,0.0019432384287938476,-0.0001827527303248644,0.002091610338538885,0.9987717270851135,0.0,0.0,0.0,0.22891594469547272,-1.3176885843276978,3.3599984645843506,-41.434242248535156,0
1060.4609999999993,-0.00032587265013717115,0.00010208709863945842,-0.00020553931244648993,0.0,0.0,0.0,0.0,-0.0048002093099057674,-0.0021100444719195366,0.0009386934689246118,0.9987063407897949,0.0,0.0,0.0,0.2289196252822876,-1.3164163827896118,3.3570218086242676,-41.434906005859375,0
1070.3619999999992,-0.00022722377616446465,6.429046334233135e-05,-0.0001385824871249497,0.0,0.0,0.0,0.0,0.0008783076773397624,0.00032563743297941983,0.0031375065445899963,0.9990948438644409,0.0,0.0,0.0,0.22909477353096008,-1.3044122457504272,3.3578414916992188,-41.466609954833984,0
1080.2829999999994,-0.0002851011813618243,9.76717856246978e-05,-0.0001984268892556429,0.0,0.0,0.0,0.0,-0.003618495771661401,0.0006695432239212096,-0.005762491375207901,0.9997020363807678,0.0,0.0,0.0,0.22995273768901825,-1.3048683404922485,3.35025954246521,-41.62190246582031,0
1090.179,-0.00018356773944105953,2.7834981665364467e-05,-0.00014901446411386132,0.0,0.0,0.0,0.0,-0.00150094844866544,-0.0031123703811317682,0.000468088430352509,1.002215027809143,0.0,0.0,0.0,0.22851528227329254,-1.2983791828155518,3.3457791805267334,-41.36172103881836,0
1100.1080000000002,-0.00024156481958925724,6.957830191822723e-05,-0.0001966575946426019,0.0,0.0,0.0,0.0,0.0003511684772092849,2.6124216674361378e-05,0.002383263548836112,1.0002717971801758,0.0,0.0,0.0,0.22880814969539642,-1.297316551208496,3.3495872020721436,-41.414730072021484,0
1110.0079999999998,-0.00017983348516281694,1.648509714868851e-05,-0.00015742643154226243,0.0,0.0,0.0,0.0,-0.0012229966232553124,-0.0014406127156689763,0.0019588919822126627,0.9980241060256958,0.0,0.0,0.0,0.22982408106327057,-1.2978546619415283,3.3513383865356445,-41.59861373901367,0
1119.929,-0.00023979325487744063,5.913505083299242e-05,-0.00020017889619339257,0.0,0.0,0.0,0.0,0.0037015341222286224,0.0006344555295072496,0.004954309668391943,0.9996230006217957,0.0,0.0,0.0,0.23037762939929962,-1.2917836904525757,3.3540778160095215,-41.69881057739258,0
1129.821,-0.00018164340872317553,1.7252716133953072e-05,-0.00016212249465752393,0.0,0.0,0.0,0.0,0.0010487603722140193,-0.00033848348539322615,0.0027581211179494858,0.9996424913406372,0.0,0.0,0.0,0.2317405492067337,-1.3010932207107544,3.352142333984375,-41.94549560546875,0
1139.7389999999996,-0.00024448573822155595,6.060279702069238e-05,-0.00020358874462544918,0.0,0.0,0.0,0.0,0.000707023951690644,0.0008845347911119461,0.004686066415160894,1.0007768869400024,0.0,0.0,0.0,0.23148465156555176,-1.302001714706421,3.346508502960205,-41.8991813659668,0
1149.6530000000002,-0.000189958605915308,1.8687114788917825e-05,-0.0001661037385929376,0.0,0.0,0.0,0.0,-0.0029256579000502825,-0.0011653945548459888,-0.0010289745405316353,1.0014667510986328,0.0,0.0,0.0,0.2322564572095871,-1.298769474029541,3.3405749797821045,-42.03887939453125,0
1159.5609999999997,-0.00029865707620047033,3.939863381674513e-05,-0.0001674150989856571,0.0,0.0,0.0,0.0,-0.0010216854279860854,0.0023166725877672434,4.990602610632777e-05,1.0015798807144165,0.0,0.0,0.0,0.2319263368844986,-1.2945548295974731,3.3458077907562256,-41.97913360595703,0
1169.464,-0.0002227094810223207,-5.037663868279196e-06,-0.0001111344899982214,0.0,0.0,0.0,0.0,-0.00014706962974742055,-0.0021272862795740366,0.0005506871966645122,0.9979381561279297,0.0,0.0,0.0,0.23175048828125,-1.292047142982483,3.3409132957458496,-41.94729995727539,0
1179.3809999999994,-0.00029958784580230713,4.561480454867706e-05,-0.00012738151417579502,0.0,0.0,0.0,0.0,-5.4247688240138814e-05,-0.0018457411788403988,0.002695542061701417,0.9991050362586975,0.0,0.0,0.0,0.23083533346652985,-1.2903529405593872,3.336171865463257,-41.78165817260742,0
1189.2939999999999,-0.00020758973550982773,-1.170474752143491e-05,-6.871985533507541e-05,0.0,0.0,0.0,0.0,0.0015139025636017323,0.001492636976763606,-0.0011162717128172517,1.0004374980926514,0.0,0.0,0.0,0.23102331161499023,-1.291549801826477,3.332366704940796,-41.815677642822266,0
1199.205,-0.0002868630108423531,2.9913271646364592e-05,-8.641049498692155e-05,0.0,0.0,0.0,0.0,-0.002219684422016144,-0.0015411068452522159,0.004077979829162359,1.0008583068847656,0.0,0.0,0.0,0.23080749809741974,-1.2923057079315186,3.324500322341919,-41.776615142822266,0
1209.1080000000002,-0.00021880058920942247,-2.57765241258312e-05,-3.893080065608956e-05,0.0,0.0,0.0,0.0,0.0008393314783461392,0.002371207345277071,-0.00035952613689005375,1.0001623630523682,0.0,0.0,0.0,0.2308865487575531,-1.2844040393829346,3.320467233657837,-41.790924072265625,0
1219.0339999999997,-0.000241258239839226,5.306743332766928e-05,-9.911096276482567e-05,0.0,0.0,0.0,0.0,8.204477489925921e-05,-0.00041609432082623243,0.0009959699818864465,1.0000275373458862,0.0,0.0,0.0,0.22973214089870453,-1.2837800979614258,3.3043622970581055,-41.58197021484375,0
1228.9310000000005,-0.0001983807305805385,4.706054096459411e-05,-4.026397436973639e-05,0.0,0.0,0.0,0.0,-0.0023825536482036114,-0.00011790415010182187,0.00035129397292621434,0.9994859099388123,0.0,0.0,0.0,0.23065966367721558,-1.2765324115753174,3.307487726211548,-41.74985885620117,0
1238.8580000000002,-0.00029819877818226814,6.565700459759682e-05,-5.281473204377107e-05,0.0,0.0,0.0,0.0,0.0007577473297715187,-0.0006003122543916106,0.0009323966805823147,1.000230073928833,0.0,0.0,0.0,0.2309117615222931,-1.2710169553756714,3.3139519691467285,-41.79548645019531,0
1248.7559999999994,-0.00022773542150389403,2.37869935517665e-05,4.854181497648824e-06,0.0,0.0,0.0,0.0,0.0010598712833598256,0.0007038522162474692,0.004199047107249498,1.0007364749908447,0.0,0.0,0.0,0.23020415008068085,-1.2718255519866943,3.3091249465942383,-41.66740798950195,0
1258.673999999999,-0.00030378744122572243,6.601766654057428e-05,-1.5984673154889606e-05,0.0,0.0,0.0,0.0,-0.0028124551754444838,0.0011377678019925952,-0.000229076569667086,0.9979332089424133,0.0,0.0,0.0,0.23092374205589294,-1.2698681354522705,3.3010025024414062,-41.79765701293945,0
1268.5789999999997,-0.0002902323903981596,1.9735431123990566e-05,6.5789699874585494e-06,0.0,0.0,0.0,0.0,-0.0003496792051009834,6.678364297840744e-05,-0.001233244314789772,0.9960391521453857,0.0,0.0,0.0,0.23076502978801727,-1.2606046199798584,3.296027421951294,-41.76892852783203,0
1278.4940000000006,-0.00029782860656268895,9.196612518280745e-05,-8.41949149616994e-05,0.0,0.0,0.0,0.0,0.0012280496302992105,0.007745388895273209,-0.0007172112236730754,0.9987948536872864,0.0,0.0,0.0,0.22999638319015503,-1.2556246519088745,3.287795066833496,-41.62980270385742,0
1288.3960000000006,-0.00021263325470499694,4.3561678467085585e-05,-3.259871664340608e-05,0.0,0.0,0.0,0.0,0.0006949715316295624,0.0012735375203192234,-0.005087953060865402,1.0024601221084595,0.0,0.0,0.0,0.23071345686912537,-1.2545958757400513,3.2707817554473877,-41.75959396362305,0
1298.3189999999995,-0.00025369093054905534,8.911621262086555e-05,-0.00010763962200144306,0.0,0.0,0.0,0.0,0.00047585691208951175,0.0004368289664853364,0.0006409757770597935,0.9997978210449219,0.0,0.0,0.0,0.230182945728302,-1.2547314167022705,3.2543251514434814,-41.663570404052734,0
1308.2160000000003,-0.0001842246565502137,6.226474943105131e-05,-5.2266306738602e-05,0.0,0.0,0.0,0.0,-0.0008186418563127518,-0.001203272957354784,-0.00011491011537145823,0.9990187883377075,0.0,0.0,0.0,0.23002557456493378,-1.2491928339004517,3.2473509311676025,-41.63508605957031,0
1318.1309999999994,-0.00023437157506123185,0.00010268794721923769,-0.00012191884161438793,0.0,0.0,0.0,0.0,0.0009461749577894807,-0.0037224602419883013,0.0030735034961253405,1.0014411211013794,0.0,0.0,0.0,0.2293720692396164,-1.2429275512695312,3.2433266639709473,-41.51679992675781,0
1328.0390000000007,-0.00019147024431731552,9.141816553892568e-05,-7.549924339400604e-05,0.0,0.0,0.0,0.0,-0.0013482548529282212,0.004221235867589712,-0.0011983446311205626,1.0012178421020508,0.0,0.0,0.0,0.2298111468553543,-1.240883231163025,3.240351438522339,-41.596275329589844,0
1337.9599999999991,-0.00022263338905759156,0.00013985682744532824,-0.00016477282042615116,0.0,0.0,0.0,0.0,0.0005872594774700701,0.001965442905202508,-0.0035096730571240187,0.9998751878738403,0.0,0.0,0.0,0.2295314073562622,-1.2402098178863525,3.2306201457977295,-41.5456428527832,0
1347.860999999999,-0.00019501509086694568,0.0001128457734012045,-0.00013593680341728032,0.0,0.0,0.0,0.0,0.0006101250182837248,-0.001598990405909717,0.00046312951599247754,1.0002011060714722,0.0,0.0,0.0,0.228833869099617,-1.2424273490905762,3.2274746894836426,-41.41938781738281,0
1357.7729999999992,-0.00027340237284079194,0.00013009400572627783,-0.0001941078808158636,0.0,0.0,0.0,0.0,-0.00020579436386469752,0.002069891197606921,-0.001108204131014645,1.0016323328018188,0.0,0.0,0.0,0.22898629307746887,-1.2442797422409058,3.2315685749053955,-41.44697189331055,0
1367.6849999999995,-0.00021372822811827064,7.665350858587772e-05,-0.00016277328541036695,0.0,0.0,0.0,0.0,-0.0009691623272374272,-0.0003774512151721865,0.0010907286778092384,0.9998138546943665,0.0,0.0,0.0,0.22972963750362396,-1.2417340278625488,3.235654830932617,-41.581520080566406,0
1377.5990000000002,-0.00029098993400111794,0.00010566779383225366,-0.00021950239897705615,0.0,0.0,0.0,0.0,0.0009375048102810979,0.004570590797811747,-0.004752401728183031,0.9997478127479553,0.0,0.0,0.0,0.2301422506570816,-1.2394213676452637,3.2366034984588623,-41.65620422363281,0
1387.5030000000006,-0.00020834794850088656,1.1066047591157258e-05,-0.00019690662156790495,0.0,0.0,0.0,0.0,0.003378133988007903,-0.0034577406477183104,-0.002169599523767829,0.9989314079284668,0.0,0.0,0.0,0.2295474112033844,-1.2356528043746948,3.236924409866333,-41.54853439331055,0
1397.4189999999999,-0.0003240314545109868,4.6491390094161034e-05,-0.00019975655595771968,0.0,0.0,0.0,0.0,-0.000513133651111275,-0.00805637426674366,0.0037047951482236385,0.9987695217132568,0.0,0.0,0.0,0.22958017885684967,-1.2371858358383179,3.234903573989868,-41.554466247558594,0
1407.33,-0.0002387242711847648,-1.5364303180831484e-05,-0.00015081418678164482,0.0,0.0,0.0,0.0,-0.00029547742451541126,0.0026819566264748573,-0.0009113647392950952,0.9990957379341125,0.0,0.0,0.0,0.2304529994726181,-1.2366783618927002,3.2504587173461914,-41.71245193481445,0
1417.2369999999992,-0.0002892977208830416,4.992204048903659e-05,-0.00020988467440474778,0.0,0.0,0.0,0.0,0.000811491918284446,0.0014257356524467468,-0.001045374432578683,1.0006626844406128,0.0,0.0,0.0,0.22968828678131104,-1.2326802015304565,3.2556188106536865,-41.57403564453125,0
1427.1489999999994,-0.00017264710913877934,2.8052667403244413e-05,-0.00020549114560708404,0.0,0.0,0.0,0.0,0.002312401542440057,0.002398642711341381,-0.00021815538639202714,0.9998401999473572,0.0,0.0,0.0,0.229441836476326,-1.232255458831787,3.242326259613037,-41.52942657470703,0
1437.0589999999993,-0.000281289016129449,5.785873509012163e-05,-0.00021386754815466702,0.0,0.0,0.0,0.0,0.001305142417550087,-0.004828655160963535,0.0015170437982305884,1.0006012916564941,0.0,0.0,0.0,0.22965075075626373,-1.2317326068878174,3.2342910766601562,-41.56724166870117,0
1446.9740000000002,-0.00018379751418251544,5.620909360004589e-05,-0.00021090180962346494,0.0,0.0,0.0,0.0,-0.0014799573691561818,-0.001957016997039318,-0.00044813266140408814,1.000299334526062,0.0,0.0,0.0,0.22898098826408386,-1.2354427576065063,3.2358925342559814,-41.446014404296875,0
1456.8829999999998,-0.0002937249664682895,8.698859892319888e-05,-0.00021818230743519962,0.0,0.0,0.0,0.0,-0.0021245942916721106,0.001971384510397911,0.0004514316678978503,1.0010626316070557,0.0,0.0,0.0,0.22896242141723633,-1.2340729236602783,3.237776279449463,-41.442657470703125,0
1466.7939999999999,-0.0001747518399497494,6.211999425431713e-05,-0.0002209793747169897,0.0,0.0,0.0,0.0,0.00015289531438611448,-0.0013366860803216696,0.0010663204593583941,1.0005141496658325,0.0,0.0,0.0,0.22851581871509552,-1.2314941883087158,3.2326762676239014,-41.36181640625,0
1476.7070000000003,-0.00028491945704445243,9.603762009646744e-05,-0.00022738073312211782,0.0,0.0,0.0,0.0,4.6681936510140076e-05,-0.0016783610917627811,0.0022450436372309923,1.0000301599502563,0.0,0.0,0.0,0.2278173714876175,-1.2330554723739624,3.2317326068878174,-41.23539733886719,0
1486.619999999999,-0.00013409287203103304,4.233073559589684e-05,-0.00019855571736115962,0.0,0.0,0.0,0.0,-0.0036532001104205847,0.0020407340489327908,0.0005049984902143478,1.0000640153884888,0.0,0.0,0.0,0.22785666584968567,-1.2323743104934692,3.230652332305908,-41.24251174926758,0
1496.5239999999994,-0.00024340962409041822,7.704856398049742e-05,-0.00020224395848345011,0.0,0.0,0.0,0.0,-0.0027913597878068686,0.006039130501449108,-2.7254825454292586e-06,0.9989491105079651,0.0,0.0,0.0,0.22766777873039246,-1.2269545793533325,3.2260372638702393,-41.208316802978516,0
1506.4410000000007,-0.00020503398263826966,3.9678132452536374e-05,-0.00014980966807343066,0.0,0.0,0.0,0.0,-0.0023876952473074198,-0.00025932324933819473,0.002218004548922181,0.9996785521507263,0.0,0.0,0.0,0.22760635614395142,-1.22206449508667,3.2109375,-41.197200775146484,0
1516.3449999999993,-0.00031797547126188874,7.517945778090507e-05,-0.000150276260683313,0.0,0.0,0.0,0.0,-9.248790593119338e-05,0.0014742645435035229,-0.0007200685795396566,0.9993719458580017,0.0,0.0,0.0,0.22826188802719116,-1.2190426588058472,3.205371379852295,-41.31585693359375,0
1526.2610000000004,-0.00017473033221904188,2.71955559583148e-05,-0.00017551484052091837,0.0,0.0,0.0,0.0,-0.0015885105822235346,0.002826269716024399,-0.001330590690486133,0.9982709884643555,0.0,0.0,0.0,0.22719267010688782,-1.2196733951568604,3.198164701461792,-41.12232208251953,0
1536.1679999999997,-0.0002855817729141563,6.07028414378874e-05,-0.000180082832230255,0.0,0.0,0.0,0.0,-0.0011422282550483942,-0.0031854771077632904,-0.003589528612792492,0.9992091059684753,0.0,0.0,0.0,0.2266271859407425,-1.219550609588623,3.183349609375,-41.01997375488281,0
1546.0810000000001,-0.0002731686399783939,7.952479791129008e-05,-0.00016551993030589074,0.0,0.0,0.0,0.0,5.479905667016283e-05,-0.00393809424713254,0.0026966887526214123,1.001369833946228,0.0,0.0,0.0,0.22562333941459656,-1.20729660987854,3.181913137435913,-40.83827209472656,0
1555.9899999999998,-0.0003884958859998733,0.00011803484085248783,-0.00017032174218911678,0.0,0.0,0.0,0.0,-0.0011020397068932652,-0.0007147129508666694,-0.002394304145127535,0.9981064200401306,0.0,0.0,0.0,0.2267102748155594,-1.2052805423736572,3.184220790863037,-41.035011291503906,0
1565.8999999999996,-0.00019980217621196061,9.455671533942223e-05,-0.0001549286098452285,0.0,0.0,0.0,0.0,0.001673544873483479,-0.0019329565111547709,0.0028950495179742575,0.9987704753875732,0.0,0.0,0.0,0.22814500331878662,-1.2221710681915283,3.215157985687256,-41.294700622558594,0
1575.8099999999995,-0.0003143661597277969,0.00013471997226588428,-0.00016057128959801048,0.0,0.0,0.0,0.0,-0.0013411062536761165,0.004054202698171139,-0.0007344415062107146,1.0002140998840332,0.0,0.0,0.0,0.2286611646413803,-1.2205240726470947,3.2109158039093018,-41.388126373291016,0
1585.7219999999998,-0.00023065778077580035,7.366415957221761e-05,-0.00011286636436125264,0.0,0.0,0.0,0.0,-0.0010926700197160244,0.0025276567321270704,0.00196856283582747,0.9997914433479309,0.0,0.0,0.0,0.2290947437286377,-1.2189983129501343,3.206979751586914,-41.46660232543945,0
1595.6319999999996,-0.00034740750561468303,0.00011146681208629161,-0.0001157495062216185,0.0,0.0,0.0,0.0,-0.00048755656462162733,0.0011643703328445554,0.0022099055349826813,0.9991379380226135,0.0,0.0,0.0,0.22928225994110107,-1.2114574909210205,3.202523946762085,-41.500545501708984,0
1605.5460000000003,-0.00024358836526516825,4.29786232416518e-05,-9.326752478955314e-05,0.0,0.0,0.0,0.0,-0.0010047347750514746,-0.002766459248960018,-0.0003126796509604901,1.0003173351287842,0.0,0.0,0.0,0.22971923649311066,-1.2076668739318848,3.1882264614105225,-41.57963562011719,0
1615.455,-0.0003593007568269968,7.877419557189569e-05,-9.563855564920232e-05,0.0,0.0,0.0,0.0,-0.0025048768147826195,-0.003195173107087612,0.0031334753148257732,1.0000633001327515,0.0,0.0,0.0,0.23004083335399628,-1.196487307548523,3.2024829387664795,-41.637847900390625,0
1625.369999999999,-0.0002803156094159931,7.164978160290048e-05,-0.00010731792281148955,0.0,0.0,0.0,0.0,-0.0030566633213311434,0.002051269169896841,9.947708167601377e-05,0.9986403584480286,0.0,0.0,0.0,0.2298498898744583,-1.191023588180542,3.2114081382751465,-41.60329055786133,0
1635.277,-0.00039587722858414054,0.00010984794789692387,-0.00011106611782452092,0.0,0.0,0.0,0.0,0.000877387064974755,0.004010951612144709,-0.0012610859703272581,0.9993155002593994,0.0,0.0,0.0,0.229466512799263,-1.1869021654129028,3.204132080078125,-41.533897399902344,0
1645.1890000000003,-0.00022286732564680278,8.331738354172558e-05,-0.00016593806503806263,0.0,0.0,0.0,0.0,0.0017493059858679771,0.00019714629161171615,0.0026967923622578382,1.0002026557922363,0.0,0.0,0.0,0.22841966152191162,-1.1864773035049438,3.1993350982666016,-41.34441375732422,0
1655.0990000000002,-0.00033572473330423236,0.0001237934484379366,-0.00017611194925848395,0.0,0.0,0.0,0.0,3.419435233809054e-05,-0.0027203222271054983,-0.0005631906096823514,0.9970463514328003,0.0,0.0,0.0,0.23058229684829712,-1.1884465217590332,3.196030855178833,-41.73585891723633,0
1665.012999999999,-0.00016329197387676686,3.9636594010517e-05,-0.00020581857825163752,0.0,0.0,0.0,0.0,-0.002365490887314081,-0.001396264648064971,0.003828977467492223,0.9975609183311462,0.0,0.0,0.0,0.23058277368545532,-1.188764214515686,3.196443796157837,-41.735939025878906,0
1674.923999999999,-0.0002735438756644726,7.88933175499551e-05,-0.00022111575526650995,0.0,0.0,0.0,0.0,-0.00013658736133947968,-0.006073296070098877,-0.0006598130566999316,0.9977899789810181,0.0,0.0,0.0,0.2309182584285736,-1.1807843446731567,3.1973578929901123,-41.796661376953125,0
1684.8330000000005,-0.00016653575585223734,2.9465269108186476e-05,-0.00023828393022995442,0.0,0.0,0.0,0.0,-0.0023869227152317762,-0.0006049185758456588,0.0022024239879101515,0.9981225728988647,0.0,0.0,0.0,0.23050221800804138,-1.1740883588790894,3.209927797317505,-41.72136306762695,0
1694.741,-0.0002792445011436939,6.747675070073456e-05,-0.0002586840419098735,0.0,0.0,0.0,0.0,-0.0003052790998481214,0.0029450610745698214,0.0020940310787409544,0.9999070167541504,0.0,0.0,0.0,0.23118874430656433,-1.169303059577942,3.2131049633026123,-41.845619201660156,0
1704.6540000000005,-0.00012849070481024683,2.1298321371432394e-05,-0.00022595874906983227,0.0,0.0,0.0,0.0,-0.0025600434746593237,0.0020902734249830246,-0.0005375381442718208,0.9998435378074646,0.0,0.0,0.0,0.2315773069858551,-1.1794061660766602,3.239377021789551,-41.91595458984375,0
1714.5640000000003,-0.000237870350247249,5.702911948901601e-05,-0.0002445061691105366,0.0,0.0,0.0,0.0,-0.0008186083869077265,-0.0027163256891071796,-0.002147132297977805,0.9994949102401733,0.0,0.0,0.0,0.23132780194282532,-1.1706194877624512,3.2230474948883057,-41.87078857421875,0
1724.4799999999996,-0.00017994943482335657,3.4321423299843445e-05,-0.00025440589524805546,0.0,0.0,0.0,0.0,-0.0013504020171239972,-0.002040162915363908,0.0007724128663539886,0.999613881111145,0.0,0.0,0.0,0.22984567284584045,-1.163486361503601,3.225224494934082,-41.60252380371094,0
1734.3919999999998,-0.00010010074765887111,-3.639630813268013e-05,-0.0002286691014887765,0.0,0.0,0.0,0.0,0.0024637142196297646,0.005414568819105625,0.002700387267395854,0.9988166689872742,0.0,0.0,0.0,0.23063330352306366,-1.1542657613754272,3.2292797565460205,-41.745086669921875,0
1744.304,-0.00016703664732631296,3.215469041606411e-05,-0.00027280556969344616,0.0,0.0,0.0,0.0,0.0005879352684132755,-0.00487492186948657,0.002740241354331374,0.9975249171257019,0.0,0.0,0.0,0.23201438784599304,-1.1586207151412964,3.215496778488159,-41.99506759643555,0
1754.2150000000001,-0.00010530732106417418,-1.5894202078925446e-05,-0.00024796021170914173,0.0,0.0,0.0,0.0,-0.00021950207883492112,0.0014492961345240474,-0.0011455880012363195,0.999355137348175,0.0,0.0,0.0,0.23183603584766388,-1.1557170152664185,3.2120988368988037,-41.96278762817383,0
1764.1190000000006,-0.00017759267939254642,4.421982521307655e-05,-0.0002943662111647427,0.0,0.0,0.0,0.0,-9.266343113267794e-05,-0.0022398342844098806,-0.00041856541065499187,0.9988060593605042,0.0,0.0,0.0,0.23203696310520172,-1.1609967947006226,3.2055747509002686,-41.9991569519043,0
1774.0380000000005,-0.00010141731763724238,1.4824926438450348e-05,-0.00025512801948934793,0.0,0.0,0.0,0.0,0.0003001461154781282,0.0012540543684735894,-0.0042991070076823235,0.9993236660957336,0.0,0.0,0.0,0.23137016594409943,-1.15492844581604,3.2109642028808594,-41.87845993041992,0
1783.9529999999995,-0.00018741503299679607,5.786276960861869e-05,-0.0002993177040480077,0.0,0.0,0.0,0.0,0.003449092386290431,0.0034259750973433256,0.0010435017757117748,0.9985816478729248,0.0,0.0,0.0,0.23087891936302185,-1.15004301071167,3.2086949348449707,-41.78954315185547,0
1793.860999999999,-0.00010418789315735921,1.8329777958570048e-05,-0.0002586307527963072,0.0,0.0,0.0,0.0,-0.0009594308212399483,-0.0004550793382804841,-0.0006489699590019882,0.9986000061035156,0.0,0.0,0.0,0.22978809475898743,-1.1513820886611938,3.1968252658843994,-41.592098236083984,0
1803.771999999999,-0.00019958338816650212,5.699440953321755e-05,-0.00029589858604595065,0.0,0.0,0.0,0.0,0.0027867902535945177,0.004176371265202761,-0.0031398192513734102,1.0004806518554688,0.0,0.0,0.0,0.23028536140918732,-1.152220368385315,3.1862895488739014,-41.68211364746094,0
1813.6820000000007,-0.00011739855835912749,5.0923630624311045e-05,-0.000236713036429137,0.0,0.0,0.0,0.0,-0.00020187073096167296,-0.0058863903395831585,-0.0005878843949176371,1.000566005706787,0.0,0.0,0.0,0.22971570491790771,-1.1531667709350586,3.194232225418091,-41.57899856567383,0
1823.607,-0.000246273324592039,7.197663217084482e-05,-0.00024419312831014395,0.0,0.0,0.0,0.0,0.000168685321114026,0.0013856899458914995,-0.0006717205396853387,1.0000568628311157,0.0,0.0,0.0,0.22893968224525452,-1.142811894416809,3.197377920150757,-41.43853759765625,0
1833.503999999999,-0.0001479852944612503,5.039447205490433e-05,-0.00017731005209498107,0.0,0.0,0.0,0.0,0.0024557108990848064,0.0021442302968353033,-0.0011404436081647873,0.9993718266487122,0.0,0.0,0.0,0.22827795147895813,-1.1405640840530396,3.1880125999450684,-41.318763732910156,0
1843.4259999999995,-0.00021943685715086758,0.00010036805178970098,-0.00022798977443017066,0.0,0.0,0.0,0.0,-0.0002983937447424978,0.0001515528274467215,0.0011861969251185656,1.0003833770751953,0.0,0.0,0.0,0.22963100671768188,-1.1449450254440308,3.186732530593872,-41.56366729736328,0
1853.324999999999,-0.0001201666091219522,5.06752185174264e-05,-0.00017606784240342677,0.0,0.0,0.0,0.0,-0.0023189536295831203,-0.001721673528663814,-0.0008283776114694774,0.9999487996101379,0.0,0.0,0.0,0.22966034710407257,-1.147394061088562,3.1823296546936035,-41.56897735595703,0
1863.2399999999998,-0.00023964904539752752,7.202364213299006e-05,-0.0001867396495072171,0.0,0.0,0.0,0.0,-0.00281330244615674,-0.0022047727834433317,-0.00047773116966709495,1.0002506971359253,0.0,0.0,0.0,0.23079007863998413,-1.1474539041519165,3.184542655944824,-41.773460388183594,0
1873.1530000000002,-0.0001266037143068388,-2.3381615392281674e-05,-0.00014868097787257284,0.0,0.0,0.0,0.0,-0.00241970201022923,0.002588671864941716,0.0024316448252648115,0.9985536932945251,0.0,0.0,0.0,0.2321544587612152,-1.16494882106781,3.221182107925415,-42.02042007446289,0
1883.062,-0.00016949290875345469,5.8860219724010676e-05,-0.00020678220607805997,0.0,0.0,0.0,0.0,-0.0008867244469001889,-0.0029164731968194246,-0.004191945772618055,1.0003012418746948,0.0,0.0,0.0,0.23204925656318665,-1.162474513053894,3.217238664627075,-42.00137710571289,0
1892.9619999999995,-8.725937368581071e-05,5.840401627210667e-06,-0.00016569167200941592,0.0,0.0,0.0,0.0,0.0007527484558522701,0.0027532412204891443,-0.0026222560554742813,0.9989263415336609,0.0,0.0,0.0,0.23050245642662048,-1.1590828895568848,3.210885524749756,-41.72140121459961,0
1902.8850000000002,-0.00015330295718740672,5.583188612945378e-05,-0.00022021509357728064,0.0,0.0,0.0,0.0,0.001830413588322699,0.0018647699616849422,0.000697989366017282,0.9995300769805908,0.0,0.0,0.0,0.2304500937461853,-1.158539056777954,3.2085647583007812,-41.71192932128906,0
1912.7890000000007,-3.7685345887439325e-05,-8.626727321825456e-06,-0.00016992918972391635,0.0,0.0,0.0,0.0,-0.00042345465044490993,-0.0018821851117536426,-0.0016525498358532786,0.9997231960296631,0.0,0.0,0.0,0.2298716902732849,-1.1681149005889893,3.191326856613159,-41.607234954833984,0
1922.7039999999997,-6.321658293018118e-05,9.374516957905143e-05,-0.00022869517852086574,0.0,0.0,0.0,0.0,-0.0003714204940479249,0.0042104050517082214,-0.0004033436707686633,0.9997072815895081,0.0,0.0,0.0,0.22934490442276,-1.1572864055633545,3.185546875,-41.51188278198242,0
1932.6129999999994,-2.6481970053282566e-05,7.049330451991409e-05,-0.00020291563123464584,0.0,0.0,0.0,0.0,-0.0010425085201859474,0.0019165753619745374,0.0005602570599876344,0.998637318611145,0.0,0.0,0.0,0.23031815886497498,-1.152898907661438,3.171765089035034,-41.688045501708984,0
1942.5300000000007,-0.0001275241666007787,0.00010085723624797538,-0.0002261734480271116,0.0,0.0,0.0,0.0,0.000981230172328651,0.0016031598206609488,-0.0025811390951275826,1.000627040863037,0.0,0.0,0.0,0.22268420457839966,-1.152039885520935,3.16369891166687,-40.3062858581543,0
1952.437,-3.0324983526952565e-05,3.815421951003373e-05,-0.00018044114403892308,0.0,0.0,0.0,0.0,0.0004416961455717683,-0.0006948753143660724,0.002943884814158082,0.9996784925460815,0.0,0.0,0.0,0.22228199243545532,-1.153027892112732,3.151538848876953,-40.233482360839844,0
1962.3549999999996,-0.00013168361329007894,6.541807670146227e-05,-0.00020110397599637508,0.0,0.0,0.0,0.0,-0.0005030320025980473,-0.0029299180023372173,-0.0012587063247337937,0.998985767364502,0.0,0.0,0.0,0.22299574315547943,-1.1505271196365356,3.1486704349517822,-40.3626708984375,0
1972.2530000000006,-8.25016904855147e-05,3.332116830279119e-05,-0.00016483191575389355,0.0,0.0,0.0,0.0,0.0009553371928632259,-0.005315527785569429,0.0007281588041223586,0.9992035031318665,0.0,0.0,0.0,0.22226274013519287,-1.151220679283142,3.146028518676758,-40.22999954223633,0
1982.1710000000003,-0.00016502372454851866,7.528964488301426e-05,-0.00020254695846233517,0.0,0.0,0.0,0.0,-0.0005031753098592162,-0.000913553754799068,0.003667503362521529,0.9992465376853943,0.0,0.0,0.0,0.21425896883010864,-1.1470775604248047,3.1555395126342773,-38.78129577636719,0
1992.0779999999995,-0.00011529303446877748,4.169556268607266e-05,-0.00016525124374311417,0.0,0.0,0.0,0.0,0.001371993450447917,-0.0010773618705570698,0.0024610713589936495,0.9999710917472839,0.0,0.0,0.0,0.2144569307565689,-1.1461007595062256,3.152067184448242,-38.81713104248047,0
2001.985999999999,-0.00018735503545030951,8.922875713324174e-05,-0.00021597785234916955,0.0,0.0,0.0,0.0,-0.004302067216485739,0.0010071683209389448,0.0004510855069383979,0.9986871480941772,0.0,0.0,0.0,0.21358639001846313,-1.1403260231018066,3.152590274810791,-38.65956115722656,0
2011.8909999999996,-0.00018510327208787203,6.634101737290621e-05,-0.00019967206753790379,0.0,0.0,0.0,0.0,0.000766608864068985,-1.6466838133055717e-05,-0.0009719441877678037,0.9981751441955566,0.0,0.0,0.0,0.2132623940706253,-1.1270785331726074,3.1528263092041016,-38.600921630859375,0
2021.8140000000003,-0.00021835208463016897,0.00013277106336317956,-0.0002936192031484097,0.0,0.0,0.0,0.0,-0.0022250565234571695,-0.0033322523813694715,-0.0015583025524392724,0.9998553991317749,0.0,0.0,0.0,0.21114173531532288,-1.1278083324432373,3.1528899669647217,-38.21707534790039,0
2031.7170000000006,-0.00015682420053053647,0.0001303148310398683,-0.00023847237753216177,0.0,0.0,0.0,0.0,-0.0003081214090343565,0.0011911879992112517,-0.0019363308092579246,1.00053071975708,0.0,0.0,0.0,0.211201474070549,-1.1224839687347412,3.157068967819214,-38.22788619995117,0
2041.637999999999,-0.0002485821896698326,0.00016752618830651045,-0.00028739403933286667,0.0,0.0,0.0,0.0,-0.0015137577429413795,0.002181729767471552,-0.004637741483747959,1.0013986825942993,0.0,0.0,0.0,0.21098488569259644,-1.115945816040039,3.163295269012451,-38.18868637084961,0
2051.5380000000005,-0.00020663306349888444,0.00016643453272990882,-0.0002436636423226446,0.0,0.0,0.0,0.0,0.00023092434275895357,0.004291223362088203,-0.0005509385955519974,0.9998784065246582,0.0,0.0,0.0,0.2099100798368454,-1.1147397756576538,3.1571457386016846,-37.994140625,0
2061.4570000000003,-0.00031795515678822994,0.00021210963313933462,-0.00025253056082874537,0.0,0.0,0.0,0.0,-0.0010404239874333143,-0.0011275593424215913,0.0018347001168876886,0.9978647828102112,0.0,0.0,0.0,0.2094690352678299,-1.1100724935531616,3.1534836292266846,-37.914310455322266,0
2071.357,-0.0004037072940263897,0.00023617797705810517,-0.00032477141940034926,0.0,0.0,0.0,0.0,0.003470810130238533,0.004389443900436163,-0.00032709710649214685,1.0007233619689941,0.0,0.0,0.0,0.20891043543815613,-1.112786889076233,3.1421468257904053,-37.813209533691406,0
2081.2780000000002,-0.0005215003620833158,0.00028429972007870674,-0.0003394693194422871,0.0,0.0,0.0,0.0,0.0026158043183386326,-0.0022263741120696068,0.002145415870472789,0.9999523758888245,0.0,0.0,0.0,0.20833900570869446,-1.1160550117492676,3.129591464996338,-37.709774017333984,0
2091.188,-0.0005689847748726606,0.00033832344342954457,-0.0004329754156060517,0.0,0.0,0.0,0.0,-0.003010366577655077,0.002590164542198181,-0.003191855503246188,1.0007338523864746,0.0,0.0,0.0,0.20860406756401062,-1.117928147315979,3.1222784519195557,-37.75775146484375,0
