timestamp,stateEstimate.x,stateEstimate.y,stateEstimate.z,controller.cmd_thrust,controller.cmd_roll,controller.cmd_pitch,controller.cmd_yaw,controller.r_roll,controller.r_pitch,controller.r_yaw,controller.accelz,controller.actuatorThrust,controller.roll,controller.pitch,controller.yaw,controller.rollRate,controller.pitchRate,controller.yawRate,controller.ctr_yaw
0.0,-0.01753348857164383,-0.004000501241534948,-0.00023715753923170269,0.0,0.0,0.0,0.0,-0.0010578845394775271,-0.0014279927127063274,0.0003513533156365156,0.9992859959602356,0.0,0.0,0.0,2.6505916118621826,-3.316575765609741,5.418036937713623,-479.76239013671875,0
9.911000000000058,-0.01751401461660862,-0.003963385242968798,-0.00023190640786197037,0.0,0.0,0.0,0.0,-7.901144999777898e-05,-0.0016599881928414106,0.001101314090192318,1.0007826089859009,0.0,0.0,0.0,2.6539852619171143,-3.309343099594116,5.423541069030762,-480.3766174316406,0
19.827000000001135,-0.017562931403517723,-0.003962874878197908,-0.00025513628497719765,0.0,0.0,0.0,0.0,-0.0012589358957484365,0.002176587702706456,-0.003987966105341911,0.9988025426864624,0.0,0.0,0.0,2.6529603004455566,-3.2998552322387695,5.4251861572265625,-480.19110107421875,0
29.722999999999956,-0.017509635537862778,-0.003935523331165314,-0.00023651125957258046,0.0,0.0,0.0,0.0,-0.002883513458073139,-0.001718047889880836,0.0014662351459264755,0.9993412494659424,0.0,0.0,0.0,2.649049997329712,-3.29654860496521,5.417068958282471,-479.4833068847656,0
39.64500000000044,-0.017560632899403572,-0.003943196963518858,-0.00025926073431037366,0.0,0.0,0.0,0.0,-0.003150423290207982,-0.0013056639581918716,0.0024632152635604143,0.9997576475143433,0.0,0.0,0.0,2.64548397064209,-3.28664231300354,5.408660888671875,-478.8378601074219,0
49.54600000000028,-0.01751280017197132,-0.003929570782929659,-0.0002534558589104563,0.0,0.0,0.0,0.0,0.0003153672150801867,-0.002849270822480321,0.0032698311842978,0.9994696378707886,0.0,0.0,0.0,2.6490161418914795,-3.2909984588623047,5.417048454284668,-479.47723388671875,0
59.470000000001164,-0.01757035404443741,-0.00394078902900219,-0.00026900545344688,0.0,0.0,0.0,0.0,-0.0007711134385317564,-0.0002512882638256997,0.002743484452366829,0.9997055530548096,0.0,0.0,0.0,2.646873712539673,-3.2776689529418945,5.4193902015686035,-479.0893859863281,0
69.3680000000004,-0.017533957958221436,-0.003931619692593813,-0.00027450895868241787,0.0,0.0,0.0,0.0,0.002281457418575883,-0.00023339939070865512,-0.002478671260178089,0.9973626732826233,0.0,0.0,0.0,2.658519744873047,-3.2779700756073,5.420952320098877,-481.19732666015625,0
79.28499999999985,-0.017615584656596184,-0.0039334832690656185,-0.0002559576532803476,0.0,0.0,0.0,0.0,0.001145915244705975,-0.0033713597804307938,9.074986883206293e-05,0.999160647392273,0.0,0.0,0.0,2.656247138977051,-3.2819881439208984,5.411038398742676,-480.7860107421875,0
89.19000000000051,-0.01753365248441696,-0.003928669728338718,-0.0002320343628525734,0.0,0.0,0.0,0.0,0.004466341342777014,-0.000354804506059736,-0.002836249303072691,0.9971278309822083,0.0,0.0,0.0,2.6530027389526367,-3.281499147415161,5.4112629890441895,-480.19879150390625,0
99.1140000000014,-0.01761567033827305,-0.003948783501982689,-0.00022167482529766858,0.0,0.0,0.0,0.0,0.00010685862798709422,0.00398251274600625,-0.0015762773109599948,0.9977784752845764,0.0,0.0,0.0,2.6495680809020996,-3.277345657348633,5.4068121910095215,-479.57708740234375,0
109.01300000000083,-0.017572687938809395,-0.003903947537764907,-0.00019741232972592115,0.0,0.0,0.0,0.0,0.0017386232502758503,-1.887852522486355e-05,-0.0008837378700263798,1.000138282775879,0.0,0.0,0.0,2.658998966217041,-3.280747175216675,5.407556056976318,-481.2840576171875,0
118.93000000000029,-0.017632916569709778,-0.003846528008580208,-0.0002443894627504051,0.0,0.0,0.0,0.0,-0.00013090329593978822,-0.0048756166361272335,0.0009799916297197342,1.001085638999939,0.0,0.0,0.0,2.6539454460144043,-3.2676305770874023,5.398419380187988,-480.3694152832031,0
128.84100000000035,-0.01754671148955822,-0.0038684974424540997,-0.00021411564375739545,0.0,0.0,0.0,0.0,-0.0014272901462391019,5.29790049768053e-05,-0.00036854841164313257,1.0013645887374878,0.0,0.0,0.0,2.6621575355529785,-3.27351713180542,5.411210536956787,-481.8558044433594,0
138.7480000000014,-0.017633894458413124,-0.003854794893413782,-0.0002491808554623276,0.0,0.0,0.0,0.0,0.0010854387655854225,0.0005024903221055865,-0.0052105034701526165,1.002020239830017,0.0,0.0,0.0,2.657508611679077,-3.264263153076172,5.404273509979248,-481.01434326171875,0
148.65700000000106,-0.017508920282125473,-0.003921911120414734,-0.00022470791009254754,0.0,0.0,0.0,0.0,-1.5774357962072827e-05,-0.0026663707103580236,0.0023031113669276237,0.9997749924659729,0.0,0.0,0.0,2.666654348373413,-3.2791709899902344,5.422818183898926,-482.6697692871094,0
158.57700000000114,-0.017578568309545517,-0.0038662811275571585,-0.00024552218383178115,0.0,0.0,0.0,0.0,0.003861243836581707,0.004219395574182272,-0.00038772335392422974,1.0002939701080322,0.0,0.0,0.0,2.6602423191070557,-3.2727653980255127,5.416263580322266,-481.5091552734375,0
168.47900000000118,-0.017507407814264297,-0.0039029247127473354,-0.00023257933207787573,0.0,0.0,0.0,0.0,0.002775379689410329,0.0011491511249914765,-0.002133146394044161,1.0014547109603882,0.0,0.0,0.0,2.6602423191070557,-3.2727653980255127,5.416263580322266,-481.5091552734375,0
178.39199999999983,-0.017572861164808273,-0.003815180156379938,-0.00023748561216052622,0.0,0.0,0.0,0.0,0.000416429276810959,-0.00770159624516964,0.00022605148842558265,1.0005658864974976,0.0,0.0,0.0,2.6553733348846436,-3.2721402645111084,5.410702705383301,-480.62786865234375,0
188.30299999999988,-0.017486102879047394,-0.003873118432238698,-0.00022617133799940348,0.0,0.0,0.0,0.0,-0.0004915529279969633,0.0035078965593129396,0.002473239554092288,0.9994523525238037,0.0,0.0,0.0,2.6553733348846436,-3.2721402645111084,5.410702705383301,-480.62786865234375,0
198.22400000000016,-0.01760232262313366,-0.00392522756010294,-0.00018787190492730588,0.0,0.0,0.0,0.0,0.001446459093131125,0.004477375186979771,0.0009807860478758812,0.9990822076797485,0.0,0.0,0.0,2.652824878692627,-3.2693402767181396,5.416287422180176,-480.1665954589844,0
208.1280000000006,-0.0175262950360775,-0.003935004584491253,-0.00015840923879295588,0.0,0.0,0.0,0.0,-0.0017600537976250052,-0.0015213447622954845,0.00012689009599853307,1.000597596168518,0.0,0.0,0.0,2.6506123542785645,-3.264828681945801,5.400725364685059,-479.7661437988281,0
218.03600000000006,-0.017594629898667336,-0.003950232639908791,-0.0001440234627807513,0.0,0.0,0.0,0.0,0.0031785364262759686,0.003766644513234496,-0.003208431415259838,0.9999557733535767,0.0,0.0,0.0,2.647052764892578,-3.2644965648651123,5.391549587249756,-479.121826171875,0
227.94900000000052,-0.01750887930393219,-0.004024610389024019,-0.00014198091230355203,0.0,0.0,0.0,0.0,-0.0008062392589636147,0.004143275320529938,-0.002424690406769514,0.9979272484779358,0.0,0.0,0.0,2.654662609100342,-3.285024642944336,5.399134159088135,-480.4992370605469,0
237.85699999999997,-0.017574956640601158,-0.004041141830384731,-0.00012430224160198122,0.0,0.0,0.0,0.0,0.0018841233104467392,0.0031488966196775436,0.0001832571579143405,0.9977656602859497,0.0,0.0,0.0,2.651855230331421,-3.2863879203796387,5.393677711486816,-479.9910888671875,0
247.77200000000084,-0.017461132258176804,-0.004073433578014374,-8.065884321695194e-05,0.0,0.0,0.0,0.0,0.0009317660005763173,0.0025664118584245443,0.0004693363734986633,1.0002391338348389,0.0,0.0,0.0,2.6579596996307373,-3.2950923442840576,5.4026055335998535,-481.0959777832031,0
257.6850000000013,-0.01751847192645073,-0.004079997539520264,-6.571463745785877e-05,0.0,0.0,0.0,0.0,0.0002602980239316821,0.0028019207529723644,0.0009521903120912611,0.9995639324188232,0.0,0.0,0.0,2.6551332473754883,-3.2921295166015625,5.389233589172363,-480.5843811035156,0
267.59000000000015,-0.017510201781988144,-0.004095084965229034,-6.91865207045339e-05,0.0,0.0,0.0,0.0,-0.0017692282563075423,-0.0018807186279445887,0.0011066170409321785,0.9999857544898987,0.0,0.0,0.0,2.653749942779541,-3.292346239089966,5.383152961730957,-480.333984375,0
277.5020000000004,-0.01755194365978241,-0.004085424356162548,-6.505413330160081e-05,0.0,0.0,0.0,0.0,0.0012128580128774047,0.0017984550213441253,-0.0006041388842277229,1.0004518032073975,0.0,0.0,0.0,2.6510891914367676,-3.2840821743011475,5.374542713165283,-479.8524169921875,0
287.4150000000009,-0.017490405589342117,-0.0040761688724160194,-2.9264190743560903e-05,0.0,0.0,0.0,0.0,-0.0024946851190179586,0.0037076426669955254,-0.0037872823886573315,0.9989992380142212,0.0,0.0,0.0,2.663142681121826,-3.2839531898498535,5.377037048339844,-482.0341491699219,0
297.32900000000154,-0.017461059615015984,-0.003976650070399046,-5.6353426771238446e-05,0.0,0.0,0.0,0.0,-0.0005242053302936256,0.005461503751575947,-0.002061204519122839,0.9980582594871521,0.0,0.0,0.0,2.6589488983154297,-3.2781853675842285,5.366767883300781,-481.2750244140625,0
307.2340000000004,-0.017494283616542816,-0.003958711866289377,-6.744880374753848e-05,0.0,0.0,0.0,0.0,-0.0012556117726489902,-0.005875421222299337,0.0024010147899389267,0.9983747005462646,0.0,0.0,0.0,2.6560146808624268,-3.271404266357422,5.363356113433838,-480.74395751953125,0
317.15500000000065,-0.017500923946499825,-0.00390875618904829,-9.052034874912351e-05,0.0,0.0,0.0,0.0,4.4184012949699536e-05,0.0009143819333985448,-0.001078861067071557,0.9981426000595093,0.0,0.0,0.0,2.6454665660858154,-3.2626163959503174,5.366677284240723,-478.834716796875,0
327.0570000000007,-0.017504794523119926,-0.003885539248585701,-9.227843111148104e-05,0.0,0.0,0.0,0.0,0.004133274778723717,-0.0017661532619968057,-0.0021518461871892214,0.9990549683570862,0.0,0.0,0.0,2.6523194313049316,-3.266035318374634,5.3751139640808105,-480.0751037597656,0
336.96800000000076,-0.017550211399793625,-0.003910008352249861,-0.0001256704708794132,0.0,0.0,0.0,0.0,2.1778065274702385e-05,-0.002444645157083869,-0.0014829427236691117,1.0002155303955078,0.0,0.0,0.0,2.6490752696990967,-3.263141393661499,5.36965274810791,-479.4879150390625,0
346.8850000000002,-0.01752994954586029,-0.003901991993188858,-0.0001247874170076102,0.0,0.0,0.0,0.0,0.0015530238160863519,-0.0013587501598522067,0.00016087330004666,0.9986661672592163,0.0,0.0,0.0,2.656538724899292,-3.2717936038970947,5.370809555053711,-480.83880615234375,0
356.7910000000011,-0.01757272146642208,-0.003908231854438782,-0.00015315567725338042,0.0,0.0,0.0,0.0,-0.002903551096096635,-0.002163657918572426,-0.00015892789815552533,0.9982069134712219,0.0,0.0,0.0,2.652656316757202,-3.266470193862915,5.376110553741455,-480.1360778808594,0
366.71000000000095,-0.01753171905875206,-0.0039030704647302628,-0.00014340903726406395,0.0,0.0,0.0,0.0,0.0001445888919988647,-0.0008720193291082978,0.0030721325892955065,0.9971925616264343,0.0,0.0,0.0,2.6605255603790283,-3.2734627723693848,5.384612560272217,-481.5604248046875,0
376.6140000000014,-0.017576269805431366,-0.003891704836860299,-0.0001603334239916876,0.0,0.0,0.0,0.0,0.0009632011060602963,0.006102788727730513,-0.003613963257521391,1.0006452798843384,0.0,0.0,0.0,2.6571412086486816,-3.262991189956665,5.381148338317871,-480.9478454589844,0
386.52900000000045,-0.01752219721674919,-0.003917254973202944,-0.00016459851758554578,0.0,0.0,0.0,0.0,0.001031558495014906,-0.002283264882862568,0.0025393192190676928,1.0011924505233765,0.0,0.0,0.0,2.661458730697632,-3.274702787399292,5.380734443664551,-481.7292785644531,0
396.4340000000011,-0.01756962016224861,-0.003931652754545212,-0.0001992345933103934,0.0,0.0,0.0,0.0,0.0012966402573511004,0.00041572717600502074,0.0038322806358337402,0.9991020560264587,0.0,0.0,0.0,2.6572208404541016,-3.270354986190796,5.372066020965576,-480.9622497558594,0
406.34500000000116,-0.017463911324739456,-0.003949986770749092,-0.0001733273675199598,0.0,0.0,0.0,0.0,0.0007875437149778008,0.0015718982322141528,0.00010351902164984494,1.0007998943328857,0.0,0.0,0.0,2.669715166091919,-3.2807905673980713,5.38060998916626,-483.2237548828125,0
416.26300000000083,-0.017549671232700348,-0.003946642857044935,-0.00014869461301714182,0.0,0.0,0.0,0.0,-0.0013500388013198972,0.001280293450690806,0.004252104088664055,0.9993536472320557,0.0,0.0,0.0,2.6670186519622803,-3.2790660858154297,5.374658584594727,-482.7356872558594,0
426.1730000000007,-0.0174668300896883,-0.003962142392992973,-0.00012839489500038326,0.0,0.0,0.0,0.0,-0.00278087193146348,0.001917187124490738,-0.0009894751710817218,0.9977738261222839,0.0,0.0,0.0,2.679847240447998,-3.291903495788574,5.379321098327637,-485.05767822265625,0
436.0799999999999,-0.017516115680336952,-0.003957023378461599,-0.00014522724086418748,0.0,0.0,0.0,0.0,0.0012029005447402596,0.0009384217555634677,0.0033461705315858126,0.9981513619422913,0.0,0.0,0.0,2.671146869659424,-3.2892284393310547,5.374763011932373,-483.48291015625,0
445.9899999999998,-0.017407434061169624,-0.004035500343888998,-0.00014459322846960276,0.0,0.0,0.0,0.0,-0.0011733371065929532,0.0016309849452227354,0.00047112893662415445,0.9975593686103821,0.0,0.0,0.0,2.6752851009368896,-3.316118001937866,5.39802885055542,-484.2319030761719,0
455.90300000000025,-0.01745930127799511,-0.004032575059682131,-0.0001624097494641319,0.0,0.0,0.0,0.0,-0.001593180699273944,-0.0010732715018093586,-0.0003645695105660707,0.9983322024345398,0.0,0.0,0.0,2.672891616821289,-3.307145833969116,5.389918804168701,-483.7987060546875,0
465.8190000000013,-0.017479589208960533,-0.004028116352856159,-0.00018155240104533732,0.0,0.0,0.0,0.0,0.0006949921371415257,-0.0012148438254371285,0.003347831079736352,0.9982065558433533,0.0,0.0,0.0,2.670666456222534,-3.3069231510162354,5.379665851593018,-483.3959045410156,0
475.7290000000012,-0.017596902325749397,-0.003967287018895149,-0.0001770006347214803,0.0,0.0,0.0,0.0,-0.0007724197930656374,0.004023975692689419,-0.0023999609984457493,0.9968490600585938,0.0,0.0,0.0,2.66595196723938,-3.3043529987335205,5.372172832489014,-482.5426330566406,0
485.64300000000003,-0.01753426156938076,-0.003989676013588905,-0.00016032156418077648,0.0,0.0,0.0,0.0,0.0024134647101163864,-0.0020553760696202517,0.0023681470192968845,0.9984241724014282,0.0,0.0,0.0,2.66595196723938,-3.3043529987335205,5.372172832489014,-482.5426330566406,0
495.5610000000015,-0.01765170879662037,-0.0039492882788181305,-0.00017830963770393282,0.0,0.0,0.0,0.0,0.00016963237430900335,0.001559084397740662,0.0030169792007654905,1.0017329454421997,0.0,0.0,0.0,2.661428213119507,-3.306028366088867,5.3644795417785645,-481.7237548828125,0
505.46700000000055,-0.01755504310131073,-0.003992840647697449,-0.00015598928439430892,0.0,0.0,0.0,0.0,0.00035255076363682747,-0.0035263600293546915,0.003270156681537628,0.9987903237342834,0.0,0.0,0.0,2.667771577835083,-3.315887212753296,5.378500938415527,-482.8719787597656,0
515.3810000000012,-0.01766536571085453,-0.0039376369677484035,-0.00016758314450271428,0.0,0.0,0.0,0.0,0.004566458985209465,0.0008223964832723141,-0.0023511312901973724,0.9989396333694458,0.0,0.0,0.0,2.663278341293335,-3.316441535949707,5.3792805671691895,-482.0587158203125,0
525.2950000000001,-0.017574632540345192,-0.0039533209055662155,-0.00013025726366322488,0.0,0.0,0.0,0.0,0.0013566302368417382,0.002670889487490058,-0.0037829685024917126,0.9987127184867859,0.0,0.0,0.0,2.670804500579834,-3.3211021423339844,5.393189430236816,-483.4209289550781,0
535.1980000000003,-0.01765226013958454,-0.003972705453634262,-0.0001504027604823932,0.0,0.0,0.0,0.0,0.0032501453533768654,0.0013960060896351933,-0.00012131090625189245,0.9965682029724121,0.0,0.0,0.0,2.668766975402832,-3.3236355781555176,5.388585567474365,-483.0521240234375,0
545.1200000000008,-0.017583943903446198,-0.003943931311368942,-0.00011311106209177524,0.0,0.0,0.0,0.0,-0.0002518002293072641,0.000624604697804898,0.001483650878071785,0.999327540397644,0.0,0.0,0.0,2.6730661392211914,-3.3258163928985596,5.3959245681762695,-483.83026123046875,0
555.0250000000015,-0.01760711893439293,-0.003919743467122316,-0.00016465446969959885,0.0,0.0,0.0,0.0,0.0010626681614667177,-0.0016227273736149073,-0.0019885392393916845,1.0005542039871216,0.0,0.0,0.0,2.659177541732788,-3.3250608444213867,5.397252082824707,-481.3164367675781,0
564.9350000000013,-0.017566654831171036,-0.0038965223357081413,-0.00015495327534154058,0.0,0.0,0.0,0.0,0.003874085610732436,-0.004036893602460623,0.0010258950060233474,1.0008004903793335,0.0,0.0,0.0,2.670461416244507,-3.3269989490509033,5.4081830978393555,-483.3587951660156,0
574.8520000000008,-0.017550429329276085,-0.003815960604697466,-0.00021737534552812576,0.0,0.0,0.0,0.0,0.0003960485919378698,0.0010952939046546817,-0.001017200294882059,1.0000137090682983,0.0,0.0,0.0,2.667850971221924,-3.3240575790405273,5.412683486938477,-482.8863525390625,0
584.7610000000004,-0.0174357071518898,-0.00384825118817389,-0.00020836367912124842,0.0,0.0,0.0,0.0,-0.002386019565165043,0.0014892704784870148,0.0006785083678551018,0.999193549156189,0.0,0.0,0.0,2.6786584854125977,-3.339318037033081,5.4276838302612305,-484.8425598144531,0
594.6700000000001,-0.01741155982017517,-0.0037556609604507685,-0.0002705926017370075,0.0,0.0,0.0,0.0,-0.00020572353969328105,-0.002046489156782627,-0.0021373487543314695,0.9981098175048828,0.0,0.0,0.0,2.6758806705474854,-3.3377063274383545,5.413656234741211,-484.3397521972656,0
604.5740000000005,-0.017408108338713646,-0.003757874481379986,-0.0003031925007235259,0.0,0.0,0.0,0.0,-0.001088412245735526,-0.0007019359618425369,-0.0024671093560755253,0.9991193413734436,0.0,0.0,0.0,2.674088716506958,-3.335360288619995,5.414984226226807,-484.015380859375,0
614.4920000000002,-0.01749877817928791,-0.003798983059823513,-0.0003142997738905251,0.0,0.0,0.0,0.0,0.0008281670743599534,-0.0017031545285135508,0.002120795426890254,0.998614490032196,0.0,0.0,0.0,2.6712989807128906,-3.3362443447113037,5.403378963470459,-483.51043701171875,0
624.3990000000013,-0.01741374470293522,-0.003811298403888941,-0.0003139045147690922,0.0,0.0,0.0,0.0,0.00023496925132349133,0.007105768658220768,-0.0012639433844015002,0.9977961182594299,0.0,0.0,0.0,2.6815450191497803,-3.3427345752716064,5.4131269454956055,-485.364990234375,0
634.3090000000011,-0.017511190846562386,-0.003824660088866949,-0.0002923646825365722,0.0,0.0,0.0,0.0,-0.0005146727780811489,-0.003880300559103489,-0.0006158020114526153,0.9982303977012634,0.0,0.0,0.0,2.679295539855957,-3.3419301509857178,5.409818649291992,-484.95782470703125,0
644.2219999999998,-0.017450332641601562,-0.003873607609421015,-0.00031837524147704244,0.0,0.0,0.0,0.0,0.0015327173750847578,0.0004847319796681404,-0.0020414027385413647,0.9973208904266357,0.0,0.0,0.0,2.675475835800171,-3.337259531021118,5.401718616485596,-484.2664489746094,0
654.1350000000002,-0.01758016273379326,-0.00392961548641324,-0.0002820969093590975,0.0,0.0,0.0,0.0,-0.004357591271400452,-0.003658137982711196,-0.0009163795039057732,1.0000479221343994,0.0,0.0,0.0,2.6725149154663086,-3.3370654582977295,5.39707612991333,-483.73052978515625,0
664.0529999999999,-0.017469827085733414,-0.003931965678930283,-0.0002550788049120456,0.0,0.0,0.0,0.0,0.0017135870875790715,0.0038358501624315977,-0.0018963924376294017,0.9992325901985168,0.0,0.0,0.0,2.6832003593444824,-3.3373677730560303,5.4149980545043945,-485.66461181640625,0
673.9549999999999,-0.017620941624045372,-0.00398712232708931,-0.00018857940449379385,0.0,0.0,0.0,0.0,0.0012335192877799273,-0.002310020150616765,-0.0008523460710421205,1.0008841753005981,0.0,0.0,0.0,2.680742025375366,-3.3253908157348633,5.410382270812988,-485.2196350097656,0
683.8720000000012,-0.017508139833807945,-0.003989438060671091,-0.00014905110583640635,0.0,0.0,0.0,0.0,0.0016868263483047485,0.006464672740548849,-0.0020347735844552517,0.998883843421936,0.0,0.0,0.0,2.6897759437561035,-3.3313493728637695,5.429193019866943,-486.85479736328125,0
693.7800000000007,-0.017631379887461662,-0.004049055278301239,-0.00010920630302280188,0.0,0.0,0.0,0.0,0.001680875662714243,0.002024174900725484,-0.0010721537983044982,0.9987611770629883,0.0,0.0,0.0,2.6861886978149414,-3.327533006668091,5.421950817108154,-486.2054748535156,0
703.6970000000001,-0.01751689612865448,-0.0040571559220552444,-6.319415842881426e-05,0.0,0.0,0.0,0.0,0.0004084446409251541,0.002973511815071106,-0.002030869945883751,1.0005613565444946,0.0,0.0,0.0,2.695554733276367,-3.3359365463256836,5.424813747406006,-487.90081787109375,0
713.594000000001,-0.017553161829710007,-0.004026775248348713,-6.565441435668617e-05,0.0,0.0,0.0,0.0,-0.005369068589061499,-0.004926334135234356,3.757342938115471e-06,0.9991905689239502,0.0,0.0,0.0,2.6861751079559326,-3.33498477935791,5.4095072746276855,-486.20306396484375,0
723.5190000000002,-0.017491428181529045,-0.004021480213850737,-3.9069895137799904e-05,0.0,0.0,0.0,0.0,-0.0007843267521820962,0.004694534000009298,-0.0007766287308186293,0.9996492266654968,0.0,0.0,0.0,2.6942358016967773,-3.342219829559326,5.41463041305542,-487.6620178222656,0
733.4220000000005,-0.017539605498313904,-0.004011418204754591,-4.062762309331447e-05,0.0,0.0,0.0,0.0,0.001645009033381939,-0.0012167239328846335,0.0007466991664841771,0.998811662197113,0.0,0.0,0.0,2.691038131713867,-3.3294756412506104,5.419967174530029,-487.0832824707031,0
743.3290000000015,-0.017495285719633102,-0.004005436319857836,-2.287858478666749e-05,0.0,0.0,0.0,0.0,-0.0002100324782077223,-0.0008050012984313071,-0.0004320032603573054,0.9991480708122253,0.0,0.0,0.0,2.699320077896118,-3.333634614944458,5.418752193450928,-488.58233642578125,0
753.2430000000004,-0.01749546267092228,-0.003952355589717627,-5.973396037006751e-05,0.0,0.0,0.0,0.0,0.00034585947287268937,0.0013541651424020529,-0.0010292795486748219,0.9983217716217041,0.0,0.0,0.0,2.696779727935791,-3.3280398845672607,5.4222493171691895,-488.1224670410156,0
763.1560000000009,-0.017499713227152824,-0.003950156737118959,-7.452552381437272e-05,0.0,0.0,0.0,0.0,0.00014802323130425066,-0.0033543608151376247,-0.000996779534034431,1.0001274347305298,0.0,0.0,0.0,2.6935741901397705,-3.322730779647827,5.431950092315674,-487.5422668457031,0
773.0640000000003,-0.01752498559653759,-0.0038996704388409853,-9.751235484145582e-05,0.0,0.0,0.0,0.0,0.0005290076951496303,0.005612739361822605,-0.003193071112036705,0.9991284012794495,0.0,0.0,0.0,2.690324068069458,-3.3206899166107178,5.427681922912598,-486.9540100097656,0
782.9790000000012,-0.017556680366396904,-0.0038531324826180935,-0.00010633266356308013,0.0,0.0,0.0,0.0,-0.00012975491699762642,-0.00010833045962499455,-0.0006008087657392025,0.9988774657249451,0.0,0.0,0.0,2.695404291152954,-3.316129446029663,5.4047322273254395,-487.87353515625,0
792.889000000001,-0.017597001045942307,-0.003859118092805147,-0.00014662326429970562,0.0,0.0,0.0,0.0,-0.0028180854860693216,0.0029917305801063776,-0.0020052052568644285,1.0005015134811401,0.0,0.0,0.0,2.6935017108917236,-3.3125157356262207,5.4021100997924805,-487.5291748046875,0
802.7990000000009,-0.01758054457604885,-0.0037913406267762184,-0.0001198084355564788,0.0,0.0,0.0,0.0,-0.0005851523601450026,0.00028199912048876286,0.001439442508853972,1.0001003742218018,0.0,0.0,0.0,2.697988510131836,-3.3017067909240723,5.404436111450195,-488.3412780761719,0
812.7150000000001,-0.017635133117437363,-0.0038127810694277287,-0.00015356273797806352,0.0,0.0,0.0,0.0,-0.0009853460360318422,-0.0006844501476734877,0.0004057828045915812,0.9981154203414917,0.0,0.0,0.0,2.6895947456359863,-3.3099915981292725,5.387857913970947,-486.822021484375,0
822.625,-0.01755140908062458,-0.0038504430558532476,-0.00015240021457429975,0.0,0.0,0.0,0.0,-0.002487868070602417,0.0007221882697194815,-0.0004011473210994154,0.9982063174247742,0.0,0.0,0.0,2.686709403991699,-3.303166151046753,5.384672164916992,-486.29974365234375,0
832.5360000000001,-0.017541149631142616,-0.003779497928917408,-0.00020974190556444228,0.0,0.0,0.0,0.0,-0.0014405474066734314,-0.003368744859471917,0.0018145993817597628,1.0008066892623901,0.0,0.0,0.0,2.6835241317749023,-3.295664072036743,5.373805999755859,-485.7231750488281,0
842.4440000000013,-0.017495421692728996,-0.0038002626970410347,-0.00022899606847204268,0.0,0.0,0.0,0.0,0.0033927385229617357,0.0011789138661697507,-0.0018513882532715797,1.002657175064087,0.0,0.0,0.0,2.68709659576416,-3.3024678230285645,5.375566005706787,-486.3698425292969,0
852.362000000001,-0.017576999962329865,-0.003817413467913866,-0.00022630917374044657,0.0,0.0,0.0,0.0,-0.0006214244058355689,0.0028177557978779078,-0.0007752505480311811,1.001786231994629,0.0,0.0,0.0,2.6846935749053955,-3.304020881652832,5.372770309448242,-485.9348449707031,0
862.2669999999998,-0.017506925389170647,-0.0038381312042474747,-0.00022027752129361033,0.0,0.0,0.0,0.0,0.0003376858658157289,-0.00038400079938583076,-0.0028315004892647266,0.9998234510421753,0.0,0.0,0.0,2.6818792819976807,-3.299880266189575,5.35861349105835,-485.4255065917969,0
872.1820000000007,-0.017611399292945862,-0.0038517904467880726,-0.00018255290342494845,0.0,0.0,0.0,0.0,-0.0017662945901975036,0.00014538085088133812,0.0004701912694144994,1.0003708600997925,0.0,0.0,0.0,2.6779141426086426,-3.2888882160186768,5.359548091888428,-484.707763671875,0
882.0810000000001,-0.017533427104353905,-0.003907768055796623,-0.00018686350085772574,0.0,0.0,0.0,0.0,0.0031428667716681957,-0.0006954087293706834,-0.000700842123478651,0.9994283318519592,0.0,0.0,0.0,2.675532102584839,-3.2788987159729004,5.354058742523193,-484.276611328125,0
892.0010000000002,-0.017614519223570824,-0.003929027821868658,-0.00017091099289245903,0.0,0.0,0.0,0.0,0.0019706471357494593,0.0030761046800762415,0.0015074375551193953,0.9997644424438477,0.0,0.0,0.0,2.664297342300415,-3.28831148147583,5.336251735687256,-482.24310302734375,0
901.9070000000011,-0.017543647438287735,-0.0039726258255541325,-0.00016855887952260673,0.0,0.0,0.0,0.0,0.0004358219157438725,-0.0006686777342110872,0.0048718200996518135,0.9986043572425842,0.0,0.0,0.0,2.6623642444610596,-3.283456325531006,5.317943572998047,-481.8931884765625,0
911.8250000000007,-0.017602333799004555,-0.00394810363650322,-0.0001516506017651409,0.0,0.0,0.0,0.0,0.0012638830812647939,-0.004109096713364124,-0.0013079383643344045,0.9983282685279846,0.0,0.0,0.0,2.6600141525268555,-3.279047966003418,5.314502716064453,-481.46783447265625,0
921.7240000000002,-0.017506172880530357,-0.0039559477008879185,-0.00011205307964701205,0.0,0.0,0.0,0.0,0.0030821270775049925,-0.000847021525260061,0.0016108298441395164,1.0003571510314941,0.0,0.0,0.0,2.6689772605895996,-3.289189338684082,5.333706378936768,-483.0901794433594,0
931.6400000000012,-0.017596544697880745,-0.003989757504314184,-8.988947229227051e-05,0.0,0.0,0.0,0.0,0.0004582779947668314,-0.001614301698282361,0.0032157779205590487,0.9991532564163208,0.0,0.0,0.0,2.665788412094116,-3.287909984588623,5.332021236419678,-482.51300048828125,0
941.5520000000015,-0.01749342866241932,-0.004034712444990873,-5.6342283642152324e-05,0.0,0.0,0.0,0.0,-0.00046663451939821243,-0.0015336577780544758,0.0007186201983131468,0.9995825290679932,0.0,0.0,0.0,2.6633875370025635,-3.282119035720825,5.3287577629089355,-482.0784606933594,0
951.469000000001,-0.017601309344172478,-0.0040795220993459225,-1.3785023838863708e-05,0.0,0.0,0.0,0.0,-0.004058420192450285,-0.00019905636145267636,0.0025053133722394705,0.9992761611938477,0.0,0.0,0.0,2.6601576805114746,-3.268214702606201,5.325501918792725,-481.4938049316406,0
961.3690000000006,-0.01759849116206169,-0.00406249612569809,2.7394660264690174e-06,0.0,0.0,0.0,0.0,-0.0009762152330949903,-0.00031830533407628536,-0.0019529620185494423,0.9992241263389587,0.0,0.0,0.0,2.6715590953826904,-3.2590134143829346,5.323895454406738,-483.5575256347656,0
971.2980000000007,-0.017667867243289948,-0.004068212117999792,1.6152978787431493e-05,0.0,0.0,0.0,0.0,-0.0014916533837094903,-0.004064297769218683,0.003486111992970109,0.9999922513961792,0.0,0.0,0.0,2.6624433994293213,-3.2604100704193115,5.319680213928223,-481.9075622558594,0
981.1930000000011,-0.017654260620474815,-0.004022478125989437,5.6780587328830734e-05,0.0,0.0,0.0,0.0,0.0008136960677802563,0.001132490113377571,-0.002603548811748624,1.0003937482833862,0.0,0.0,0.0,2.6748077869415283,-3.2567906379699707,5.328378200531006,-484.1455383300781,0
991.1110000000008,-0.017658520489931107,-0.003973004873842001,1.773992698872462e-05,0.0,0.0,0.0,0.0,-0.003815918695181608,-0.00014418677892535925,-0.003332017920911312,0.9999224543571472,0.0,0.0,0.0,2.6648941040039062,-3.250221014022827,5.331200122833252,-482.3511657714844,0
1001.0120000000006,-0.017620228230953217,-0.003959272056818008,5.104810406919569e-05,0.0,0.0,0.0,0.0,-0.0042238919995725155,7.580390229122713e-05,-0.000989195890724659,0.9984317421913147,0.0,0.0,0.0,2.668872117996216,-3.244772434234619,5.346879959106445,-483.0711975097656,0
1010.9340000000011,-0.017641954123973846,-0.003912131767719984,3.2519026717636734e-05,0.0,0.0,0.0,0.0,-0.004384880885481834,0.0008037635125219822,0.00046426564222201705,1.00111985206604,0.0,0.0,0.0,2.665513515472412,-3.2340786457061768,5.344030380249023,-482.4632568359375,0
1020.8360000000011,-0.017597021535038948,-0.003933525178581476,4.60657465737313e-05,0.0,0.0,0.0,0.0,0.0033761269878596067,0.006748235318809748,0.00029650310170836747,0.9996330142021179,0.0,0.0,0.0,2.671011447906494,-3.2341837882995605,5.353067874908447,-483.4583740234375,0
1030.7540000000008,-0.01758785918354988,-0.003883138531818986,-1.4726885638083331e-05,0.0,0.0,0.0,0.0,0.002343208761885762,0.0003355267399456352,-0.0024760826490819454,0.9993256330490112,0.0,0.0,0.0,2.669137716293335,-3.236804246902466,5.345699310302734,-483.1192626953125,0
1040.6560000000009,-0.017576469108462334,-0.0038897113408893347,-1.763735963322688e-05,0.0,0.0,0.0,0.0,-0.0004532941384240985,0.0027308380231261253,-0.0021182664204388857,1.0015196800231934,0.0,0.0,0.0,2.6749775409698486,-3.2477712631225586,5.348988056182861,-484.1762390136719,0
1050.5770000000011,-0.01759152114391327,-0.003853969043120742,-6.575771840289235e-05,0.0,0.0,0.0,0.0,-0.0006009176140651107,0.0009220960200764239,0.00037538271863013506,1.000943899154663,0.0,0.0,0.0,2.671506643295288,-3.245234489440918,5.342199325561523,-483.54803466796875,0
1060.4790000000012,-0.01750028319656849,-0.003904749173671007,-5.597711060545407e-05,0.0,0.0,0.0,0.0,0.0005621694144792855,-0.00011306069063721225,-0.002573928330093622,0.9970946311950684,0.0,0.0,0.0,2.6820549964904785,-3.2635180950164795,5.35321569442749,-485.45733642578125,0
1070.402,-0.0174885131418705,-0.0038315895944833755,-0.00011367013939889148,0.0,0.0,0.0,0.0,-0.00118073052726686,0.0003373456420376897,-0.0024868715554475784,0.9976468682289124,0.0,0.0,0.0,2.679098129272461,-3.2655045986175537,5.343728542327881,-484.9220886230469,0
1080.3010000000013,-0.017493072897195816,-0.0038371626287698746,-0.0001327065983787179,0.0,0.0,0.0,0.0,0.0010936581529676914,0.0019658259116113186,-0.0036695438902825117,0.9975475072860718,0.0,0.0,0.0,2.6770589351654053,-3.2624449729919434,5.339409828186035,-484.552978515625,0
1090.2210000000014,-0.017559915781021118,-0.0038466574624180794,-0.00015634228475391865,0.0,0.0,0.0,0.0,-0.0045033530332148075,0.005518232937902212,0.00031588569981977344,1.000529170036316,0.0,0.0,0.0,2.673001766204834,-3.2590866088867188,5.338292121887207,-483.8186340332031,0
1100.1280000000006,-0.017533326521515846,-0.003871530992910266,-0.00017812298028729856,0.0,0.0,0.0,0.0,-0.0013267844915390015,-0.0012354322243481874,0.0011407267302274704,1.0017393827438354,0.0,0.0,0.0,2.6845643520355225,-3.261507987976074,5.335019588470459,-485.9114990234375,0
1110.0470000000005,-0.01758260652422905,-0.0038430909626185894,-0.00020083555136807263,0.0,0.0,0.0,0.0,-0.0018429192714393139,-0.006463673897087574,-0.002115418203175068,0.9977482557296753,0.0,0.0,0.0,2.6818246841430664,-3.254075288772583,5.331641674041748,-485.41558837890625,0
1119.9450000000015,-0.01748988777399063,-0.003862992627546191,-0.00018268602434545755,0.0,0.0,0.0,0.0,0.0026870970614254475,0.0016245467122644186,-0.0004299335414543748,0.9985897541046143,0.0,0.0,0.0,2.6916041374206543,-3.261505603790283,5.352658271789551,-487.1856994628906,0
1129.8680000000004,-0.017595307901501656,-0.0038732201792299747,-0.00015654841263312846,0.0,0.0,0.0,0.0,0.002044266788288951,0.0021742908284068108,-0.0012721875682473183,0.9999597668647766,0.0,0.0,0.0,2.6902542114257812,-3.2641093730926514,5.341784477233887,-486.94134521484375,0
1139.7700000000004,-0.01759742572903633,-0.003914714325219393,-0.00012657663319259882,0.0,0.0,0.0,0.0,0.0001789280941011384,0.0020879795774817467,-0.0018903374439105392,1.0010911226272583,0.0,0.0,0.0,2.6879656314849854,-3.266138792037964,5.328895568847656,-486.52716064453125,0
1149.6890000000003,-0.017644252628087997,-0.0038723701145499945,-0.00013437060988508165,0.0,0.0,0.0,0.0,0.000762555340770632,0.0008330533164553344,0.004763783421367407,0.9991201758384705,0.0,0.0,0.0,2.685703754425049,-3.257009267807007,5.321513652801514,-486.11773681640625,0
1159.5910000000003,-0.017559397965669632,-0.004005712457001209,-8.178212738130242e-05,0.0,0.0,0.0,0.0,-0.0033883985597640276,-8.18095650174655e-05,0.0036143003962934017,0.9984661936759949,0.0,0.0,0.0,2.6834588050842285,-3.2552287578582764,5.309576034545898,-485.71142578125,0
1169.5130000000008,-0.017603598535060883,-0.003969515208154917,-8.574746607337147e-05,0.0,0.0,0.0,0.0,-0.0003323376295156777,-0.0012030963553115726,0.0006643888191320002,0.9998780488967896,0.0,0.0,0.0,2.6810576915740967,-3.2482266426086426,5.302449703216553,-485.27679443359375,0
1179.416000000001,-0.01760612614452839,-0.0040067643858492374,-6.284644041443244e-05,0.0,0.0,0.0,0.0,-0.00020858064817730337,-0.0020563406869769096,0.0021297521889209747,1.0005027055740356,0.0,0.0,0.0,2.6793646812438965,-3.2441604137420654,5.296961307525635,-484.9703369140625,0
1189.33,-0.017652451992034912,-0.003971956204622984,-6.561063491972163e-05,0.0,0.0,0.0,0.0,-0.0015483753522858024,0.00107200734782964,3.3745720884326147e-06,0.9998787045478821,0.0,0.0,0.0,2.676940679550171,-3.2343180179595947,5.294597625732422,-484.5315856933594,0
1199.2350000000006,-0.017580093815922737,-0.003968505188822746,-3.9566562918480486e-05,0.0,0.0,0.0,0.0,-0.000390275614336133,0.002376777119934559,-0.0009666531695984304,0.9998852610588074,0.0,0.0,0.0,2.6738126277923584,-3.2274889945983887,5.281321048736572,-483.96539306640625,0
1209.1650000000009,-0.017628569155931473,-0.0039321547374129295,-3.9971455407794565e-05,0.0,0.0,0.0,0.0,-0.0009748541633598506,-0.0016530624125152826,-0.0010394821874797344,0.998952329158783,0.0,0.0,0.0,2.6707141399383545,-3.22503924369812,5.281332015991211,-483.40460205078125,0
1219.062,-0.017582491040229797,-0.003970977384597063,-3.005982216564007e-05,0.0,0.0,0.0,0.0,0.0038024038076400757,-0.00231546675786376,-0.002391160698607564,0.9989705681800842,0.0,0.0,0.0,2.6670289039611816,-3.2157411575317383,5.27564001083374,-482.737548828125,0
1228.9740000000002,-0.017630813643336296,-0.003933889791369438,-3.116309017059393e-05,0.0,0.0,0.0,0.0,-0.0023520279210060835,0.0007911601569503546,0.0033415979705750942,0.9996867179870605,0.0,0.0,0.0,2.6642723083496094,-3.218158483505249,5.273314476013184,-482.23858642578125,0
1238.8910000000014,-0.017599446699023247,-0.003979302942752838,-3.185763489454985e-05,0.0,0.0,0.0,0.0,0.0013209537137299776,0.0009913487592712045,0.0035863297525793314,0.9994544982910156,0.0,0.0,0.0,2.662537097930908,-3.209354877471924,5.274622440338135,-481.9244689941406,0
1248.8060000000005,-0.017649220302700996,-0.003942187409847975,-3.450503572821617e-05,0.0,0.0,0.0,0.0,0.0009857075056061149,-0.003503106301650405,0.0008838999201543629,0.9990725517272949,0.0,0.0,0.0,2.6605684757232666,-3.2096822261810303,5.2602314949035645,-481.56817626953125,0
1258.7020000000011,-0.01755714975297451,-0.003931431565433741,-7.543760148109868e-05,0.0,0.0,0.0,0.0,-7.386690413113683e-05,0.0007739618304185569,0.0019105715909972787,0.9989714026451111,0.0,0.0,0.0,2.6654436588287354,-3.2162797451019287,5.274765968322754,-482.4506530761719,0
1268.6130000000012,-0.017608100548386574,-0.003891314147040248,-8.280337351607159e-05,0.0,0.0,0.0,0.0,2.4768717139522778e-06,-0.0011812126031145453,0.0032115676440298557,0.9984046220779419,0.0,0.0,0.0,2.6637184619903564,-3.2073304653167725,5.270627975463867,-482.1383361816406,0
1278.5240000000013,-0.01756672002375126,-0.003946446813642979,-0.00012633881124202162,0.0,0.0,0.0,0.0,-0.004002189729362726,-0.007710748352110386,0.0011488253949210048,0.9998362064361572,0.0,0.0,0.0,2.661195755004883,-3.2017335891723633,5.265135288238525,-481.68170166015625,0
1288.4400000000005,-0.01762019656598568,-0.0039055231027305126,-0.00013851110998075455,0.0,0.0,0.0,0.0,-0.00040267949225381017,-0.0008777742623351514,0.0013451403938233852,1.0017063617706299,0.0,0.0,0.0,2.658841609954834,-3.195749521255493,5.265566825866699,-481.2556457519531,0
1298.3490000000002,-0.017520342022180557,-0.0039069922640919685,-0.00013366529310587794,0.0,0.0,0.0,0.0,-0.0018491387600079179,0.00035709113581106067,0.0037824539467692375,1.0001707077026367,0.0,0.0,0.0,2.6596121788024902,-3.200077533721924,5.288380146026611,-481.39508056640625,0
1308.259,-0.017572876065969467,-0.0038660187274217606,-0.00014310966071207076,0.0,0.0,0.0,0.0,0.0021344213746488094,0.0019847089424729347,-0.0005529306945390999,0.9976720809936523,0.0,0.0,0.0,2.6574573516845703,-3.192650079727173,5.278534889221191,-481.00506591796875,0
1318.1720000000005,-0.01754325069487095,-0.003881201148033142,-0.0001509326248196885,0.0,0.0,0.0,0.0,0.0004382529004942626,0.004203327000141144,0.0011406661942601204,0.9979082345962524,0.0,0.0,0.0,2.666961193084717,-3.2062346935272217,5.279881477355957,-482.7253112792969,0
1328.089,-0.017597967758774757,-0.0038421046920120716,-0.00016260200936812907,0.0,0.0,0.0,0.0,-0.0021816431544721127,0.0007601826218888164,-0.00015122542390599847,0.9993945360183716,0.0,0.0,0.0,2.663860321044922,-3.1997265815734863,5.259403705596924,-482.16400146484375,0
1337.9940000000006,-0.01756785437464714,-0.003949268255382776,-0.00012439301644917578,0.0,0.0,0.0,0.0,-0.0004576000210363418,-0.0029813144356012344,-0.001060890732333064,0.9996491074562073,0.0,0.0,0.0,2.672579765319824,-3.2108492851257324,5.272160530090332,-483.74224853515625,0
1347.9030000000002,-0.01762279123067856,-0.003912003710865974,-0.00013443345960695297,0.0,0.0,0.0,0.0,0.0003032319655176252,-0.0020405196119099855,0.0013403459452092648,0.9996393918991089,0.0,0.0,0.0,2.668616771697998,-3.2042784690856934,5.273018836975098,-483.0249328613281,0
1357.8150000000005,-0.01761067658662796,-0.003942532930523157,-0.00011350627028150484,0.0,0.0,0.0,0.0,0.0010081828804686666,0.003101344220340252,-0.0011528616305440664,0.9997953772544861,0.0,0.0,0.0,2.6670172214508057,-3.2003607749938965,5.275577068328857,-482.7354431152344,0
1367.7340000000004,-0.017666390165686607,-0.003902972210198641,-0.00012162623897893354,0.0,0.0,0.0,0.0,-0.002209837781265378,0.000696900358889252,-0.0005490542971529067,0.999624490737915,0.0,0.0,0.0,2.6629440784454346,-3.195079803466797,5.266775131225586,-481.9981689453125,0
1377.6410000000014,-0.017611898481845856,-0.003926622681319714,-8.89962975634262e-05,0.0,0.0,0.0,0.0,-0.002292875200510025,-0.004220202565193176,0.00045069499174132943,1.0002615451812744,0.0,0.0,0.0,2.6590628623962402,-3.1887447834014893,5.259415149688721,-481.295654296875,0
1387.549000000001,-0.017667945474386215,-0.0038853187579661608,-9.393384971190244e-05,0.0,0.0,0.0,0.0,-0.0007270838832482696,-0.0025241144467145205,-0.0030645171646028757,0.9983764886856079,0.0,0.0,0.0,2.6563656330108643,-3.1806046962738037,5.26671028137207,-480.8074645996094,0
1397.469000000001,-0.017608026042580605,-0.003916657995432615,-7.699404523009434e-05,0.0,0.0,0.0,0.0,-0.0004914464079774916,0.0026552830822765827,-0.0010809663217514753,1.000676155090332,0.0,0.0,0.0,2.652510643005371,-3.1779961585998535,5.267305850982666,-480.1097106933594,0
1407.3739999999998,-0.0176653191447258,-0.003875909373164177,-8.0893725680653e-05,0.0,0.0,0.0,0.0,0.00039131537778303027,0.002154566813260317,-0.0012462025042623281,0.9975289702415466,0.0,0.0,0.0,2.649479866027832,-3.171774387359619,5.2592854499816895,-479.5611267089844,0
1417.2840000000015,-0.017560536041855812,-0.003941916394978762,-4.917414844385348e-05,0.0,0.0,0.0,0.0,0.00011362916848156601,-0.002571162534877658,0.0011361428769305348,0.9995438456535339,0.0,0.0,0.0,2.661464214324951,-3.18727707862854,5.274350166320801,-481.7303161621094,0
1427.1950000000015,-0.017613712698221207,-0.00390086742118001,-5.285671431920491e-05,0.0,0.0,0.0,0.0,0.0020940727554261684,0.005975482519716024,-0.0044819810427725315,1.0013269186019897,0.0,0.0,0.0,2.6595635414123535,-3.1859960556030273,5.269928932189941,-481.38629150390625,0
1437.1010000000006,-0.017553230747580528,-0.003977886401116848,-3.310790998511948e-05,0.0,0.0,0.0,0.0,0.003383578732609749,0.002420493634417653,-0.001044955919496715,0.9986429214477539,0.0,0.0,0.0,2.669466972351074,-3.195462226867676,5.276874542236328,-483.1788330078125,0
1447.0130000000008,-0.017605377361178398,-0.00393825676292181,-3.5411594581091776e-05,0.0,0.0,0.0,0.0,-0.002000863663852215,-0.0006251577869988978,-0.0035604950971901417,0.998206615447998,0.0,0.0,0.0,2.666105031967163,-3.202181816101074,5.26824426651001,-482.5703430175781,0
1456.9230000000007,-0.017648741602897644,-0.003923207055777311,-6.709538865834475e-05,0.0,0.0,0.0,0.0,-0.002651978749781847,-0.0012117652222514153,-0.0011364707024767995,0.9995391368865967,0.0,0.0,0.0,2.6567680835723877,-3.201460361480713,5.270483493804932,-480.8803405761719,0
1466.8340000000007,-0.017702892422676086,-0.0038801580667495728,-7.39539391361177e-05,0.0,0.0,0.0,0.0,-0.0019239101093262434,-0.0026592223439365625,0.002566353650763631,1.000299334526062,0.0,0.0,0.0,2.653970956802368,-3.1925597190856934,5.266232013702393,-480.3740539550781,0
1476.755000000001,-0.0177423357963562,-0.0038370557595044374,-0.000105016260931734,0.0,0.0,0.0,0.0,-0.0038923986721783876,0.007248248904943466,-0.002559853484854102,1.00058913230896,0.0,0.0,0.0,2.652059316635132,-3.188035011291504,5.268261909484863,-480.0279846191406,0
1486.6640000000007,-0.017800286412239075,-0.003788160625845194,-0.00011326446110615507,0.0,0.0,0.0,0.0,-0.0017401303630322218,-0.005391084123402834,0.0005539694684557617,0.9979592561721802,0.0,0.0,0.0,2.648324489593506,-3.176692485809326,5.254297733306885,-479.35205078125,0
1496.5680000000011,-0.01783294975757599,-0.003786852117627859,-0.0001851194683695212,0.0,0.0,0.0,0.0,-0.0015006152680143714,0.0036788219586014748,-0.0011289507383480668,0.9973191618919373,0.0,0.0,0.0,2.645714521408081,-3.174666166305542,5.251311302185059,-478.87957763671875,0
1506.4880000000012,-0.017893273383378983,-0.0037394522223621607,-0.0002004264242714271,0.0,0.0,0.0,0.0,-0.0014292834093794227,-0.0029138298705220222,-0.003190823597833514,0.9978207349777222,0.0,0.0,0.0,2.6426291465759277,-3.1708285808563232,5.248983860015869,-478.32110595703125,0
1516.3919999999998,-0.017929507419466972,-0.003736582351848483,-0.00027432991191744804,0.0,0.0,0.0,0.0,0.0015186278615146875,0.005174355115741491,0.0009888580534607172,0.9989922642707825,0.0,0.0,0.0,2.639080047607422,-3.1637089252471924,5.247538089752197,-477.6787109375,0
1526.3060000000005,-0.017987774685025215,-0.003688208293169737,-0.00029819217161275446,0.0,0.0,0.0,0.0,-0.0005843961262144148,-0.0017324162181466818,-0.001215476426295936,1.000112533569336,0.0,0.0,0.0,2.637423038482666,-3.160752773284912,5.239302158355713,-477.3787841796875,0
1536.219000000001,-0.01797863282263279,-0.0036579209845513105,-0.00039649734389968216,0.0,0.0,0.0,0.0,5.0306749471928924e-05,-0.001679890905506909,0.004000908695161343,0.9984441995620728,0.0,0.0,0.0,2.6344594955444336,-3.156344175338745,5.240453720092773,-476.8424377441406,0
1546.130000000001,-0.018033849075436592,-0.0036073632072657347,-0.000427908991696313,0.0,0.0,0.0,0.0,-0.0016579178627580404,0.004040620755404234,0.0008721820777282119,0.9982846975326538,0.0,0.0,0.0,2.6324312686920166,-3.153118133544922,5.24077033996582,-476.4753112792969,0
1556.0470000000005,-0.018040649592876434,-0.003610064275562763,-0.0005377391935326159,0.0,0.0,0.0,0.0,0.0013290364295244217,0.0020935521461069584,0.000447745289420709,1.0001699924468994,0.0,0.0,0.0,2.622039794921875,-3.1681435108184814,5.252748012542725,-474.5943908691406,0
1565.9480000000003,-0.01809614524245262,-0.003558329539373517,-0.0005776322796009481,0.0,0.0,0.0,0.0,-0.004961026832461357,0.003642996773123741,-0.0005381203955039382,1.0013493299484253,0.0,0.0,0.0,2.619509220123291,-3.1702237129211426,5.247005939483643,-474.1363525390625,0
1575.8649999999998,-0.01808263547718525,-0.003541481913998723,-0.0006942074396647513,0.0,0.0,0.0,0.0,0.0010776813142001629,0.00408179359510541,0.0008773922454565763,1.0005686283111572,0.0,0.0,0.0,2.6162238121032715,-3.1616320610046387,5.233273506164551,-473.5417175292969,0
1585.7720000000008,-0.01813705824315548,-0.003486751113086939,-0.000739408889785409,0.0,0.0,0.0,0.0,-0.0016128533752635121,-0.0016974374884739518,-0.004087609238922596,0.9999294877052307,0.0,0.0,0.0,2.6140706539154053,-3.1592111587524414,5.2261643409729,-473.1519775390625,0
1595.688,-0.018176672980189323,-0.003459739265963435,-0.0008169185020960867,0.0,0.0,0.0,0.0,0.0016308155609294772,0.002676153788343072,-0.001906086690723896,1.0014151334762573,0.0,0.0,0.0,2.610703945159912,-3.1513872146606445,5.216547966003418,-472.5426025390625,0
1605.5910000000003,-0.018233295530080795,-0.003403502283617854,-0.000863465596921742,0.0,0.0,0.0,0.0,-0.0038479436188936234,0.0024831683840602636,0.0016833111876621842,1.0005801916122437,0.0,0.0,0.0,2.607839822769165,-3.149592161178589,5.213169097900391,-472.024169921875,0
1615.5120000000006,-0.018279194831848145,-0.0033879713155329227,-0.0009474411490373313,0.0,0.0,0.0,0.0,-0.0011080026160925627,-0.003908071666955948,-0.0019295981619507074,0.9981368184089661,0.0,0.0,0.0,2.605027198791504,-3.144625186920166,5.203351020812988,-471.5151062011719,0
1625.4220000000005,-0.018337968736886978,-0.003330174135044217,-0.0009954702109098434,0.0,0.0,0.0,0.0,-0.0002910355105996132,-0.0019269357435405254,0.002656342228874564,0.9990289807319641,0.0,0.0,0.0,2.602536916732788,-3.1429543495178223,5.195584774017334,-471.06439208984375,0
1635.335000000001,-0.018389282748103142,-0.0032883232925087214,-0.001066040713340044,0.0,0.0,0.0,0.0,-0.0028042432386428118,-0.0007758098072372377,0.0003970155376009643,0.9985477328300476,0.0,0.0,0.0,2.6007747650146484,-3.131911277770996,5.204413414001465,-470.7453918457031,0
1645.2350000000006,-0.018451428040862083,-0.0032260313164442778,-0.0011173428501933813,0.0,0.0,0.0,0.0,-0.002293336670845747,-0.0032072882167994976,-0.001040370436385274,0.998266875743866,0.0,0.0,0.0,2.5975289344787598,-3.1211166381835938,5.203178405761719,-470.15789794921875,0
1655.1630000000005,-0.018516195937991142,-0.0031627642456442118,-0.0011697167064994574,0.0,0.0,0.0,0.0,0.0013749258359894156,-0.00113977852743119,0.0019526166142895818,0.9993331432342529,0.0,0.0,0.0,2.5946991443634033,-3.10766863822937,5.205904006958008,-469.6457214355469,0
1665.0600000000013,-0.018584201112389565,-0.003097977489233017,-0.0012230032589286566,0.0,0.0,0.0,0.0,0.0012737889774143696,-0.0029966463334858418,0.002583622233942151,0.9977551698684692,0.0,0.0,0.0,2.5924530029296875,-3.1020326614379883,5.192385673522949,-469.2391662597656,0
1674.982,-0.01865505799651146,-0.003030588384717703,-0.0012773426715284586,0.0,0.0,0.0,0.0,0.0016492088325321674,-0.001191877294331789,0.003247851273044944,0.9990933537483215,0.0,0.0,0.0,2.589784860610962,-3.1008613109588623,5.193131923675537,-468.7561950683594,0
1684.8820000000014,-0.01749495230615139,-0.003802698338404298,-0.0002217820583609864,0.0,0.0,0.0,0.0,0.0027222547214478254,0.0025648074224591255,-0.0003358034009579569,1.0002293586730957,0.0,0.0,0.0,2.5995640754699707,-3.25930118560791,5.379819393157959,-470.5262451171875,0
1694.7980000000007,-0.01751481182873249,-0.003768614726141095,-0.00024086511984933168,0.0,0.0,0.0,0.0,0.0040673124603927135,0.002726428210735321,0.0025611165910959244,0.998301088809967,0.0,0.0,0.0,2.5980639457702637,-3.260249376296997,5.373208522796631,-470.25469970703125,0
1704.7030000000013,-0.01745470054447651,-0.0037965101655572653,-0.00026734222774393857,0.0,0.0,0.0,0.0,0.002626461209729314,-0.004156287759542465,-0.0007823039777576923,1.0016186237335205,0.0,0.0,0.0,2.6024417877197266,-3.279265880584717,5.367086410522461,-471.0471496582031,0
1714.6190000000006,-0.01747461035847664,-0.0037602896336466074,-0.0002883120905607939,0.0,0.0,0.0,0.0,0.0032530687749385834,0.0014219550648704171,-0.0012023213785141706,0.9988709092140198,0.0,0.0,0.0,2.5998013019561768,-3.279341220855713,5.366866111755371,-470.5692138671875,0
1724.527,-0.017439402639865875,-0.0037576400209218264,-0.00033485356834717095,0.0,0.0,0.0,0.0,0.0008411655435338616,-0.0013727244222536683,-0.0012072930112481117,0.9977736473083496,0.0,0.0,0.0,2.59586238861084,-3.276365280151367,5.3692145347595215,-469.85626220703125,0
1734.446,-0.01746143400669098,-0.0037174250464886427,-0.0003580204211175442,0.0,0.0,0.0,0.0,-0.0010436979355290532,-0.005076795816421509,0.001842454425059259,0.9982702732086182,0.0,0.0,0.0,2.593336343765259,-3.278716802597046,5.369230270385742,-469.3990478515625,0
1744.3469999999998,-0.017382312566041946,-0.0037017706781625748,-0.00040183268720284104,0.0,0.0,0.0,0.0,-0.002621930791065097,0.00046948337694630027,0.0033169551752507687,0.9981156587600708,0.0,0.0,0.0,2.613219738006592,-3.285993814468384,5.38494873046875,-472.99798583984375,0
1754.2710000000006,-0.01740364357829094,-0.003657509572803974,-0.00042987236520275474,0.0,0.0,0.0,0.0,0.0009257685742340982,0.002761788433417678,-0.002808142686262727,0.9996554255485535,0.0,0.0,0.0,2.610623359680176,-3.279301404953003,5.382871627807617,-472.52801513671875,0
1764.1689999999999,-0.0173963475972414,-0.0036379096563905478,-0.0004906191024929285,0.0,0.0,0.0,0.0,-0.00024957198183983564,-0.0029553526546806097,0.00032847211696207523,1.0012398958206177,0.0,0.0,0.0,2.6170597076416016,-3.2927682399749756,5.373551845550537,-473.6930236816406,0
1774.085000000001,-0.0174216590821743,-0.003590563777834177,-0.0005216739373281598,0.0,0.0,0.0,0.0,-0.0010109165450558066,-0.0007883159560151398,-4.1786126530496404e-05,1.0004675388336182,0.0,0.0,0.0,2.614255905151367,-3.292900562286377,5.3707709312438965,-473.185546875,0
1783.9920000000002,-0.017376858741044998,-0.0035669151693582535,-0.0005782052176073194,0.0,0.0,0.0,0.0,-0.003915458917617798,-0.0017196743283420801,0.001095509622246027,0.9999744892120361,0.0,0.0,0.0,2.6116039752960205,-3.284569501876831,5.371372222900391,-472.7054748535156,0
1793.9180000000015,-0.017404556274414062,-0.0035166298039257526,-0.0006098696030676365,0.0,0.0,0.0,0.0,0.0015654636081308126,0.0016986813861876726,0.0013660906115546823,0.9990662336349487,0.0,0.0,0.0,2.6088545322418213,-3.2762765884399414,5.36459493637085,-472.2078857421875,0
1803.826000000001,-0.01740318350493908,-0.0034866349305957556,-0.0006626989925280213,0.0,0.0,0.0,0.0,-0.0018710538279265165,-0.001026556477881968,0.005027334671467543,0.9998995065689087,0.0,0.0,0.0,2.6219804286956787,-3.287715196609497,5.36904239654541,-474.5836486816406,0
1813.7399999999998,-0.0174321997910738,-0.0034344594459980726,-0.000696496688760817,0.0,0.0,0.0,0.0,0.0010754275135695934,-0.001698469859547913,-0.002955945674329996,0.9990201592445374,0.0,0.0,0.0,2.62089467048645,-3.2793498039245605,5.370304584503174,-474.38714599609375,0
1823.6410000000014,-0.01740175113081932,-0.0034179065842181444,-0.0007599294185638428,0.0,0.0,0.0,0.0,0.0007128093857318163,0.003561262274160981,0.0013729706406593323,0.9977174997329712,0.0,0.0,0.0,2.639472007751465,-3.2991034984588623,5.387628078460693,-477.74969482421875,0
1833.5560000000005,-0.017432084307074547,-0.0033654163125902414,-0.0007976425113156438,0.0,0.0,0.0,0.0,0.0016804952174425125,-0.00033571376116015017,0.0013709914637729526,1.0020921230316162,0.0,0.0,0.0,2.63773512840271,-3.300795316696167,5.3703436851501465,-477.4353332519531,0
1843.4670000000006,-0.01739475503563881,-0.003351951949298382,-0.0008583329035900533,0.0,0.0,0.0,0.0,-0.003155555808916688,0.004416714888066053,-0.0006400991114787757,1.0007890462875366,0.0,0.0,0.0,2.6557228565216064,-3.3232717514038086,5.387686252593994,-480.69110107421875,0
1853.3760000000002,-0.017422936856746674,-0.003298989264294505,-0.0008974996162578464,0.0,0.0,0.0,0.0,0.0020681254100054502,-0.0029385448433458805,0.0007413563434965909,0.9985828995704651,0.0,0.0,0.0,2.6529457569122314,-3.3160109519958496,5.377379894256592,-480.1884460449219,0
1863.2810000000009,-0.01733390986919403,-0.003308449173346162,-0.0009532943367958069,0.0,0.0,0.0,0.0,0.001127743162214756,0.0062373001128435135,-0.002054044743999839,0.9983967542648315,0.0,0.0,0.0,2.6707565784454346,-3.3535730838775635,5.430753231048584,-483.4122314453125,0
1873.2040000000015,-0.01735759899020195,-0.003258588956668973,-0.0009951209649443626,0.0,0.0,0.0,0.0,-0.003731494303792715,0.004528307355940342,0.0018539313459768891,0.9992068409919739,0.0,0.0,0.0,2.6673262119293213,-3.3479557037353516,5.413869857788086,-482.7913818359375,0
1883.1090000000004,-0.017291245982050896,-0.003270682180300355,-0.0010478334734216332,0.0,0.0,0.0,0.0,-0.0014709042152389884,0.001913690473884344,0.002977171679958701,1.000776767730713,0.0,0.0,0.0,2.681790828704834,-3.3779683113098145,5.445547580718994,-485.40948486328125,0
1893.027,-0.01759485714137554,-0.0037873799446970224,-0.00025007661315612495,0.0,0.0,0.0,0.0,0.001489749294705689,-0.0010542020900174975,0.000768258876632899,0.9982331991195679,0.0,0.0,0.0,2.669339179992676,-3.479994297027588,5.3788275718688965,-483.15570068359375,0
1902.9300000000003,-0.01744566671550274,-0.003847116371616721,-0.00019564539252314717,0.0,0.0,0.0,0.0,0.0006505784695036709,0.0005188021459616721,-0.0005410407902672887,0.9983808994293213,0.0,0.0,0.0,2.6818301677703857,-3.4942142963409424,5.396265506744385,-485.4165954589844,0
1912.8469999999998,-0.017554210498929024,-0.003934504464268684,-0.00011379518400644884,0.0,0.0,0.0,0.0,0.0005365512333810329,-0.0017083380371332169,-0.00012797844829037786,0.9993501901626587,0.0,0.0,0.0,2.672327995300293,-3.5144667625427246,5.382974147796631,-483.6966857910156,0
1922.7489999999998,-0.01751270703971386,-0.0039539397694170475,-0.00010092974844155833,0.0,0.0,0.0,0.0,-0.0023322622291743755,0.0029870523139834404,-0.0015964286867529154,0.9996267557144165,0.0,0.0,0.0,2.671198844909668,-3.5108439922332764,5.382585048675537,-483.4923095703125,0
1932.6770000000015,-0.017586516216397285,-0.004014967940747738,-0.00010838252637768164,0.0,0.0,0.0,0.0,0.00128457834944129,-0.0009545189677737653,-0.00016767962370067835,1.0004620552062988,0.0,0.0,0.0,2.6617114543914795,-3.513068199157715,5.365394115447998,-481.77508544921875,0
1942.5690000000013,-0.017527377232909203,-0.004071306902915239,-0.00011069006723118946,0.0,0.0,0.0,0.0,0.002312838565558195,-0.0005222847103141248,0.00019286062160972506,1.0006047487258911,0.0,0.0,0.0,2.6672027111053467,-3.519886016845703,5.3632893562316895,-482.7690124511719,0
1952.4880000000012,-0.01760272867977619,-0.004082559607923031,-8.413309114985168e-05,0.0,0.0,0.0,0.0,0.0001839950418798253,-0.0022202797699719667,-0.0025899785105139017,0.999438464641571,0.0,0.0,0.0,2.664818525314331,-3.5214059352874756,5.35341739654541,-482.33746337890625,0
1962.3910000000014,-0.017528042197227478,-0.004077328369021416,-4.020900814794004e-05,0.0,0.0,0.0,0.0,0.0004512385930866003,0.0007864647777751088,-0.0015019922284409404,0.9992038607597351,0.0,0.0,0.0,2.674604892730713,-3.5219104290008545,5.357069969177246,-484.1087951660156,0
1972.3140000000003,-0.017558451741933823,-0.004057680256664753,-5.427564974525012e-05,0.0,0.0,0.0,0.0,-8.136912583722733e-06,0.0010053582955151796,0.00020514443167485297,0.9999340176582336,0.0,0.0,0.0,2.6714463233947754,-3.5164036750793457,5.352103233337402,-483.537109375,0
1982.2210000000014,-0.017504043877124786,-0.004050209652632475,-2.172252061427571e-05,0.0,0.0,0.0,0.0,7.318818825297058e-05,-0.0024869926273822784,-0.0023066019639372826,0.9975054860115051,0.0,0.0,0.0,2.6811439990997314,-3.5117440223693848,5.347964763641357,-485.2923889160156,0
1992.1329999999998,-0.017537271603941917,-0.004029108211398125,-3.2571224437560886e-05,0.0,0.0,0.0,0.0,-0.0006300240056589246,0.0012465445324778557,0.0009702339884825051,0.9994311928749084,0.0,0.0,0.0,2.6721785068511963,-3.509012460708618,5.3504486083984375,-483.6696472167969,0
2002.0380000000005,-0.01757146790623665,-0.003994783386588097,-3.2523643312742934e-05,0.0,0.0,0.0,0.0,-0.0025889051612466574,0.0026882204692810774,-0.0017510132165625691,0.9986433982849121,0.0,0.0,0.0,2.6823883056640625,-3.5005550384521484,5.345626354217529,-485.51763916015625,0
2011.964,-0.017604803666472435,-0.003965307492762804,-4.736557093565352e-05,0.0,0.0,0.0,0.0,0.0007079103379510343,0.002062237821519375,-0.0008767616236582398,0.9988674521446228,0.0,0.0,0.0,2.6803414821624756,-3.4895129203796387,5.33885383605957,-485.14715576171875,0
2021.866,-0.017524845898151398,-0.003966476768255234,-6.263012437557336e-06,0.0,0.0,0.0,0.0,-0.0019759992137551308,0.003248762572184205,0.002682681893929839,0.9976508617401123,0.0,0.0,0.0,2.6912200450897217,-3.496587038040161,5.3397064208984375,-487.1161804199219,0
2031.7800000000007,-0.017536258324980736,-0.0039392635226249695,-5.278122262097895e-05,0.0,0.0,0.0,0.0,-0.003556452225893736,-0.0016679986147210002,-0.0013482474023476243,0.998346209526062,0.0,0.0,0.0,2.6830577850341797,-3.4840235710144043,5.338285446166992,-485.6387939453125,0
2041.6800000000003,-0.01746291108429432,-0.003975954372435808,-3.920380913768895e-05,0.0,0.0,0.0,0.0,-0.002512455452233553,-0.002604665467515588,0.0027849378529936075,0.9973025321960449,0.0,0.0,0.0,2.693476676940918,-3.485846996307373,5.338052749633789,-487.524658203125,0
2051.6010000000006,-0.017497893422842026,-0.0039812419563531876,-8.575279207434505e-05,0.0,0.0,0.0,0.0,0.0025174147449433804,-0.0020601029973477125,0.00017207417113240808,0.9959514141082764,0.0,0.0,0.0,2.6847550868988037,-3.481140375137329,5.342024326324463,-485.94598388671875,0
2061.506000000001,-0.01745307818055153,-0.003990360535681248,-8.120980783132836e-05,0.0,0.0,0.0,0.0,-0.0016828281804919243,-0.0034506507217884064,-0.002294189529493451,1.0006030797958374,0.0,0.0,0.0,2.6967883110046387,-3.481092929840088,5.360365867614746,-488.1240234375,0
2071.4270000000015,-0.017483385279774666,-0.003963641822338104,-0.00011928741878364235,0.0,0.0,0.0,0.0,0.0017509155441075563,0.0005220999009907246,0.0004024034133180976,0.9994719624519348,0.0,0.0,0.0,2.693687677383423,-3.4767088890075684,5.350851058959961,-487.5628356933594,0
2081.3250000000007,-0.017482461407780647,-0.003939406480640173,-0.00012491756933741271,0.0,0.0,0.0,0.0,0.0014930038014426827,-3.470529190963134e-05,-0.0019387106876820326,0.9988257884979248,0.0,0.0,0.0,2.7015624046325684,-3.480281114578247,5.347168445587158,-488.9881591796875,0
2091.241,-0.017584389075636864,-0.0039496226236224174,-0.00012000700371572748,0.0,0.0,0.0,0.0,0.0009855602402240038,-0.0025998151395469904,-0.0015963574405759573,0.9986615180969238,0.0,0.0,0.0,2.6992475986480713,-3.4793992042541504,5.343703746795654,-488.5692138671875,0
2101.1540000000005,-0.01757340505719185,-0.003959294408559799,-0.00013376871356740594,0.0,0.0,0.0,0.0,0.0018751209136098623,0.002664318075403571,-0.0009734196937642992,1.0000789165496826,0.0,0.0,0.0,2.7078258991241455,-3.484981060028076,5.356377124786377,-490.121826171875,0
2111.072,-0.017643984407186508,-0.003960957285016775,-0.00014878585352562368,0.0,0.0,0.0,0.0,-0.0022883955389261246,-0.0005945904413238168,0.0005657203728333116,0.9989749789237976,0.0,0.0,0.0,2.705007791519165,-3.481905937194824,5.349087238311768,-489.61175537109375,0
2120.9719999999998,-0.01763059012591839,-0.003929693717509508,-0.00013616550131700933,0.0,0.0,0.0,0.0,-0.0013902431819587946,0.0007078110356815159,0.0011879010125994682,0.9975311756134033,0.0,0.0,0.0,2.7144153118133545,-3.4729397296905518,5.352790355682373,-491.3146057128906,0
2130.8860000000004,-0.01770121604204178,-0.003932490944862366,-0.00015361882105935365,0.0,0.0,0.0,0.0,0.00201668799854815,-0.0043917191214859486,-0.0019552824087440968,0.9989007115364075,0.0,0.0,0.0,2.7046892642974854,-3.4713809490203857,5.345948219299316,-489.5541687011719,0
