timestamp,stateEstimate.x,stateEstimate.y,stateEstimate.z,controller.cmd_thrust,controller.cmd_roll,controller.cmd_pitch,controller.cmd_yaw,controller.r_roll,controller.r_pitch,controller.r_yaw,controller.accelz,controller.actuatorThrust,controller.roll,controller.pitch,controller.yaw,controller.rollRate,controller.pitchRate,controller.yawRate,controller.ctr_yaw
0.0,9.25620952330064e-06,0.00020299704920034856,-0.00028597991331480443,0.0,0.0,0.0,0.0,-0.0002322530490346253,-0.0011532210046425462,-0.0013692291686311364,0.998934805393219,0.0,0.0,0.0,0.37727996706962585,-4.637415409088135,4.8262619972229,-68.28842163085938,0
9.90899999999965,-3.5583419958129525e-05,0.0002598217688500881,-0.0002969040651805699,0.0,0.0,0.0,0.0,0.0005341368378140032,-0.0027975242119282484,0.00036567801726050675,0.9991227984428406,0.0,0.0,0.0,0.3761994540691376,-4.63755464553833,4.820138454437256,-68.09284973144531,0
19.822000000000116,-2.021562249865383e-05,0.0001700432039797306,-0.0002822339301928878,0.0,0.0,0.0,0.0,-0.0014354548184201121,-0.00032235714024864137,-0.0038119181990623474,1.0009243488311768,0.0,0.0,0.0,0.376166433095932,-4.634310245513916,4.819802284240723,-68.08687591552734,0
29.730999999999767,-6.588862015632913e-05,0.00022474741854239255,-0.00029247079510241747,0.0,0.0,0.0,0.0,-0.0010578902438282967,0.0024673077277839184,-0.004514344036579132,0.9999324679374695,0.0,0.0,0.0,0.37502041459083557,-4.622159957885742,4.818790912628174,-67.87943267822266,0
39.65099999999984,-1.278071340493625e-05,0.00014317964087240398,-0.00025081628700718284,0.0,0.0,0.0,0.0,0.0022427267394959927,-0.00223481934517622,0.0022100862115621567,1.000673532485962,0.0,0.0,0.0,0.3822876811027527,-4.628465175628662,4.833409309387207,-69.19482421875,0
49.55400000000009,-6.014081372995861e-05,0.00020274511189199984,-0.0002565939794294536,0.0,0.0,0.0,0.0,0.001137187471613288,0.0036492624785751104,-0.0015150831313803792,1.0001425743103027,0.0,0.0,0.0,0.3834843039512634,-4.625277042388916,4.833488941192627,-69.41142272949219,0
59.47400000000016,-2.2020918549969792e-05,0.00013197508815210313,-0.00023381381470244378,0.0,0.0,0.0,0.0,-0.0012648277916014194,-0.0017172903753817081,9.692159073892981e-05,1.0029921531677246,0.0,0.0,0.0,0.37620052695274353,-4.63411283493042,4.81315803527832,-68.0930404663086,0
69.3809999999994,-0.00015485714538954198,6.794512592023239e-05,-0.00020593436784110963,0.0,0.0,0.0,0.0,-0.0007762744789943099,0.00022629034356214106,0.0017747110687196255,1.001855492591858,0.0,0.0,0.0,0.3756678104400635,-4.6295013427734375,4.812279224395752,-67.99661254882812,0
79.29999999999927,-4.2299445340177044e-05,1.969879122043494e-05,-0.00017370183195453137,0.0,0.0,0.0,0.0,0.004699422977864742,0.0018030492356047034,0.0007386872894130647,0.9995513558387756,0.0,0.0,0.0,0.3843854069709778,-4.641979694366455,4.835108757019043,-69.57452392578125,0
89.19999999999891,-7.483828085241839e-05,7.110393926268443e-05,-0.00019098093616776168,0.0,0.0,0.0,0.0,0.0006101344479247928,-0.0010922147193923593,0.0014621958835050464,0.9997268319129944,0.0,0.0,0.0,0.3766688406467438,-4.641167640686035,4.833821773529053,-68.17781066894531,0
99.11099999999897,-2.3709524612058885e-05,4.417841773829423e-05,-0.0001818592136260122,0.0,0.0,0.0,0.0,0.00013909801782574505,0.0008388341520912945,0.0022409462835639715,1.001863718032837,0.0,0.0,0.0,0.37510910630226135,-4.6367506980896,4.829105854034424,-67.89549255371094,0
109.02199999999903,-7.21809410606511e-05,8.671914838487282e-05,-0.00018278042261954397,0.0,0.0,0.0,0.0,-0.002569739706814289,-0.004061347339302301,-0.0023260070011019707,0.9985813498497009,0.0,0.0,0.0,0.3755371868610382,-4.632966041564941,4.825493812561035,-67.97296905517578,0
118.9380000000001,-8.934544894145802e-06,3.30718066834379e-05,-0.000180701696081087,0.0,0.0,0.0,0.0,0.00454132491722703,0.0009728272561915219,0.002099980367347598,0.9991691708564758,0.0,0.0,0.0,0.37471869587898254,-4.626277923583984,4.828205585479736,-67.8248291015625,0
128.84499999999935,-5.8405268646311015e-05,6.848796328995377e-05,-0.00018327770521864295,0.0,0.0,0.0,0.0,-0.002009759424254298,-0.001927486970089376,0.00020441673405002803,0.9984199404716492,0.0,0.0,0.0,0.37489035725593567,-4.629749298095703,4.820042133331299,-67.85590362548828,0
138.7559999999994,-2.9904476832598448e-05,7.01860772096552e-05,-0.0001683628506725654,0.0,0.0,0.0,0.0,-0.0003550695546437055,-0.0012943744659423828,-0.000912357703782618,0.9997669458389282,0.0,0.0,0.0,0.37473347783088684,-4.618338584899902,4.8189826011657715,-67.82749938964844,0
148.66899999999987,-0.0001233104703715071,5.647900979965925e-05,-0.0001576966606080532,0.0,0.0,0.0,0.0,0.0018999542808160186,-0.001567258732393384,-0.0002655023999977857,1.0022178888320923,0.0,0.0,0.0,0.36587339639663696,-4.621913909912109,4.810810565948486,-66.22381591796875,0
158.58899999999994,-5.805548425996676e-05,3.7089830584591255e-05,-0.00013264347217045724,0.0,0.0,0.0,0.0,-0.0017008838476613164,-0.005184503737837076,-0.0009891368681564927,1.0006743669509888,0.0,0.0,0.0,0.3659735321998596,-4.616835117340088,4.804729461669922,-66.24193572998047,0
168.48999999999978,-8.85539993760176e-05,8.453147893305868e-05,-0.00015273602912202477,0.0,0.0,0.0,0.0,-0.001776915043592453,0.0009274671319872141,-0.0018793626222759485,0.999884843826294,0.0,0.0,0.0,0.3649898171424866,-4.608521938323975,4.812622547149658,-66.06388854980469,0
178.39999999999964,-4.1844243241939694e-05,5.7854133046930656e-05,-0.0001426681556040421,0.0,0.0,0.0,0.0,-0.0001313297834713012,-0.0030001814011484385,-0.0005866222782060504,0.9984195232391357,0.0,0.0,0.0,0.3634183406829834,-4.600860118865967,4.804932117462158,-65.7794418334961,0
188.3099999999995,-8.042227273108438e-05,8.761085337027907e-05,-0.00016387231880798936,0.0,0.0,0.0,0.0,0.0006078299484215677,-0.0026730168610811234,-0.003116160398349166,0.9995357990264893,0.0,0.0,0.0,0.36222609877586365,-4.594897747039795,4.800667762756348,-65.56364440917969,0
198.22899999999936,-5.0061207730323076e-05,0.00010225779260508716,-0.00014003606338519603,0.0,0.0,0.0,0.0,-0.002359155798330903,0.0046530901454389095,-0.0065227472223341465,1.0014702081680298,0.0,0.0,0.0,0.3614421784877777,-4.585637092590332,4.808903694152832,-65.42176055908203,0
208.14199999999983,-9.282350947614759e-05,0.00011634857946773991,-0.0001705451140878722,0.0,0.0,0.0,0.0,0.00016879408212844282,-0.0028770137578248978,0.0028112265281379223,1.0004774332046509,0.0,0.0,0.0,0.3588915765285492,-4.575275897979736,4.797365665435791,-64.96009063720703,0
218.0540000000001,4.846652700507548e-06,5.2786072046728805e-05,-0.00015409472689498216,0.0,0.0,0.0,0.0,-0.0019225092837587,-0.00528289470821619,-6.361195119097829e-05,1.0006988048553467,0.0,0.0,0.0,0.36778712272644043,-4.587318420410156,4.820913314819336,-66.57019805908203,0
227.96099999999933,-7.082160300342366e-05,2.954255251097493e-05,-0.00016290888015646487,0.0,0.0,0.0,0.0,0.0027191187255084515,0.0013480923371389508,-0.00048403319669887424,0.9986222982406616,0.0,0.0,0.0,0.3609258234500885,-4.591091632843018,4.824131488800049,-65.32830047607422,0
237.8719999999994,-2.538184889999684e-05,4.746780177811161e-05,-0.0001249570632353425,0.0,0.0,0.0,0.0,0.0016885243821889162,0.00014527617895510048,0.00019516916654538363,0.9998022317886353,0.0,0.0,0.0,0.3701525032520294,-4.599741458892822,4.831852436065674,-66.99834442138672,0
247.77999999999884,-6.50162692181766e-05,8.696709119249135e-05,-0.00013766094343736768,0.0,0.0,0.0,0.0,-0.0027003444265574217,0.001740911160595715,-0.0017830893630161881,0.9985783100128174,0.0,0.0,0.0,0.36949601769447327,-4.59637451171875,4.830333709716797,-66.87950897216797,0
257.6929999999993,-4.346500281826593e-05,9.999128087656572e-05,-0.00011911213368875906,0.0,0.0,0.0,0.0,-0.001793273026123643,-0.0026736522559076548,-0.0017131672939285636,0.9988923668861389,0.0,0.0,0.0,0.3677634596824646,-4.591211795806885,4.826493263244629,-66.56591033935547,0
267.60099999999875,-6.296747596934438e-05,0.00016358605353161693,-0.0001476132165407762,0.0,0.0,0.0,0.0,-0.0013492058496922255,-0.002576920436695218,0.0010126883862540126,1.0010043382644653,0.0,0.0,0.0,0.3605141341686249,-4.578432083129883,4.834192752838135,-65.2537841796875,0
277.5110000000004,-3.753571945708245e-05,0.00015346721920650452,-0.0001416673621861264,0.0,0.0,0.0,0.0,-0.00012600109039340168,0.003797698300331831,7.218353857751936e-05,1.0006113052368164,0.0,0.0,0.0,0.36065030097961426,-4.571648597717285,4.832290172576904,-65.27842712402344,0
287.4220000000005,-8.79484141478315e-05,0.0001644940784899518,-0.00016592441534157842,0.0,0.0,0.0,0.0,-0.0010080328211188316,8.888837328413501e-05,0.0006181956850923598,0.9989206194877625,0.0,0.0,0.0,0.36039626598358154,-4.571647644042969,4.82015323638916,-65.23243713378906,0
297.34100000000035,-5.106646858621389e-05,0.00015876980614848435,-0.00015050821821205318,0.0,0.0,0.0,0.0,0.0032264154870063066,0.000743042619433254,-0.003214001888409257,0.9996225237846375,0.0,0.0,0.0,0.3597182333469391,-4.565090179443359,4.815186977386475,-65.1097183227539,0
307.244999999999,-0.00011251218529650941,0.00016286048048641533,-0.00016818924632389098,0.0,0.0,0.0,0.0,0.002300170250236988,-0.0002708545362111181,-0.00025198268122039735,1.00078284740448,0.0,0.0,0.0,0.3579646348953247,-4.5621232986450195,4.806236743927002,-64.79231262207031,0
317.15599999999904,-6.31843286100775e-05,0.000136178670800291,-0.00015928324137348682,0.0,0.0,0.0,0.0,-0.0002695373259484768,-0.0008052929188124835,-0.0006982662016525865,0.9986962080001831,0.0,0.0,0.0,0.36341801285743713,-4.5752058029174805,4.823362827301025,-65.77938079833984,0
327.0669999999991,-8.375127072213218e-05,0.00020596018293872476,-0.0001859181938925758,0.0,0.0,0.0,0.0,0.0009264567052014172,-0.0016667286399751902,-0.0004443486104719341,1.0002458095550537,0.0,0.0,0.0,0.35434532165527344,-4.565556049346924,4.82663106918335,-64.13721466064453,0
336.97799999999916,1.6427156879217364e-06,0.0001676411193329841,-0.0001691749639576301,0.0,0.0,0.0,0.0,0.00034287720336578786,-0.0003112019912805408,-0.0024581372272223234,1.0015085935592651,0.0,0.0,0.0,0.36509713530540466,-4.578972816467285,4.845685005187988,-66.08331298828125,0
346.89899999999943,-5.558540942729451e-05,0.00019538227934390306,-0.00017693490372039378,0.0,0.0,0.0,0.0,-0.00016247083840426058,0.0016861231997609138,0.0013645637081936002,1.0015556812286377,0.0,0.0,0.0,0.3635970652103424,-4.581175804138184,4.837824821472168,-65.8117904663086,0
356.8069999999989,4.665692904382013e-05,0.00011136758985230699,-0.00017610158829484135,0.0,0.0,0.0,0.0,0.0023019046057015657,-0.00553518533706665,0.0017360711935907602,0.9991158843040466,0.0,0.0,0.0,0.3749677836894989,-4.603767395019531,4.852808475494385,-67.86991882324219,0
366.71399999999994,-3.450585063546896e-05,0.00010124170512426645,-0.00017463859694544226,0.0,0.0,0.0,0.0,0.004917303565889597,0.004758583847433329,-0.0014002296375110745,0.9991474747657776,0.0,0.0,0.0,0.3682667315006256,-4.612771987915039,4.854010105133057,-66.65702056884766,0
376.6270000000004,2.7962090825894848e-05,5.241588951321319e-05,-0.00017323366773780435,0.0,0.0,0.0,0.0,-0.0005633384571410716,-0.0022417311556637287,-0.003037859220057726,0.9982631802558899,0.0,0.0,0.0,0.3780430853366852,-4.634287357330322,4.855732440948486,-68.42654418945312,0
386.53999999999905,-3.397372711333446e-05,7.822134648449719e-05,-0.00017340743215754628,0.0,0.0,0.0,0.0,-0.0014358566841110587,-0.0009724412811920047,0.0006145619554445148,0.9993839263916016,0.0,0.0,0.0,0.3668955862522125,-4.628084182739258,4.857672214508057,-66.40882873535156,0
396.4489999999987,3.804930383921601e-05,3.254428520449437e-05,-0.0001643853756831959,0.0,0.0,0.0,0.0,0.0016952963778749108,0.0016203494742512703,-0.0006374434451572597,1.0008307695388794,0.0,0.0,0.0,0.3809174597263336,-4.641702175140381,4.879522323608398,-68.94682312011719,0
406.3629999999994,-2.2913698558113538e-05,5.444229464046657e-05,-0.00017140668933279812,0.0,0.0,0.0,0.0,0.001676648622378707,7.864398503443226e-05,0.0013249266194179654,1.0002797842025757,0.0,0.0,0.0,0.38100337982177734,-4.642053127288818,4.88022518157959,-68.96236419677734,0
416.2709999999988,-5.165185939404182e-06,7.11253669578582e-05,-0.00015307062130887061,0.0,0.0,0.0,0.0,-0.00032474874751642346,0.0008447656291536987,9.440910071134567e-05,0.997439444065094,0.0,0.0,0.0,0.39389657974243164,-4.649782657623291,4.879881381988525,-71.29606628417969,0
426.1880000000001,-4.169531166553497e-06,0.0001574497000547126,-0.00019969393906649202,0.0,0.0,0.0,0.0,0.00196955818682909,-0.0003601631324272603,-0.0008995336829684675,0.9983352422714233,0.0,0.0,0.0,0.38366803526878357,-4.6372880935668945,4.886342525482178,-69.44468688964844,0
436.09499999999935,-1.0658443898137193e-05,0.00016036095621529967,-0.00021329251467250288,0.0,0.0,0.0,0.0,0.0005154338432475924,0.004866424482315779,-0.0013586384011432528,0.9995077252388,0.0,0.0,0.0,0.39186498522758484,-4.644224643707275,4.885228157043457,-70.9283447265625,0
446.0059999999994,-3.221787483198568e-05,0.0002169302897527814,-0.0002591067459434271,0.0,0.0,0.0,0.0,-0.0022343650925904512,0.003260751022025943,-0.0004611093027051538,1.0013335943222046,0.0,0.0,0.0,0.38252800703048706,-4.63950777053833,4.8715643882751465,-69.23832702636719,0
455.91399999999885,-1.544371116324328e-05,0.00019846094073727727,-0.0002793892053887248,0.0,0.0,0.0,0.0,0.0017381742363795638,0.0021155960857868195,-0.0014039776287972927,1.0002331733703613,0.0,0.0,0.0,0.390449196100235,-4.6431684494018555,4.868039131164551,-70.67208099365234,0
465.8239999999987,-0.00012161293852841482,0.00017218326684087515,-0.0002761129289865494,0.0,0.0,0.0,0.0,-0.0013502479996532202,0.004081989172846079,-0.0012159909820184112,0.9988434910774231,0.0,0.0,0.0,0.3824174106121063,-4.653259754180908,4.845943450927734,-69.21830749511719,0
475.7459999999992,-3.378117980901152e-05,0.00013392257096711546,-0.00026401097420603037,0.0,0.0,0.0,0.0,0.0021936206612735987,-0.0018931302474811673,-0.003305985825136304,0.9983582496643066,0.0,0.0,0.0,0.3827565908432007,-4.645145416259766,4.832901954650879,-69.27970123291016,0
485.64799999999923,-0.00011248142254771665,0.00014071122859604657,-0.0002701050543691963,0.0,0.0,0.0,0.0,1.2060821973136626e-05,0.0006970005924813449,-0.0006556739681400359,0.9996799230575562,0.0,0.0,0.0,0.37333130836486816,-4.644789695739746,4.827605724334717,-67.57371520996094,0
495.5579999999991,-5.984478775644675e-05,0.0001183542117360048,-0.00026407887344248593,0.0,0.0,0.0,0.0,-0.0014160010032355785,0.0033680915366858244,-0.0023263872135430574,0.9999310970306396,0.0,0.0,0.0,0.3835617005825043,-4.6543755531311035,4.835378646850586,-69.42543029785156,0
505.4830000000002,-9.315164061263204e-05,0.00018956363783217967,-0.00028138799825683236,0.0,0.0,0.0,0.0,0.0007992850150913,-0.0032275270204991102,-0.0014376521576195955,0.9993011951446533,0.0,0.0,0.0,0.37409284710884094,-4.640665054321289,4.826521873474121,-67.71155548095703,0
515.3819999999996,-1.2093632903997786e-05,0.00014695149729959667,-0.0002766657271422446,0.0,0.0,0.0,0.0,-0.0017275792779400945,-0.00012467919441405684,0.002370139816775918,0.9988555908203125,0.0,0.0,0.0,0.37303227186203003,-4.637980937957764,4.821630954742432,-67.51959228515625,0
525.2970000000005,-0.00015832282952032983,7.306658517336473e-05,-0.0002449216553941369,0.0,0.0,0.0,0.0,-0.0039115119725465775,-0.0019510699203237891,-0.00014216775889508426,0.9992920160293579,0.0,0.0,0.0,0.36690014600753784,-4.650544166564941,4.808077812194824,-66.40965270996094,0
535.2019999999993,-0.00010711981303757057,7.791302050463855e-05,-0.00021898811974097043,0.0,0.0,0.0,0.0,8.05982926976867e-05,-0.0020708004012703896,-0.003525880165398121,0.999870777130127,0.0,0.0,0.0,0.3762434422969818,-4.648900985717773,4.819821357727051,-68.10081481933594,0
545.1180000000004,-0.0001967822026927024,7.049635314615443e-05,-0.00021229423873592168,0.0,0.0,0.0,0.0,-0.0006772282649762928,-0.0010135334450751543,-0.0006931736716069281,1.0000349283218384,0.0,0.0,0.0,0.37510961294174194,-4.649346351623535,4.8212432861328125,-67.89558410644531,0
555.0259999999998,-0.00010157174983760342,4.8811234591994435e-05,-0.00017653091344982386,0.0,0.0,0.0,0.0,-0.0021931000519543886,-0.003282261313870549,-0.0009593666763976216,0.9998610615730286,0.0,0.0,0.0,0.3872491419315338,-4.659372806549072,4.843869686126709,-70.09286499023438,0
564.9509999999991,-0.00018115306738764048,4.31849475717172e-05,-0.00017342640785500407,0.0,0.0,0.0,0.0,0.0005407033022493124,0.000603996857535094,0.0005963357398286462,0.9985854625701904,0.0,0.0,0.0,0.37865251302719116,-4.655129909515381,4.8481645584106445,-68.53684997558594,0
574.851999999999,-0.00011708268721122295,3.0671872082166374e-05,-0.00014565423771273345,0.0,0.0,0.0,0.0,-5.215960118221119e-05,0.0019305021269246936,-0.0009247001144103706,1.0005271434783936,0.0,0.0,0.0,0.38868096470832825,-4.664645671844482,4.85945987701416,-70.3520278930664,0
584.7639999999992,-0.0001428005052730441,5.7957095123128965e-05,-0.0001899850321933627,0.0,0.0,0.0,0.0,-0.0005324197700247169,0.004270992707461119,-0.00038465074612759054,1.0021377801895142,0.0,0.0,0.0,0.37865039706230164,-4.6627888679504395,4.847675800323486,-68.5364761352539,0
594.6700000000001,-9.513786062598228e-05,5.2538805903168395e-05,-0.00017022990505211055,0.0,0.0,0.0,0.0,0.0038430970162153244,-0.0007732005324214697,-0.00039016848313622177,1.0012811422348022,0.0,0.0,0.0,0.3859293460845947,-4.6716227531433105,4.847042560577393,-69.85397338867188,0
604.5889999999999,-0.00013201731781009585,6.0231297538848594e-05,-0.0002096625103149563,0.0,0.0,0.0,0.0,0.0006872093654237688,-0.0006425311439670622,-0.0013144923141226172,0.9996015429496765,0.0,0.0,0.0,0.37873950600624084,-4.680673599243164,4.848137855529785,-68.55260467529297,0
614.5010000000002,-9.301185491494834e-05,7.032969733700156e-05,-0.00018917718261945993,0.0,0.0,0.0,0.0,-6.323045090539381e-05,0.00343680614605546,0.0018129574600607157,1.0002467632293701,0.0,0.0,0.0,0.38589757680892944,-4.6813554763793945,4.85963773727417,-69.84822845458984,0
624.4099999999999,-0.00012847353355027735,0.00010522908269194886,-0.00020800459606107324,0.0,0.0,0.0,0.0,0.0017435840563848615,0.003782140789553523,0.0017898017540574074,1.0007257461547852,0.0,0.0,0.0,0.38635098934173584,-4.6784820556640625,4.848170757293701,-69.9302978515625,0
634.3159999999989,-7.976701454026625e-06,4.928919588564895e-05,-0.0001808070228435099,0.0,0.0,0.0,0.0,-0.001438749604858458,-0.0017264229245483875,-0.00027833011699840426,1.000030279159546,0.0,0.0,0.0,0.3926672339439392,-4.697508335113525,4.869124889373779,-71.07354736328125,0
644.241,-5.1160077418899164e-05,7.306526822503656e-05,-0.0001902000221889466,0.0,0.0,0.0,0.0,-4.014985097455792e-05,0.0016086705727502704,-0.0010632758494466543,1.0033096075057983,0.0,0.0,0.0,0.39120206236839294,-4.688223361968994,4.867005825042725,-70.80835723876953,0
654.1369999999988,2.51459041464841e-05,2.9708178772125393e-05,-0.0001764838380040601,0.0,0.0,0.0,0.0,-0.001697014318779111,0.0027102066669613123,-0.0015656559262424707,1.0016857385635376,0.0,0.0,0.0,0.39975225925445557,-4.701511859893799,4.883607387542725,-72.35595703125,0
664.0630000000001,-2.008180490520317e-05,5.3830961405765265e-05,-0.0001831246045185253,0.0,0.0,0.0,0.0,-0.002173946937546134,-0.0006660710787400603,-0.0008482332341372967,0.9998471140861511,0.0,0.0,0.0,0.39815208315849304,-4.692894458770752,4.871917247772217,-72.06632232666016,0
673.9589999999989,4.5453129132511094e-05,1.650156991672702e-05,-0.00016958569176495075,0.0,0.0,0.0,0.0,0.0013552550226449966,0.004835105035454035,-0.0020809764973819256,1.0017212629318237,0.0,0.0,0.0,0.409280002117157,-4.705564022064209,4.886632442474365,-74.08049011230469,0
683.8819999999996,2.8990505597903393e-05,5.441626126412302e-05,-0.00020427214622031897,0.0,0.0,0.0,0.0,0.0005809699650853872,0.0047199297696352005,-0.0024306627456098795,1.0014886856079102,0.0,0.0,0.0,0.40131184458732605,-4.7018256187438965,4.881984233856201,-72.63823699951172,0
693.7860000000001,6.454619324358646e-06,8.762206562096253e-05,-0.0001999925443669781,0.0,0.0,0.0,0.0,-0.003326509613543749,-0.0013680983101949096,0.0027290349826216698,0.9996700882911682,0.0,0.0,0.0,0.399661660194397,-4.696892738342285,4.873183727264404,-72.33956146240234,0
703.7049999999999,-1.861901728261728e-05,0.00010267681500408798,-0.00024490320356562734,0.0,0.0,0.0,0.0,0.0011778739280998707,0.0005031001637689769,0.005003070458769798,0.9986484050750732,0.0,0.0,0.0,0.40045973658561707,-4.684692859649658,4.874172210693359,-72.4840087890625,0
713.6039999999994,-2.2204842025530525e-05,0.00012087980576325208,-0.0002392192545812577,0.0,0.0,0.0,0.0,-0.0013653781497851014,0.0008355379686690867,-0.004318088758736849,0.9982094168663025,0.0,0.0,0.0,0.4109073877334595,-4.689865589141846,4.87190055847168,-74.37506103515625,0
723.527,-5.553065057029016e-05,0.0001422735076630488,-0.00027948745992034674,0.0,0.0,0.0,0.0,0.0012727113207802176,0.0010919731575995684,-0.0022032130509614944,0.9998829960823059,0.0,0.0,0.0,0.4023897647857666,-4.685090065002441,4.86861515045166,-72.83334350585938,0
733.4279999999999,-3.435321195865981e-05,0.00015433637599926442,-0.000268601521383971,0.0,0.0,0.0,0.0,0.0013753268867731094,0.00415225001052022,-0.0010809717932716012,0.9984506368637085,0.0,0.0,0.0,0.4089706540107727,-4.691112041473389,4.875088214874268,-74.02450561523438,0
743.3490000000002,-5.316112219588831e-05,0.000218305824091658,-0.0003033621178474277,0.0,0.0,0.0,0.0,0.0011070406762883067,-0.0012846083845943213,0.0017309930408373475,0.9989973306655884,0.0,0.0,0.0,0.40075767040252686,-4.680661678314209,4.875951766967773,-72.5379409790039,0
753.2579999999998,-6.480498086602893e-06,0.00020471832249313593,-0.0002952227368950844,0.0,0.0,0.0,0.0,-0.0029453495517373085,0.002512012142688036,-0.0003488613583613187,0.9993083477020264,0.0,0.0,0.0,0.40724465250968933,-4.6890411376953125,4.888699531555176,-73.71208953857422,0
763.1749999999993,-0.00011020110105164349,0.0001743749453453347,-0.00028200706583447754,0.0,0.0,0.0,0.0,-0.002272828482091427,-0.00112222321331501,-0.0008659379673190415,0.9998444318771362,0.0,0.0,0.0,0.39876556396484375,-4.694535255432129,4.871444225311279,-72.17736053466797,0
773.0720000000001,-4.717816773336381e-05,0.0001521095255156979,-0.0002637671132106334,0.0,0.0,0.0,0.0,-0.0005770770367234945,-0.0006709446897730231,0.00016899585898499936,0.9983150959014893,0.0,0.0,0.0,0.4041886031627655,-4.6912102699279785,4.886578559875488,-73.15894317626953,0
782.9979999999996,-0.00011789142445195466,0.00014982864377088845,-0.00027170643443241715,0.0,0.0,0.0,0.0,0.0026259897276759148,0.0020217031706124544,0.00010295207175659016,0.9991922974586487,0.0,0.0,0.0,0.40265917778015137,-4.67929220199585,4.886598110198975,-72.88211059570312,0
792.8950000000004,-6.12710282439366e-05,0.00012274307664483786,-0.0002597263373900205,0.0,0.0,0.0,0.0,-0.00012105645146220922,-0.0008329605916514993,-1.8617784007801674e-05,1.0006786584854126,0.0,0.0,0.0,0.41457945108413696,-4.697391510009766,4.899133205413818,-75.03971099853516,0
802.8199999999997,-0.0001217585158883594,0.0001343354961136356,-0.00026975656510330737,0.0,0.0,0.0,0.0,0.00011272203119006008,0.0007027987157925963,-0.00043910942622460425,1.0018560886383057,0.0,0.0,0.0,0.41451120376586914,-4.693203926086426,4.8918328285217285,-75.02735137939453,0
812.7199999999993,-3.561168341548182e-05,0.00010411751281935722,-0.00024375561042688787,0.0,0.0,0.0,0.0,-0.0005920501425862312,-0.00219570379704237,0.0021976253483444452,1.0005571842193604,0.0,0.0,0.0,0.41313856840133667,-4.6866044998168945,4.890231132507324,-74.77890014648438,0
822.6409999999996,-0.00010561214003246278,8.606874325778335e-05,-0.0002538670087233186,0.0,0.0,0.0,0.0,-0.0010768217034637928,0.00532291317358613,-0.0007300446159206331,0.9992403388023376,0.0,0.0,0.0,0.4027777314186096,-4.691957473754883,4.877737045288086,-72.90357208251953,0
832.5389999999989,-7.109577563824132e-05,0.00011879915837198496,-0.00021175040456000715,0.0,0.0,0.0,0.0,-0.0016179474769160151,0.004675607196986675,-0.0016308572376146913,0.9979032874107361,0.0,0.0,0.0,0.4025768041610718,-4.689438343048096,4.86528205871582,-72.86720275878906,0
842.4589999999989,-0.0001229424524353817,0.00012849405175074935,-0.0002209370577475056,0.0,0.0,0.0,0.0,-0.0025705064181238413,-0.00044860507478006184,-0.0007703686715103686,0.9984037280082703,0.0,0.0,0.0,0.39532470703125,-4.683254241943359,4.859883785247803,-71.55455780029297,0
852.3649999999998,-7.719513632764574e-06,5.757910184911452e-05,-0.00019571992743294686,0.0,0.0,0.0,0.0,0.0032597905956208706,0.001353052444756031,-0.00021841077250428498,1.0022015571594238,0.0,0.0,0.0,0.40564388036727905,-4.7016143798828125,4.881121635437012,-73.4223403930664,0
862.2829999999994,-1.5355679352069274e-05,8.141522266669199e-05,-0.00025014899438247085,0.0,0.0,0.0,0.0,-0.0012889833888038993,0.005655624438077211,0.0025496601592749357,1.0012850761413574,0.0,0.0,0.0,0.3989449441432953,-4.6944403648376465,4.888540267944336,-72.20983123779297,0
872.1890000000003,3.903216202161275e-05,4.231413913657889e-05,-0.0002404738770565018,0.0,0.0,0.0,0.0,0.002187000820413232,-0.0003276242350693792,-5.342169606592506e-05,1.000955581665039,0.0,0.0,0.0,0.41189903020858765,-4.702014446258545,4.891345024108887,-74.55455017089844,0
882.1009999999987,2.5604525944800116e-05,0.00010545637633185834,-0.00025903305504471064,0.0,0.0,0.0,0.0,-0.0055674840696156025,-0.0002896908263210207,0.0023858333006501198,1.0006401538848877,0.0,0.0,0.0,0.4042506217956543,-4.688357353210449,4.901385307312012,-73.17017364501953,0
892.0159999999996,5.2802282880293205e-05,7.802691106917337e-05,-0.00025741237914189696,0.0,0.0,0.0,0.0,0.0021665955428034067,0.0010537693742662668,-0.0001392547128489241,0.9974589943885803,0.0,0.0,0.0,0.4107358753681183,-4.689003944396973,4.911984443664551,-74.3440170288086,0
901.9359999999997,-3.0777355277678e-05,6.545709766214713e-05,-0.00023810190032236278,0.0,0.0,0.0,0.0,-0.0017454001354053617,-0.0004809606180060655,-0.0005393092287704349,1.0011956691741943,0.0,0.0,0.0,0.40122172236442566,-4.692139148712158,4.901325225830078,-72.62193298339844,0
911.8419999999987,-5.02323018736206e-05,8.400255319429561e-05,-0.00023392435105051845,0.0,0.0,0.0,0.0,-0.00170142634306103,-0.0010144839761778712,-0.0020932923071086407,1.0016835927963257,0.0,0.0,0.0,0.40817907452583313,-4.689897537231445,4.903344631195068,-73.8812255859375,0
921.7469999999994,-0.00010251290223095566,9.768965537659824e-05,-0.00024031686189118773,0.0,0.0,0.0,0.0,-7.412691047647968e-05,-0.003600092837586999,-0.00018600907060317695,1.0001364946365356,0.0,0.0,0.0,0.39961865544319153,-4.6859049797058105,4.900259017944336,-72.33177185058594,0
931.6579999999994,-1.9460569092188962e-05,7.745741459075361e-05,-0.0001988375879591331,0.0,0.0,0.0,0.0,0.0022827796638011932,0.0017019227379933,-0.0004948436981067061,0.9998160004615784,0.0,0.0,0.0,0.4095398485660553,-4.6923604011535645,4.925124168395996,-74.12752532958984,0
941.5649999999987,-7.083274249453098e-05,9.692780440673232e-05,-0.00019746301404666156,0.0,0.0,0.0,0.0,0.002028117422014475,0.003116670297458768,-0.0014954982325434685,0.998744547367096,0.0,0.0,0.0,0.3971026539802551,-4.6878252029418945,4.923696517944336,-71.8763656616211,0
951.4899999999998,-1.2734201845887583e-05,7.8609686170239e-05,-0.00016794494877103716,0.0,0.0,0.0,0.0,0.003252509981393814,0.0004271764773875475,-0.0007875467999838293,1.0009074211120605,0.0,0.0,0.0,0.40819981694221497,-4.6990532875061035,4.925847053527832,-73.88497924804688,0
961.3889999999992,-5.698376116924919e-05,8.495815563946962e-05,-0.0001860256597865373,0.0,0.0,0.0,0.0,-3.99931232095696e-05,-0.001428217045031488,-0.002808172954246402,1.0016990900039673,0.0,0.0,0.0,0.4029298722743988,-4.707705020904541,4.9214019775390625,-72.93110656738281,0
971.3050000000003,-3.1723313441034406e-05,8.43541492940858e-05,-0.00016461861378047615,0.0,0.0,0.0,0.0,0.0025886467192322016,-0.0018143134657293558,0.0001236389362020418,1.0012996196746826,0.0,0.0,0.0,0.40157800912857056,-4.697854518890381,4.923138618469238,-72.68641662597656,0
981.2070000000003,-8.135989628499374e-05,9.876495460048318e-05,-0.00016984535614028573,0.0,0.0,0.0,0.0,0.0033197589218616486,0.004510295577347279,-0.0019823932088911533,0.999934196472168,0.0,0.0,0.0,0.3909107744693756,-4.695932388305664,4.912049293518066,-70.75563049316406,0
991.1279999999988,-6.757951632607728e-05,0.00010365626076236367,-0.00014642460155300796,0.0,0.0,0.0,0.0,0.001976326107978821,-0.003025090554729104,-0.0004485658137127757,0.9990512132644653,0.0,0.0,0.0,0.38982778787612915,-4.695289134979248,4.905990123748779,-70.55960083007812,0
1001.0329999999994,-0.0001269158674404025,7.406526856357232e-05,-0.00017126153397839516,0.0,0.0,0.0,0.0,-0.002782305469736457,0.002294392790645361,0.002242470858618617,0.9983793497085571,0.0,0.0,0.0,0.3895169794559479,-4.690924644470215,4.906330585479736,-70.50334930419922,0
1010.9470000000001,-8.927217277232558e-05,6.223130912985653e-05,-0.00014439783990383148,0.0,0.0,0.0,0.0,0.0012759702512994409,-0.00042600842425599694,-0.0025989287532866,0.9991646409034729,0.0,0.0,0.0,0.3957407474517822,-4.692240238189697,4.907089710235596,-71.6298599243164,0
1020.851999999999,-0.00015155479195527732,8.354723831871524e-05,-0.00013058565673418343,0.0,0.0,0.0,0.0,0.0025063110515475273,-0.002786741591989994,0.0021235267631709576,1.0003390312194824,0.0,0.0,0.0,0.3879944384098053,-4.6875901222229,4.898051738739014,-70.22776794433594,0
1030.7639999999992,-0.00010088852286571637,8.11399077065289e-05,-9.223402594216168e-05,0.0,0.0,0.0,0.0,-0.002810305217280984,0.0022749199997633696,-0.00029343782807700336,1.0005344152450562,0.0,0.0,0.0,0.3878604471683502,-4.685049533843994,4.903943061828613,-70.20352172851562,0
1040.679,-0.0001803487102733925,4.5172939280746505e-05,-8.875535422703251e-05,0.0,0.0,0.0,0.0,0.0016027393285185099,0.0003028512292075902,0.0004920110804960132,0.9996580481529236,0.0,0.0,0.0,0.3868042230606079,-4.678981781005859,4.8895769119262695,-70.0123291015625,0
1050.5869999999995,-0.00011772701691370457,9.094965669476096e-09,-6.559669418493286e-05,0.0,0.0,0.0,0.0,-0.0019162697717547417,-0.0026788883842527866,0.002069637645035982,0.9985979795455933,0.0,0.0,0.0,0.39683783054351807,-4.693621635437012,4.8941826820373535,-71.82843780517578,0
1060.494999999999,-0.0001604807621333748,1.777494435373228e-05,-7.862163329264149e-05,0.0,0.0,0.0,0.0,0.0022886735387146473,-2.523745206417516e-05,-0.0006845694733783603,0.9974164366722107,0.0,0.0,0.0,0.3959898054599762,-4.686585426330566,4.886168003082275,-71.67494201660156,0
1070.4179999999997,-9.024551400216296e-05,-1.1575046301004477e-05,-4.347674985183403e-05,0.0,0.0,0.0,0.0,0.0031395889818668365,0.0032261337619274855,-0.00017475987260695547,0.9985340237617493,0.0,0.0,0.0,0.3953213691711426,-4.6894989013671875,4.870940685272217,-71.553955078125,0
1080.321,-0.00013009113899897784,5.287365638650954e-06,-5.979671186651103e-05,0.0,0.0,0.0,0.0,0.0010840388713404536,0.003984570503234863,-1.3790905541100074e-05,1.001587986946106,0.0,0.0,0.0,0.3864699602127075,-4.6860127449035645,4.863636493682861,-69.95182800292969,0
1090.2369999999992,-5.758828774560243e-05,-6.187431426951662e-05,-5.10363643115852e-05,0.0,0.0,0.0,0.0,0.0021076579578220844,0.002160418312996626,0.0008351315627805889,1.0011217594146729,0.0,0.0,0.0,0.385891318321228,-4.682581901550293,4.852962017059326,-69.84709167480469,0
1100.1419999999998,-5.0223727157572284e-05,9.479605068918318e-06,-9.319951641373336e-05,0.0,0.0,0.0,0.0,0.002660413971170783,0.005051589570939541,-0.00016186277207452804,1.0008327960968018,0.0,0.0,0.0,0.3856540322303772,-4.685702323913574,4.838774681091309,-69.80415344238281,0
1110.0679999999993,-3.761177504202351e-05,-4.386551518109627e-05,-0.00011215453559998423,0.0,0.0,0.0,0.0,-0.001633673207834363,-0.002052736934274435,0.0004461065982468426,1.0009284019470215,0.0,0.0,0.0,0.3849482536315918,-4.684501647949219,4.821124076843262,-69.67640686035156,0
1119.9629999999997,-3.9784146792953834e-05,2.174444125557784e-05,-0.00014665586058981717,0.0,0.0,0.0,0.0,-0.0009807758033275604,0.0020531651098281145,0.001296877395361662,0.9997288584709167,0.0,0.0,0.0,0.38387879729270935,-4.677505016326904,4.810877323150635,-69.48283386230469,0
1129.8919999999998,-1.2836812857131008e-05,-1.56404021254275e-05,-0.00015271194570232183,0.0,0.0,0.0,0.0,-0.00045674736611545086,-0.0008646255009807646,-0.00019346672343090177,0.9990664124488831,0.0,0.0,0.0,0.38395753502845764,-4.676163673400879,4.794498920440674,-69.49707794189453,0
1139.786,-4.3848231712217967e-07,4.7682096919743344e-05,-0.00021176539303269237,0.0,0.0,0.0,0.0,-0.0006971927941776812,0.0009864114690572023,0.0005941305425949395,1.0018852949142456,0.0,0.0,0.0,0.3758256137371063,-4.659607887268066,4.800126552581787,-68.02518463134766,0
1149.7079999999987,-1.1932790584978648e-05,5.3195868531474844e-05,-0.00022252560302149504,0.0,0.0,0.0,0.0,0.005670842248946428,-0.0037152920849621296,-0.0024438309483230114,1.0007294416427612,0.0,0.0,0.0,0.3756318986415863,-4.658162593841553,4.795708656311035,-67.9901123046875,0
1159.6080000000002,-2.8309716071817093e-05,8.953874203143641e-05,-0.0002680127799976617,0.0,0.0,0.0,0.0,0.0010367260547354817,-3.790676419157535e-05,0.00010697120887925848,1.0010608434677124,0.0,0.0,0.0,0.3746017813682556,-4.656737804412842,4.801636695861816,-67.80367279052734,0
1169.5339999999997,1.134630565502448e-06,0.00011514775542309508,-0.00024417872191406786,0.0,0.0,0.0,0.0,-0.0012707837158814073,-0.0008644508197903633,-0.003002263605594635,1.0008141994476318,0.0,0.0,0.0,0.3807523250579834,-4.652318000793457,4.807316303253174,-68.91693115234375,0
1179.4339999999993,-7.768870273139328e-05,0.00010845936049008742,-0.00023818531190045178,0.0,0.0,0.0,0.0,-0.002589260693639517,-0.0007958507048897445,0.0031695703510195017,0.999836266040802,0.0,0.0,0.0,0.37278231978416443,-4.657207012176514,4.800965785980225,-67.4743423461914,0
1189.351999999999,-7.071480649756268e-05,0.00011312364222249016,-0.0002368496498093009,0.0,0.0,0.0,0.0,-0.002669083420187235,0.0011254068231210113,-0.005725266877561808,0.999029815196991,0.0,0.0,0.0,0.3836926817893982,-4.657712936401367,4.807994842529297,-69.44914245605469,0
1199.2520000000004,-0.00012806971790269017,0.0001319040748057887,-0.00024509921786375344,0.0,0.0,0.0,0.0,-0.0003006795304827392,0.00287436880171299,-0.0010287475306540728,0.9993522763252258,0.0,0.0,0.0,0.3751193881034851,-4.6506171226501465,4.799563884735107,-67.89735412597656,0
1209.1729999999989,-7.07151266396977e-05,0.00012806332961190492,-0.0002229827514383942,0.0,0.0,0.0,0.0,6.348382885335013e-05,-0.0016214960487559438,-0.00179825269151479,1.0001542568206787,0.0,0.0,0.0,0.3809768259525299,-4.656839847564697,4.8154473304748535,-68.95755767822266,0
1219.08,-0.00012956788123119622,0.0001399533066432923,-0.00023574258375447243,0.0,0.0,0.0,0.0,0.0019472577841952443,0.0021456030663102865,-0.0037250106688588858,1.0005489587783813,0.0,0.0,0.0,0.3808176815509796,-4.6530842781066895,4.813355922698975,-68.92875671386719,0
1228.9979999999996,-7.32623811927624e-05,0.00011958989489357919,-0.00022339785937219858,0.0,0.0,0.0,0.0,-0.00019849966338369995,-0.00015491241356357932,0.0028660639654845,0.9996382594108582,0.0,0.0,0.0,0.3880280554294586,-4.663889408111572,4.814199447631836,-70.23385620117188,0
1238.902,-9.059566946234554e-05,0.00015115969290491194,-0.0002755272143986076,0.0,0.0,0.0,0.0,0.0004040955100208521,0.001660472946241498,-0.0014550621854141355,0.9991768598556519,0.0,0.0,0.0,0.38232845067977905,-4.663910865783691,4.818676471710205,-69.20220184326172,0
1248.8230000000003,-5.9581678215181455e-05,0.0001401596236974001,-0.0002735492307692766,0.0,0.0,0.0,0.0,-0.0008297858294099569,-0.00027710615540854633,-0.004018203355371952,0.9980375170707703,0.0,0.0,0.0,0.3921998143196106,-4.675220012664795,4.820891380310059,-70.98894500732422,0
1258.7340000000004,-0.0001318944268859923,0.00014318650937639177,-0.0002766225952655077,0.0,0.0,0.0,0.0,-0.0008251562248915434,-0.0009782082634046674,-0.0056852661073207855,1.000115156173706,0.0,0.0,0.0,0.390516459941864,-4.671055793762207,4.811992645263672,-70.68425750732422,0
1268.646999999999,-6.307059084065259e-05,0.0001125225899158977,-0.00026584070292301476,0.0,0.0,0.0,0.0,0.0014856092166155577,0.000523216906003654,0.00028640555683523417,0.9992011189460754,0.0,0.0,0.0,0.39855045080184937,-4.683166980743408,4.824485778808594,-72.138427734375,0
1278.5439999999999,-0.00011645803169813007,0.0001295780239161104,-0.0002814937324728817,0.0,0.0,0.0,0.0,0.0014955494552850723,0.0014454980846494436,-0.006102260667830706,0.9991987943649292,0.0,0.0,0.0,0.39850521087646484,-4.6820969581604,4.827334880828857,-72.1302261352539,0
1288.467999999999,-2.0426274204510264e-05,0.0001103288377635181,-0.00024978487635962665,0.0,0.0,0.0,0.0,-0.0009908451465889812,0.001700071501545608,0.0001553638867335394,1.0016971826553345,0.0,0.0,0.0,0.409841388463974,-4.695382118225098,4.845572471618652,-74.18209838867188,0
1298.3639999999996,-0.00012146643712185323,0.00010570643644314259,-0.0002160611911676824,0.0,0.0,0.0,0.0,0.0008435620693489909,-0.00011868826550198719,-0.0008803493110463023,1.001128911972046,0.0,0.0,0.0,0.40319061279296875,-4.6891608238220215,4.8312177658081055,-72.97830200195312,0
1308.2960000000003,-8.478056770400144e-06,4.0768642065813765e-05,-0.00019191436877008528,0.0,0.0,0.0,0.0,0.0009295602212660015,0.0007582950056530535,-0.004200460854917765,1.0009640455245972,0.0,0.0,0.0,0.4100247323513031,-4.7125749588012695,4.8491973876953125,-74.21529388427734,0
1318.188,-8.65264082676731e-05,6.090373426559381e-05,-0.00016419948951806873,0.0,0.0,0.0,0.0,0.0001660798443481326,0.0024970918893814087,0.0014473896007984877,1.0003148317337036,0.0,0.0,0.0,0.3998979926109314,-4.709733486175537,4.833286285400391,-72.38233947753906,0
1328.1059999999998,-2.5395347620360553e-05,5.058435363025637e-06,-0.0001574517082190141,0.0,0.0,0.0,0.0,-0.0013130721636116505,0.00334371579810977,-0.0012578065507113934,1.0013725757598877,0.0,0.0,0.0,0.3994382321834564,-4.7127838134765625,4.817288398742676,-72.29911804199219,0
1338.0119999999988,-4.783399708685465e-05,5.472475095302798e-05,-0.00017560797277837992,0.0,0.0,0.0,0.0,-0.0001733283861540258,-0.0009542728075757623,-0.0007151056779548526,1.0025534629821777,0.0,0.0,0.0,0.3904770612716675,-4.6969428062438965,4.81840181350708,-70.6771240234375,0
1347.9310000000005,1.6693316865712404e-05,1.1985192941210698e-05,-0.00015905158943496644,0.0,0.0,0.0,0.0,0.001593209570273757,-0.0013661175034940243,-0.0019593187607824802,1.0008352994918823,0.0,0.0,0.0,0.40001964569091797,-4.711365222930908,4.832533836364746,-72.40435028076172,0
1357.8320000000003,-7.105923577910289e-05,-1.030660769174574e-05,-0.00013141511590220034,0.0,0.0,0.0,0.0,-0.001920795999467373,-0.00408458337187767,0.0027314480394124985,1.0009797811508179,0.0,0.0,0.0,0.3910119831562042,-4.71715784072876,4.826912879943848,-70.7739486694336,0
1367.75,-6.266505806706846e-05,2.2214833734324202e-05,-9.368249448016286e-05,0.0,0.0,0.0,0.0,-0.001820170320570469,0.00032511918107047677,-0.004509726073592901,1.000077724456787,0.0,0.0,0.0,0.39138656854629517,-4.71034574508667,4.826602935791016,-70.84175109863281,0
1377.6540000000005,-0.000132359768031165,5.006397259421647e-06,-8.334212907357141e-05,0.0,0.0,0.0,0.0,0.0007340168231166899,-0.0028483557980507612,-7.993746839929372e-05,0.9979934692382812,0.0,0.0,0.0,0.3903135657310486,-4.704300880432129,4.817953109741211,-70.64752960205078,0
1387.5829999999987,-9.338231757283211e-05,-2.2750044081476517e-05,-5.434450213215314e-05,0.0,0.0,0.0,0.0,-0.0003409053315408528,-0.002117529744282365,0.0006033489480614662,0.998660147190094,0.0,0.0,0.0,0.38881054520606995,-4.706193447113037,4.818657398223877,-70.37548065185547,0
1397.4799999999996,-8.720499317860231e-05,3.7298705137800425e-05,-9.258347563445568e-05,0.0,0.0,0.0,0.0,0.0010237095411866903,-0.0018169847317039967,-0.0013434025458991528,1.0009280443191528,0.0,0.0,0.0,0.3808135986328125,-4.686806678771973,4.821728706359863,-68.92801666259766,0
1407.3999999999996,-9.285761188948527e-05,2.558703454269562e-05,-8.68316346895881e-05,0.0,0.0,0.0,0.0,-0.0001863357174443081,-0.0037560630589723587,0.0003721617686096579,1.0011992454528809,0.0,0.0,0.0,0.3930402398109436,-4.693090438842773,4.825613975524902,-71.14105987548828,0
1417.3050000000003,-6.118205783423036e-05,8.723078644834459e-05,-0.00016433632117696106,0.0,0.0,0.0,0.0,-0.00021512650710064918,-0.0029369532130658627,-0.00011006183922290802,1.0007877349853516,0.0,0.0,0.0,0.3852205276489258,-4.679258823394775,4.850621700286865,-69.7256851196289,0
1427.2250000000004,9.031048648466822e-06,2.9642953450093046e-05,-0.0001502908271504566,0.0,0.0,0.0,0.0,0.0059567843563854694,-0.001129060867242515,0.0029820376075804234,1.0020467042922974,0.0,0.0,0.0,0.39117079973220825,-4.6948018074035645,4.863168239593506,-70.80269622802734,0
1437.1239999999998,-5.812095696455799e-05,3.944055060856044e-05,-0.00014529481995850801,0.0,0.0,0.0,0.0,-0.0012548030354082584,-0.0027130397502332926,-0.003994566388428211,1.0012778043746948,0.0,0.0,0.0,0.38420963287353516,-4.69650411605835,4.854101181030273,-69.54271697998047,0
1447.039999999999,-9.935832349583507e-05,6.218290945980698e-05,-0.00014055953943170607,0.0,0.0,0.0,0.0,0.002744502853602171,-0.002193528925999999,-0.002009795745834708,1.0002080202102661,0.0,0.0,0.0,0.39055490493774414,-4.695156097412109,4.849547386169434,-70.69121551513672,0
1456.9449999999997,-0.00012242300726938993,0.00010751490481197834,-0.00016050667909439653,0.0,0.0,0.0,0.0,0.0005752845318056643,-0.0020425552502274513,-0.0020813134033232927,0.9995413422584534,0.0,0.0,0.0,0.38155102729797363,-4.688790798187256,4.849822521209717,-69.06149291992188,0
1466.8689999999988,-8.011735917534679e-05,8.701792103238404e-05,-0.00014165138418320566,0.0,0.0,0.0,0.0,0.00021607716917060316,-0.002621227875351906,-0.0007714307284913957,1.0000241994857788,0.0,0.0,0.0,0.38107407093048096,-4.68101167678833,4.849798202514648,-68.97516632080078,0
1476.7659999999996,-0.00016824586782604456,6.050302181392908e-05,-0.00012700469233095646,0.0,0.0,0.0,0.0,0.0007905995007604361,0.00156176567543298,-0.0009906503837555647,1.00062096118927,0.0,0.0,0.0,0.3708780109882355,-4.680200576782227,4.849331855773926,-67.12965393066406,0
1486.6849999999995,-0.00015643036749679595,5.6344833865296096e-05,-0.00010792504326673225,0.0,0.0,0.0,0.0,-0.0024052774533629417,-0.005910641048103571,0.0027728453278541565,0.9996792674064636,0.0,0.0,0.0,0.3781534433364868,-4.6872239112854,4.85634183883667,-68.44652557373047,0
1496.589,-0.0001922340306919068,0.00010758153803180903,-0.0001146102586062625,0.0,0.0,0.0,0.0,-0.001701772096566856,0.0022582043893635273,-0.003163843648508191,1.0002882480621338,0.0,0.0,0.0,0.3710605204105377,-4.672307014465332,4.869136333465576,-67.1626968383789,0
1506.509,-0.0001332896645180881,0.00010420106264064088,-7.036987517494708e-05,0.0,0.0,0.0,0.0,0.002024017972871661,0.00020668927754741162,0.0018396640662103891,1.0000282526016235,0.0,0.0,0.0,0.3690999746322632,-4.6632256507873535,4.860857963562012,-66.80783081054688,0
1516.4169999999995,-0.00015753261686768383,0.0001170302857644856,-0.0001214059884659946,0.0,0.0,0.0,0.0,0.0019560789223760366,0.0029571461491286755,-0.0002194164990214631,1.0020792484283447,0.0,0.0,0.0,0.36010387539863586,-4.666926860809326,4.8583197593688965,-65.17951202392578,0
1526.339,-0.00010395923163741827,8.262394840130582e-05,-0.00010427201050333679,0.0,0.0,0.0,0.0,-0.0007903556688688695,-0.0003929229569621384,-0.001658536260947585,1.0013223886489868,0.0,0.0,0.0,0.3603033721446991,-4.6629638671875,4.848087310791016,-65.21562194824219,0
1536.2340000000004,-0.00019129650900140405,5.97070247749798e-05,-9.404175216332078e-05,0.0,0.0,0.0,0.0,-0.0006970861577428877,0.003981460351496935,-0.0003200468490831554,1.0003771781921387,0.0,0.0,0.0,0.35961732268333435,-4.657379627227783,4.835715293884277,-65.0914535522461,0
1546.1549999999988,-9.945115016307682e-05,4.52935928478837e-05,-3.5149358154740185e-05,0.0,0.0,0.0,0.0,0.0009022006997838616,0.0012908270582556725,-0.0017231133533641696,0.9975308179855347,0.0,0.0,0.0,0.3687922954559326,-4.661476135253906,4.844254493713379,-66.75213623046875,0
1556.057999999999,-0.00016213308845181018,5.05250645801425e-05,-3.7448564398800954e-05,0.0,0.0,0.0,0.0,-0.00041134620551019907,-0.00479877321049571,0.00026229926152154803,0.9993977546691895,0.0,0.0,0.0,0.3608361780643463,-4.664926052093506,4.8323445320129395,-65.31206512451172,0
1565.9869999999992,-6.371975905494764e-05,-1.4229444786906242e-05,-5.899571988265961e-06,0.0,0.0,0.0,0.0,-0.00039910117629915476,0.0029193249065428972,-0.0013167025754228234,0.9997924566268921,0.0,0.0,0.0,0.37221255898475647,-4.677283763885498,4.8630523681640625,-67.37122344970703,0
1575.878999999999,-0.00017165340250357985,-4.1963303374359384e-05,2.9161210477468558e-05,0.0,0.0,0.0,0.0,0.001996499951928854,-0.0009190866257995367,0.0016070450656116009,1.000325083732605,0.0,0.0,0.0,0.37040677666664124,-4.675930023193359,4.848391532897949,-67.04436492919922,0
1585.8009999999995,-0.00011315773008391261,-7.663982978556305e-05,6.005643808748573e-05,0.0,0.0,0.0,0.0,-0.0005047818995080888,-0.0034086352679878473,0.001502603990957141,0.9995617866516113,0.0,0.0,0.0,0.37995925545692444,-4.695033073425293,4.85910701751709,-68.77338409423828,0
1595.7039999999997,-0.0001413541758665815,-4.553349208435975e-05,3.6133889807388186e-05,0.0,0.0,0.0,0.0,0.002514352323487401,0.0037618675269186497,-0.003942115232348442,0.9977394342422485,0.0,0.0,0.0,0.38036468625068665,-4.689518928527832,4.862481117248535,-68.84676361083984,0
1605.6239999999998,-0.00012058971333317459,-3.338835813337937e-05,6.898463470861316e-05,0.0,0.0,0.0,0.0,0.0006237188936211169,0.0016680363332852721,0.0022767111659049988,1.0011764764785767,0.0,0.0,0.0,0.38829174637794495,-4.696380138397217,4.867321968078613,-70.28157806396484,0
1615.5239999999994,-8.76932535902597e-05,5.6784199841786176e-05,3.35838990395132e-06,0.0,0.0,0.0,0.0,-0.0012144091306254268,-0.001061970368027687,0.000707068364135921,0.9995604157447815,0.0,0.0,0.0,0.3890778720378876,-4.692646503448486,4.860054969787598,-70.42386627197266,0
1625.4439999999995,-6.139176548458636e-05,5.171616066945717e-05,2.0646428311010823e-05,0.0,0.0,0.0,0.0,0.0019202198600396514,-0.004914150107651949,-0.0001408081006957218,0.9985246658325195,0.0,0.0,0.0,0.3969212472438812,-4.694760799407959,4.866835117340088,-71.84353637695312,0
1635.3459999999995,-7.058795017655939e-05,0.00010299590940121561,-1.6942993170232512e-05,0.0,0.0,0.0,0.0,0.0010760992299765348,0.003074384294450283,0.0004863073118031025,0.9991130828857422,0.0,0.0,0.0,0.38771143555641174,-4.687713146209717,4.880415916442871,-70.17654418945312,0
1645.277,-4.134598566452041e-05,9.051375673152506e-05,-6.3431889429921284e-06,0.0,0.0,0.0,0.0,0.0010817800648510456,0.000777512090280652,-0.0014622167218476534,1.0000897645950317,0.0,0.0,0.0,0.3940838575363159,-4.695170879364014,4.876702785491943,-71.3299560546875,0
1655.1679999999997,2.0462794054765254e-06,0.0001893713342724368,-8.627324859844521e-05,0.0,0.0,0.0,0.0,0.0005998376291245222,-0.0018752155592665076,-0.0024245292879641056,1.0009958744049072,0.0,0.0,0.0,0.3845451772212982,-4.681869983673096,4.882554054260254,-69.60344696044922,0
1665.0900000000001,1.3916767784394324e-05,0.00017584364104550332,-9.607669926481321e-05,0.0,0.0,0.0,0.0,-0.001385441399179399,0.0021437411196529865,0.001556538394652307,0.9998655319213867,0.0,0.0,0.0,0.3924941122531891,-4.691220283508301,4.893218040466309,-71.0422134399414,0
1674.9930000000004,-6.467416824307293e-05,0.00015977854491211474,-0.00010147719149244949,0.0,0.0,0.0,0.0,0.0036410107277333736,-0.001200866769067943,-0.0007232892676256597,0.9983575940132141,0.0,0.0,0.0,0.3827763497829437,-4.695603370666504,4.882862567901611,-69.28327941894531,0
1684.9120000000003,-3.23201747960411e-05,0.0001458820333937183,-9.950260573532432e-05,0.0,0.0,0.0,0.0,0.0007078209309838712,0.008526653982698917,-0.004342679865658283,1.0002377033233643,0.0,0.0,0.0,0.3939327597618103,-4.7105488777160645,4.895074844360352,-71.30260467529297,0
1694.8179999999993,-9.151758422376588e-05,0.00014657399151474237,-0.0001199636681121774,0.0,0.0,0.0,0.0,-0.002373168244957924,-0.0013362052850425243,0.00357585190795362,1.0006855726242065,0.0,0.0,0.0,0.3839322030544281,-4.713592052459717,4.878006935119629,-69.49250030517578,0
1704.7299999999996,-7.188851304817945e-05,0.0001584449055371806,-0.00011210148659301922,0.0,0.0,0.0,0.0,-0.002985529135912657,0.003965339623391628,-0.0015289635630324483,1.0004945993423462,0.0,0.0,0.0,0.38358035683631897,-4.70803165435791,4.87854528427124,-69.42881774902344,0
1714.634,-0.00012012837396468967,0.00017988792387768626,-0.00013604956620838493,0.0,0.0,0.0,0.0,-0.0005411825841292739,0.0020182079169899225,0.000806843803729862,1.0001705884933472,0.0,0.0,0.0,0.37568792700767517,-4.700013637542725,4.873953342437744,-68.00025939941406,0
1724.5640000000003,-6.491635576821864e-05,0.0001498436031397432,-0.00013503171794582158,0.0,0.0,0.0,0.0,-2.776978180918377e-05,0.001791587914340198,-0.00029388105031102896,1.0011348724365234,0.0,0.0,0.0,0.3760972321033478,-4.695043087005615,4.866645812988281,-68.07435607910156,0
1734.4570000000003,-7.443725917255506e-05,0.000177095178514719,-0.00020729414245579392,0.0,0.0,0.0,0.0,-0.0022066778037697077,-0.0012502626050263643,-0.0021133453119546175,1.0012809038162231,0.0,0.0,0.0,0.3754395544528961,-4.6949920654296875,4.864340305328369,-67.95530700683594,0
1744.3869999999988,-0.00011372332664905116,0.00022421737958211452,-0.000215260821278207,0.0,0.0,0.0,0.0,0.0013954703463241458,0.0023262291215360165,-0.0020613851957023144,1.000304102897644,0.0,0.0,0.0,0.37404361367225647,-4.691473484039307,4.86329460144043,-67.70264434814453,0
1754.2870000000003,-0.00016025005606934428,0.0002059108519461006,-0.00026219681603834033,0.0,0.0,0.0,0.0,0.0005197325372137129,-0.0007085955585353076,-0.003108063479885459,0.9999926090240479,0.0,0.0,0.0,0.37300196290016174,-4.690160751342773,4.863541126251221,-67.51409912109375,0
1764.214,-0.00020134304941166192,0.00025345489848405123,-0.00027233382570557296,0.0,0.0,0.0,0.0,-0.0011713190469890833,-0.0005841157399117947,-0.0015545490896329284,0.9987455606460571,0.0,0.0,0.0,0.3713533580303192,-4.6872358322143555,4.865740776062012,-67.21569061279297,0
1774.107,-0.00018547021318227053,0.0003066059434786439,-0.00035317419678904116,0.0,0.0,0.0,0.0,-0.0008862241520546377,-0.0019318168051540852,0.001438824227079749,0.9980865716934204,0.0,0.0,0.0,0.36219269037246704,-4.679651737213135,4.89228630065918,-65.55760192871094,0
1784.0209999999988,-0.00022209160670172423,0.0003574594738893211,-0.00037086536758579314,0.0,0.0,0.0,0.0,-0.00035073980689048767,0.0030447891913354397,0.0019932640716433525,1.0000839233398438,0.0,0.0,0.0,0.3620254695415497,-4.673759937286377,4.88621187210083,-65.52732849121094,0
1793.923999999999,-0.0002712785790208727,0.00035028476850129664,-0.0004225567390676588,0.0,0.0,0.0,0.0,0.0003066969511564821,0.0003260286175645888,-0.0018010952044278383,1.0011240243911743,0.0,0.0,0.0,0.3540998697280884,-4.693755149841309,4.873590469360352,-64.09278106689453,0
1803.8469999999998,-0.00031354246311821043,0.0003995887527707964,-0.00044309915392659605,0.0,0.0,0.0,0.0,-0.0026133074425160885,0.0026444201357662678,-0.00393604626879096,1.000844955444336,0.0,0.0,0.0,0.3531540334224701,-4.682340621948242,4.868830680847168,-63.92158126831055,0
1813.7469999999994,-0.0003684285038616508,0.00039325584657490253,-0.0004933035233989358,0.0,0.0,0.0,0.0,0.001821586163714528,-0.00022811308735981584,0.004891875199973583,0.9980472922325134,0.0,0.0,0.0,0.34536513686180115,-4.700462818145752,4.850885391235352,-62.51177215576172,0
1823.6659999999993,-0.00041461718501523137,0.0004391780821606517,-0.0005147487390786409,0.0,0.0,0.0,0.0,0.0003161146305501461,-0.004755399189889431,-0.00014603152521885931,0.9996355772018433,0.0,0.0,0.0,0.34583809971809387,-4.702019214630127,4.851323127746582,-62.597381591796875,0
1833.5739999999987,-0.0004597041115630418,0.00043211717274971306,-0.0005796634359285235,0.0,0.0,0.0,0.0,-0.002772479085251689,0.0005610836669802666,-0.0002597118145786226,1.0009956359863281,0.0,0.0,0.0,0.3382565975189209,-4.722884178161621,4.85537576675415,-61.225120544433594,0
1843.4959999999992,-0.0005094369989819825,0.00047679198905825615,-0.0006043652538210154,0.0,0.0,0.0,0.0,-0.0020526491571217775,0.0006266161217354238,-0.0017200242727994919,1.0025107860565186,0.0,0.0,0.0,0.33806729316711426,-4.714794158935547,4.855604648590088,-61.190853118896484,0
1853.3940000000002,-0.0005848449072800577,0.0004870288248639554,-0.0006378953694365919,0.0,0.0,0.0,0.0,-0.0010022034402936697,-0.0014580576680600643,0.0015101676108315587,1.0003331899642944,0.0,0.0,0.0,0.33658522367477417,-4.706336975097656,4.84979772567749,-60.92259216308594,0
1863.313,-0.0006411469075828791,0.0005283166537992656,-0.0006592536228708923,0.0,0.0,0.0,0.0,0.006348429247736931,0.004410384222865105,-0.0013325262116268277,0.999549925327301,0.0,0.0,0.0,0.3359561264514923,-4.696774959564209,4.847902297973633,-60.8087272644043,0
1873.2259999999987,-0.0006597227184101939,0.0005621097516268492,-0.0007130433223210275,0.0,0.0,0.0,0.0,0.0031005372293293476,-0.0013712834334000945,0.0037647292483597994,0.9995062351226807,0.0,0.0,0.0,0.32845818996429443,-4.701751708984375,4.8479695320129395,-59.45158386230469,0
1883.1350000000002,-0.0007185600115917623,0.0006052630487829447,-0.0007371235406026244,0.0,0.0,0.0,0.0,0.0007227081223390996,0.004144235048443079,-0.003574500558897853,0.9987457990646362,0.0,0.0,0.0,0.3288334906101227,-4.7053022384643555,4.84072208404541,-59.51951217651367,0
1893.0419999999995,-0.000747925485484302,0.0005901860422454774,-0.0008196875569410622,0.0,0.0,0.0,0.0,0.002920715603977442,-0.0008256497094407678,0.0027737896889448166,0.9976105690002441,0.0,0.0,0.0,0.3271690309047699,-4.7024664878845215,4.830223560333252,-59.21824264526367,0
1902.9570000000003,-0.0008089964976534247,0.0006308227311819792,-0.0008499427931383252,0.0,0.0,0.0,0.0,0.0002993386297021061,-0.0016494342125952244,0.00011692216503433883,0.9995837211608887,0.0,0.0,0.0,0.32841920852661133,-4.70392370223999,4.825871467590332,-59.44453048706055,0
1912.8680000000004,-0.0008419782388955355,0.0006263094837777317,-0.0009284420520998538,0.0,0.0,0.0,0.0,-0.0002809459692798555,-0.004655149299651384,-0.0013047842076048255,0.9989224672317505,0.0,0.0,0.0,0.3283405303955078,-4.698352336883545,4.821654796600342,-59.43029022216797,0
1922.7829999999994,-0.0009068369399756193,0.00066454301122576,-0.0009638799820095301,0.0,0.0,0.0,0.0,0.0033250278793275356,0.0025290800258517265,0.0044303894974291325,0.998937726020813,0.0,0.0,0.0,0.3273153603076935,-4.6966142654418945,4.823493480682373,-59.24473190307617,0
1932.6970000000001,-0.0009741394314914942,0.0007032410940155387,-0.0010000764159485698,0.0,0.0,0.0,0.0,-0.000631013885140419,0.0026318503078073263,-0.0009205028181895614,1.0007826089859009,0.0,0.0,0.0,0.32718122005462646,-4.697573184967041,4.820005893707275,-59.220455169677734,0
1942.5949999999993,-0.0010430888505652547,0.0007431533304043114,-0.0010362905450165272,0.0,0.0,0.0,0.0,-0.0006977290031500161,0.003771828254684806,0.0030510665383189917,1.0007266998291016,0.0,0.0,0.0,0.32572755217552185,-4.6865620613098145,4.8091349601745605,-58.95733642578125,0
1952.518,-0.0011127609759569168,0.000784778269007802,-0.0010717201512306929,0.0,0.0,0.0,0.0,0.00045805214904248714,-0.006059527862817049,6.596241291845217e-05,1.0002610683441162,0.0,0.0,0.0,0.3253048360347748,-4.678081512451172,4.79946231842041,-58.880821228027344,0
1962.4300000000003,-0.001183333806693554,0.0008286985103040934,-0.0011065893340855837,0.0,0.0,0.0,0.0,-0.0005852830363437533,0.002021248685196042,0.002508979756385088,1.001153588294983,0.0,0.0,0.0,0.3244326412677765,-4.677428722381592,4.807650089263916,-58.72294998168945,0
1972.333999999999,-0.0012560145696625113,0.0008750317501835525,-0.0011408391874283552,0.0,0.0,0.0,0.0,0.0018384308787062764,0.0029074556659907103,0.0015849652700126171,1.0000780820846558,0.0,0.0,0.0,0.32460761070251465,-4.673587799072266,4.795077323913574,-58.7546272277832,0
1982.244999999999,-9.793847857508808e-05,8.659398008603603e-05,-8.232684194808826e-05,0.0,0.0,0.0,0.0,0.0006838820991106331,-0.004123230464756489,0.005108793266117573,1.0006351470947266,0.0,0.0,0.0,0.32423996925354004,-4.8260979652404785,4.976397514343262,-58.688079833984375,0
1992.1569999999992,-0.00012254758621565998,0.00010166072024730965,-7.997647480806336e-05,0.0,0.0,0.0,0.0,0.0011005074484273791,-0.0025204368866980076,0.00013824697816744447,1.0010055303573608,0.0,0.0,0.0,0.32488736510276794,-4.8166117668151855,4.975081443786621,-58.805259704589844,0
2002.0699999999997,-0.00011096609523519874,7.109384750947356e-05,-0.00010652606579242274,0.0,0.0,0.0,0.0,-0.0015890238573774695,-0.0015970258973538876,0.0017802621005102992,0.9993955492973328,0.0,0.0,0.0,0.34214305877685547,-4.829118251800537,4.972484588623047,-61.92856979370117,0
2011.9809999999998,-0.0001390814286423847,8.656901627546176e-05,-0.00010483711230335757,0.0,0.0,0.0,0.0,-0.0031343246810138226,0.0009307356085628271,0.0023228267673403025,1.0002111196517944,0.0,0.0,0.0,0.3422701060771942,-4.818519115447998,4.966887474060059,-61.95156478881836,0
2021.9030000000002,-6.133462011348456e-05,8.144133607856929e-05,-8.604317554272711e-05,0.0,0.0,0.0,0.0,0.002807412762194872,-0.0011590986978262663,-0.0012538954615592957,0.9984689354896545,0.0,0.0,0.0,0.35618409514427185,-4.820897102355957,4.976689338684082,-64.47003173828125,0
2031.804,-8.951916970545426e-05,9.578064054949209e-05,-8.401568629778922e-05,0.0,0.0,0.0,0.0,-0.0012324416311457753,-0.00012170435365987942,0.002522423630580306,0.9982131719589233,0.0,0.0,0.0,0.3553805351257324,-4.817745208740234,4.976912021636963,-64.3245849609375,0
2041.717999999999,-0.00010502450459171087,8.395076292799786e-05,-0.00011787422408815473,0.0,0.0,0.0,0.0,0.000547250616364181,0.002177505986765027,0.002689126180484891,0.9969185590744019,0.0,0.0,0.0,0.3725949227809906,-4.828455924987793,4.970632076263428,-67.4404296875,0
2051.628999999999,-0.000136022616061382,9.977112495107576e-05,-0.00012159942707512528,0.0,0.0,0.0,0.0,-0.0012443503364920616,0.004597154445946217,0.0004498169000726193,0.9985140562057495,0.0,0.0,0.0,0.37150838971138,-4.823751449584961,4.96146821975708,-67.2437515258789,0
2061.5419999999995,-6.724158447468653e-05,7.702379662077874e-05,-0.00016649322060402483,0.0,0.0,0.0,0.0,-3.02081425616052e-05,0.00019111993606202304,0.0012998818419873714,0.9993360638618469,0.0,0.0,0.0,0.37111300230026245,-4.81686544418335,4.950219631195068,-67.17218780517578,0
2071.449999999999,-9.66981824603863e-05,9.247340494766831e-05,-0.00017562149150762707,0.0,0.0,0.0,0.0,0.002698012627661228,0.0033228425309062004,-0.00021427329920697957,0.9985410571098328,0.0,0.0,0.0,0.3703400790691376,-4.813590049743652,4.949689865112305,-67.03228759765625,0
2081.3599999999988,-5.86472888244316e-05,8.320340566569939e-05,-0.00020877619681414217,0.0,0.0,0.0,0.0,0.000554966798517853,-0.0013882596977055073,0.0013046552194282413,1.0012589693069458,0.0,0.0,0.0,0.3691878318786621,-4.811080455780029,4.940502166748047,-66.82373046875,0
2091.2880000000005,-8.741274359636009e-05,9.942047472577542e-05,-0.0002200759045081213,0.0,0.0,0.0,0.0,-0.0027903493028134108,0.0020402411464601755,-0.002310502575710416,1.0007246732711792,0.0,0.0,0.0,0.3692465126514435,-4.807136058807373,4.936790943145752,-66.8343505859375,0
2101.1849999999995,-2.810114892781712e-05,8.800741488812491e-05,-0.00025327582261525095,0.0,0.0,0.0,0.0,-0.0008551854989491403,-0.000967241998296231,0.0007784957997500896,1.0004661083221436,0.0,0.0,0.0,0.38507699966430664,-4.819014072418213,4.955898761749268,-69.69970703125,0
2111.1009999999987,-5.803676322102547e-05,0.0001037865731632337,-0.0002636188000906259,0.0,0.0,0.0,0.0,0.0018670358695089817,0.003166930051520467,0.002351017901673913,1.0008496046066284,0.0,0.0,0.0,0.3850862979888916,-4.817658424377441,4.94993782043457,-69.70138549804688,0
