timestamp,stateEstimate.x,stateEstimate.y,stateEstimate.z,controller.cmd_thrust,controller.cmd_roll,controller.cmd_pitch,controller.cmd_yaw,controller.r_roll,controller.r_pitch,controller.r_yaw,controller.accelz,controller.actuatorThrust,controller.roll,controller.pitch,controller.yaw,controller.rollRate,controller.pitchRate,controller.yawRate,controller.ctr_yaw
0.0,0.009499825537204742,-0.0019220745889469981,0.0006662029190920293,0.0,0.0,0.0,0.0,-0.00041815551230683923,0.0020328788086771965,0.0005827205604873598,1.0019429922103882,0.0,0.0,0.0,14.063138008117676,5.353569984436035,0.09580123424530029,-2545.4560546875,0
9.873999999999796,0.009477620013058186,-0.001965442206710577,0.0006458451389335096,0.0,0.0,0.0,0.0,0.0007819152087904513,0.002253355458378792,0.0001631548657314852,1.0011696815490723,0.0,0.0,0.0,14.075173377990723,5.3456010818481445,0.09175128489732742,-2547.63427734375,0
19.76000000000022,0.009546883404254913,-0.0019082565559074283,0.0006270362064242363,0.0,0.0,0.0,0.0,-0.0017569120973348618,0.0012385295704007149,-0.00035356494481675327,0.9994322657585144,0.0,0.0,0.0,14.06084156036377,5.338525772094727,0.08949320018291473,-2545.040283203125,0
29.646999999999025,0.009503542445600033,-0.0019699183758348227,0.0005784554523415864,0.0,0.0,0.0,0.0,0.0017714870627969503,-0.003981086425483227,0.0024613651912659407,0.9987961053848267,0.0,0.0,0.0,14.077750205993652,5.3324480056762695,0.08209051936864853,-2548.100830078125,0
39.542999999999665,0.009546546265482903,-0.001932836603373289,0.0005765166133642197,0.0,0.0,0.0,0.0,0.0003016265982296318,-0.0022122501395642757,0.0015812701312825084,1.0003763437271118,0.0,0.0,0.0,14.063997268676758,5.325571537017822,0.08696535229682922,-2545.611572265625,0
49.417999999999665,0.009554741904139519,-0.0019659860990941525,0.000571623386349529,0.0,0.0,0.0,0.0,0.0018436646787449718,0.00201956694945693,0.0002723982324823737,0.9991079568862915,0.0,0.0,0.0,14.078644752502441,5.3207526206970215,0.08694462478160858,-2548.2626953125,0
59.310999999999694,0.009543189778923988,-0.001967646647244692,0.0006268523284234107,0.0,0.0,0.0,0.0,-0.004089793656021357,0.004348472226411104,0.0010914913145825267,0.9996510744094849,0.0,0.0,0.0,14.064593315124512,5.308008670806885,0.06644812226295471,-2545.71923828125,0
69.19000000000051,0.009541066363453865,-0.0019985113758593798,0.0006247316487133503,0.0,0.0,0.0,0.0,0.0010897048050537705,-0.0017512368503957987,-0.00029347871895879507,1.0008822679519653,0.0,0.0,0.0,14.081064224243164,5.302499771118164,0.05522460117936134,-2548.700439453125,0
79.08599999999933,0.009546755813062191,-0.0020097102969884872,0.0006544683128595352,0.0,0.0,0.0,0.0,0.0022203458938747644,0.0009891700465232134,0.0024142186157405376,1.000229001045227,0.0,0.0,0.0,14.06702709197998,5.293880462646484,0.05377839505672455,-2546.15966796875,0
88.96399999999994,0.009537775069475174,-0.0020359870977699757,0.0006587638636119664,0.0,0.0,0.0,0.0,-0.0002417351061012596,0.0002718342002481222,0.0004384542116895318,1.0018198490142822,0.0,0.0,0.0,14.083274841308594,5.289764404296875,0.057871561497449875,-2549.100830078125,0
98.84900000000016,0.009565950371325016,-0.001990789547562599,0.0007012487039901316,0.0,0.0,0.0,0.0,0.0008260263130068779,0.007446608040481806,-0.0015188099350780249,0.9995366930961609,0.0,0.0,0.0,14.069366455078125,5.28386116027832,0.03969711810350418,-2546.58349609375,0
108.74200000000019,0.009491595439612865,-0.002020592102780938,0.000679360528010875,0.0,0.0,0.0,0.0,0.0038571238983422518,0.003979965578764677,-1.793665978766512e-05,0.9999753832817078,0.0,0.0,0.0,14.079705238342285,5.275192737579346,0.015779413282871246,-2548.45458984375,0
118.6190000000006,0.009523926302790642,-0.001988424453884363,0.0007014902075752616,0.0,0.0,0.0,0.0,-0.0017981125274673104,-0.006042127963155508,0.0018873210065066814,1.0002232789993286,0.0,0.0,0.0,14.074448585510254,5.284819602966309,0.018266864120960236,-2547.503173828125,0
128.5069999999996,0.009465976618230343,-0.002018547151237726,0.0006882251473143697,0.0,0.0,0.0,0.0,-0.003111049998551607,-0.001483652158640325,0.00033749669091776013,0.9997522830963135,0.0,0.0,0.0,14.083495140075684,5.289989948272705,0.021948855370283127,-2549.140380859375,0
138.39500000000044,0.009498318657279015,-0.0019744487944990396,0.0007141779642552137,0.0,0.0,0.0,0.0,-0.0007547212881036103,0.0032606031745672226,-0.003893812419846654,0.999617874622345,0.0,0.0,0.0,14.080782890319824,5.30397891998291,0.0321182981133461,-2548.649658203125,0
148.28399999999965,0.009423498064279556,-0.001988782547414303,0.0007003291975706816,0.0,0.0,0.0,0.0,-0.001303727738559246,-0.0022195088677108288,0.004080555401742458,1.0016906261444092,0.0,0.0,0.0,14.093076705932617,5.308228015899658,0.012582197785377502,-2550.874755859375,0
158.16899999999987,0.009453976526856422,-0.0019585262052714825,0.0007145022973418236,0.0,0.0,0.0,0.0,0.0016579227522015572,-0.003002240788191557,0.0018796564545482397,1.0017019510269165,0.0,0.0,0.0,14.087486267089844,5.309637069702148,0.02282819151878357,-2549.86279296875,0
168.0550000000003,0.009400757029652596,-0.0019782986491918564,0.0007095201872289181,0.0,0.0,0.0,0.0,0.0028503143694251776,0.0012522730976343155,9.294081974076107e-05,1.0006805658340454,0.0,0.0,0.0,14.101431846618652,5.309034824371338,0.021868957206606865,-2552.387451171875,0
177.9400000000005,0.00943825300782919,-0.0019376365235075355,0.000717131479177624,0.0,0.0,0.0,0.0,-0.00187894725240767,-0.0016785112675279379,0.0022395842242985964,1.0014744997024536,0.0,0.0,0.0,14.095306396484375,5.309051513671875,0.029423875734210014,-2551.2783203125,0
187.82899999999972,0.009443500079214573,-0.0019980003125965595,0.0007114649633876979,0.0,0.0,0.0,0.0,-0.002473575994372368,-0.0006029594223946333,-0.003041663207113743,1.0018863677978516,0.0,0.0,0.0,14.105424880981445,5.303906440734863,0.030178405344486237,-2553.110107421875,0
197.70800000000054,0.009513122960925102,-0.0019268892938271165,0.0006959137972444296,0.0,0.0,0.0,0.0,0.0003447973576840013,0.0005054412176832557,0.0007660234114155173,1.0011380910873413,0.0,0.0,0.0,14.089966773986816,5.30403995513916,0.02487391047179699,-2550.311767578125,0
207.60399999999936,0.009559315629303455,-0.0019993081223219633,0.0006975811556912959,0.0,0.0,0.0,0.0,0.0023787948302924633,0.0019438940798863769,-0.00031204504193738103,1.0005950927734375,0.0,0.0,0.0,14.098907470703125,5.2863945960998535,0.031596839427948,-2551.930419921875,0
217.48599999999897,0.009607568383216858,-0.0019518140470609069,0.0007077374611981213,0.0,0.0,0.0,0.0,0.0026358577888458967,0.005532481707632542,-0.0006102218758314848,0.9972252249717712,0.0,0.0,0.0,14.084317207336426,5.2770280838012695,0.02077106200158596,-2549.289306640625,0
227.3690000000006,0.00956763792783022,-0.001980100991204381,0.0007001763442531228,0.0,0.0,0.0,0.0,-0.003059771843254566,0.0014410833828151226,-0.0017626537010073662,0.9987888336181641,0.0,0.0,0.0,14.096173286437988,5.271148204803467,-0.002626118017360568,-2551.435546875,0
237.2579999999998,0.009604248218238354,-0.001953140366822481,0.0007064546225592494,0.0,0.0,0.0,0.0,-0.00042651392868719995,-0.00028785207541659474,-0.0010718160774558783,1.0002386569976807,0.0,0.0,0.0,14.081682205200195,5.26947021484375,-0.004717819858342409,-2548.812255859375,0
247.1389999999992,0.009510384872555733,-0.0019886032678186893,0.0006694630137644708,0.0,0.0,0.0,0.0,-0.0001757694990374148,0.0011114192893728614,-0.001167135196737945,0.9990146160125732,0.0,0.0,0.0,14.090882301330566,5.268492221832275,-0.016378741711378098,-2550.477783203125,0
257.02599999999984,0.009546296671032906,-0.0019644461572170258,0.0006638163467869163,0.0,0.0,0.0,0.0,-0.0005559757119044662,0.003075171960517764,-0.002821823814883828,0.9991779327392578,0.0,0.0,0.0,14.068971633911133,5.2698140144348145,-0.016767151653766632,-2546.51171875,0
266.91200000000026,0.00947395246475935,-0.001986283343285322,0.0006422160076908767,0.0,0.0,0.0,0.0,0.0001855318114394322,-0.005475811194628477,0.00030901606078259647,0.9987608790397644,0.0,0.0,0.0,14.080485343933105,5.275362014770508,-0.03066973015666008,-2548.595703125,0
276.8009999999995,0.00946943461894989,-0.0019843140617012978,0.0006755689391866326,0.0,0.0,0.0,0.0,0.0009556444128975272,0.004430884495377541,-0.0001299266004934907,1.000458836555481,0.0,0.0,0.0,14.0658597946167,5.2690534591674805,-0.022560687735676765,-2545.94873046875,0
286.6849999999995,0.00940510630607605,-0.0019897676538676023,0.0006685893167741597,0.0,0.0,0.0,0.0,0.00018630974227562547,0.00021810769976582378,-0.0020817497279495,1.0007967948913574,0.0,0.0,0.0,14.080459594726562,5.2709574699401855,-0.03139089047908783,-2548.591064453125,0
296.5750000000007,0.009465627372264862,-0.0019242697162553668,0.0006447025225497782,0.0,0.0,0.0,0.0,-0.0017155803507193923,0.0003283057303633541,0.0016449091490358114,0.9999605417251587,0.0,0.0,0.0,14.06639289855957,5.263978481292725,-0.02559194155037403,-2546.045166015625,0
306.45800000000054,0.0094932671636343,-0.001981468638405204,0.0006384971784427762,0.0,0.0,0.0,0.0,-0.0016408885130658746,-0.002632553456351161,-0.0010272240033373237,1.0001776218414307,0.0,0.0,0.0,14.083038330078125,5.252949237823486,-0.026369383558630943,-2549.05810546875,0
316.34499999999935,0.009508906863629818,-0.001960057532414794,0.0006595707382075489,0.0,0.0,0.0,0.0,0.001533650909550488,0.0048463959246873856,0.00010030699195340276,1.0002802610397339,0.0,0.0,0.0,14.075323104858398,5.260607719421387,-0.020168382674455643,-2547.661376953125,0
326.2350000000006,0.009470748715102673,-0.0019966198597103357,0.0006430509965866804,0.0,0.0,0.0,0.0,-0.002640200313180685,0.00018171749252360314,-0.0002462053671479225,1.000254511833191,0.0,0.0,0.0,14.087340354919434,5.258425235748291,-0.026791347190737724,-2549.83642578125,0
336.1209999999992,0.009471127763390541,-0.001993539510294795,0.0006772037013433874,0.0,0.0,0.0,0.0,-0.0015328931622207165,0.0027801701799035072,0.00038533707265742123,1.0000728368759155,0.0,0.0,0.0,14.072364807128906,5.257554531097412,-0.025613274425268173,-2547.1259765625,0
346.0069999999996,0.009363532066345215,-0.00196333066560328,0.0006826702156104147,0.0,0.0,0.0,0.0,0.0007026105304248631,-0.006437100935727358,0.00385001627728343,0.9990500807762146,0.0,0.0,0.0,14.086183547973633,5.272692680358887,-0.03523361310362816,-2549.627197265625,0
355.884,0.009378818795084953,-0.0019517657347023487,0.0006940789753571153,0.0,0.0,0.0,0.0,-0.0014247373910620809,0.0003206054389011115,-0.00021087063942104578,0.9992675185203552,0.0,0.0,0.0,14.072819709777832,5.264355182647705,-0.03256640210747719,-2547.20849609375,0
365.77499999999964,0.009414920583367348,-0.0020225655753165483,0.0006906758062541485,0.0,0.0,0.0,0.0,0.0018818253884091973,-0.0030418254900723696,0.0010209293104708195,0.999387264251709,0.0,0.0,0.0,14.083805084228516,5.2554521560668945,-0.02933041751384735,-2549.19677734375,0
375.65999999999985,0.009427433833479881,-0.002013858873397112,0.0007091521983966231,0.0,0.0,0.0,0.0,0.0022191726602613926,0.0035810640547424555,0.0025620649103075266,1.0025222301483154,0.0,0.0,0.0,14.059772491455078,5.2516326904296875,-0.02056512050330639,-2544.8466796875,0
385.54399999999987,0.009421342983841896,-0.00205849576741457,0.0007101015653461218,0.0,0.0,0.0,0.0,-0.0013380603631958365,-0.0037489773239940405,0.0035958734806627035,0.9998123049736023,0.0,0.0,0.0,14.067054748535156,5.233380317687988,-0.030442530289292336,-2546.164794921875,0
395.4349999999995,0.0095105841755867,-0.001961088040843606,0.0006767801241949201,0.0,0.0,0.0,0.0,0.0009566162480041385,0.008114052005112171,0.003674846375361085,0.9998379349708557,0.0,0.0,0.0,14.054262161254883,5.232082366943359,-0.022189781069755554,-2543.849609375,0
405.3169999999991,0.009520365856587887,-0.002008171984925866,0.0006741108372807503,0.0,0.0,0.0,0.0,0.001812485046684742,0.0005061963456682861,0.0014877738431096077,1.0004228353500366,0.0,0.0,0.0,14.071159362792969,5.218730926513672,-0.033072471618652344,-2546.907958984375,0
415.20600000000013,0.009511304087936878,-0.0020250047091394663,0.0007168373558670282,0.0,0.0,0.0,0.0,-0.0016611004248261452,0.0005923883290961385,0.0006089239032007754,1.0016212463378906,0.0,0.0,0.0,14.057761192321777,5.215210914611816,-0.036242108792066574,-2544.48291015625,0
425.10000000000036,0.009464684873819351,-0.002087667118757963,0.0006821395945735276,0.0,0.0,0.0,0.0,0.0016707369359210134,-0.00084322365000844,0.00026309327222406864,0.9999037384986877,0.0,0.0,0.0,14.075417518615723,5.200133800506592,-0.04950263723731041,-2547.678466796875,0
434.97899999999936,0.009508425369858742,-0.0020303023047745228,0.0006988662062212825,0.0,0.0,0.0,0.0,0.0028457017615437508,-0.0023438900243490934,0.0017201317241415381,0.998778223991394,0.0,0.0,0.0,14.070106506347656,5.211088180541992,-0.0371793657541275,-2546.717041015625,0
444.8649999999998,0.009454416111111641,-0.0020567174069583416,0.0006931903189979494,0.0,0.0,0.0,0.0,-0.0001317651622230187,-0.0018444278975948691,0.00025202680262736976,1.000346064567566,0.0,0.0,0.0,14.07718563079834,5.2048234939575195,-0.03579792007803917,-2547.99853515625,0
454.7549999999992,0.00948980450630188,-0.0020166863687336445,0.0007090750150382519,0.0,0.0,0.0,0.0,0.0028007542714476585,-0.005019814241677523,-0.001934632076881826,0.9999021887779236,0.0,0.0,0.0,14.070663452148438,5.218893051147461,-0.025521449744701385,-2546.818115234375,0
464.6389999999992,0.00949857011437416,-0.0020496691577136517,0.0007281266152858734,0.0,0.0,0.0,0.0,-0.001207610359415412,0.003256450407207012,-0.0015333358896896243,1.0017085075378418,0.0,0.0,0.0,14.080842018127441,5.208761692047119,-0.02439478226006031,-2548.660400390625,0
474.52299999999923,0.009562943130731583,-0.001991337165236473,0.0007160490495152771,0.0,0.0,0.0,0.0,0.0018072824459522963,0.0018377969972789288,0.000786145799793303,1.003806710243225,0.0,0.0,0.0,14.065757751464844,5.208094120025635,-0.03905119001865387,-2545.929931640625,0
484.41899999999987,0.009527928195893764,-0.0020373580045998096,0.000705134414602071,0.0,0.0,0.0,0.0,-0.0009589734254404902,-0.0043038479052484035,-0.0016632403712719679,1.0005543231964111,0.0,0.0,0.0,14.081867218017578,5.201570510864258,-0.053245801478624344,-2548.845947265625,0
494.2960000000003,0.009531431831419468,-0.002085268497467041,0.0007155379862524569,0.0,0.0,0.0,0.0,0.0017285967478528619,0.005628041457384825,0.003700487781316042,1.0017061233520508,0.0,0.0,0.0,14.067779541015625,5.197905540466309,-0.052896495908498764,-2546.296142578125,0
504.1859999999997,0.009441922418773174,-0.002125378232449293,0.0007141258683986962,0.0,0.0,0.0,0.0,-0.0006566123920492828,0.002343164524063468,-0.0024692020379006863,1.0005240440368652,0.0,0.0,0.0,14.076789855957031,5.1990509033203125,-0.08277948945760727,-2547.9267578125,0
514.0660000000007,0.009545142762362957,-0.0020162081345915794,0.0006598131149075925,0.0,0.0,0.0,0.0,-0.0029119960963726044,-0.001878153532743454,-0.002037032740190625,0.9983627200126648,0.0,0.0,0.0,14.062419891357422,5.201120853424072,-0.0852212905883789,-2545.325927734375,0
523.9599999999991,0.009510893374681473,-0.002057059668004513,0.000656435324344784,0.0,0.0,0.0,0.0,0.0008279165485873818,0.0011151314247399569,-0.0010249343467876315,1.0002825260162354,0.0,0.0,0.0,14.081175804138184,5.2022905349731445,-0.08026675879955292,-2548.720703125,0
533.8369999999995,0.009602355770766735,-0.0019369107903912663,0.0006319183739833534,0.0,0.0,0.0,0.0,0.00035848122206516564,-0.0030807252041995525,-0.00014883530093356967,0.9996665716171265,0.0,0.0,0.0,14.060559272766113,5.234078407287598,-0.05706223100423813,-2544.989013671875,0
543.741,0.0095618711784482,-0.0019747812766581774,0.0006187770632095635,0.0,0.0,0.0,0.0,-0.0003657604684121907,-0.0005179879954084754,0.0032402004580944777,1.0012102127075195,0.0,0.0,0.0,14.077828407287598,5.2316155433654785,-0.06111352890729904,-2548.114990234375,0
553.6100000000006,0.009579265490174294,-0.001948005985468626,0.0006501275347545743,0.0,0.0,0.0,0.0,0.001005331170745194,-0.001441197469830513,0.0003522739571053535,0.9993056654930115,0.0,0.0,0.0,14.058014869689941,5.2436442375183105,-0.06538409739732742,-2544.52880859375,0
563.5020000000004,0.009497607126832008,-0.001979653025045991,0.000627103028818965,0.0,0.0,0.0,0.0,0.0006168724503368139,0.0016722317086532712,-0.0020682259928435087,0.9998957514762878,0.0,0.0,0.0,14.068137168884277,5.239187240600586,-0.07164262980222702,-2546.36083984375,0
573.384,0.009497500956058502,-0.0019522213842719793,0.0006810440099798143,0.0,0.0,0.0,0.0,0.0019692385103553534,-0.0016006884397938848,0.0024603644851595163,0.9992011189460754,0.0,0.0,0.0,14.053770065307617,5.237008571624756,-0.08113009482622147,-2543.76025390625,0
583.2800000000007,0.0095047727227211,-0.0020221835002303123,0.0006735878996551037,0.0,0.0,0.0,0.0,-0.0010690835770219564,-0.001392364501953125,-0.0005044224672019482,0.9997855424880981,0.0,0.0,0.0,14.073714256286621,5.218933582305908,-0.07405771315097809,-2547.370361328125,0
593.1550000000007,0.009490609169006348,-0.0020385629031807184,0.0007215888472273946,0.0,0.0,0.0,0.0,0.0036689029075205326,-0.0021686051040887833,0.0016128314891830087,1.0003308057785034,0.0,0.0,0.0,14.052167892456055,5.221618175506592,-0.07482891529798508,-2543.47021484375,0
603.0570000000007,0.009434878826141357,-0.0020783361978828907,0.0007138395449146628,0.0,0.0,0.0,0.0,0.000915694166906178,-0.0004052157455589622,-0.00021665330859832466,1.0001325607299805,0.0,0.0,0.0,14.065417289733887,5.208492279052734,-0.07274121046066284,-2545.86865234375,0
612.9259999999995,0.009478284977376461,-0.002023284090682864,0.0007243280415423214,0.0,0.0,0.0,0.0,0.003072639461606741,0.0031725584995001554,0.00021134503185749054,1.0013235807418823,0.0,0.0,0.0,14.057969093322754,5.218080997467041,-0.06629982590675354,-2544.5205078125,0
622.8279999999995,0.00942897517234087,-0.0020650564692914486,0.0007174488273449242,0.0,0.0,0.0,0.0,-0.002254962455481291,-0.010058939456939697,-0.0005805129185318947,1.0016160011291504,0.0,0.0,0.0,14.069215774536133,5.212504863739014,-0.08192962408065796,-2546.555908203125,0
632.6980000000003,0.009424245916306973,-0.0020616608671844006,0.0007684446172788739,0.0,0.0,0.0,0.0,0.000734581146389246,0.0006388277397491038,5.359295755624771e-05,1.0010322332382202,0.0,0.0,0.0,14.054654121398926,5.214791297912598,-0.06750095635652542,-2543.920166015625,0
642.5889999999999,0.009398645721375942,-0.0021192089188843966,0.0007680574199184775,0.0,0.0,0.0,0.0,0.0007062540971674025,-0.002370834583416581,0.004430852364748716,0.9998412132263184,0.0,0.0,0.0,14.064262390136719,5.207335472106934,-0.08083873242139816,-2545.659423828125,0
652.4719999999998,0.009365566074848175,-0.0021496787667274475,0.0008431125897914171,0.0,0.0,0.0,0.0,-0.0014758341712877154,-0.0038061540108174086,0.0010499132331460714,0.997517466545105,0.0,0.0,0.0,14.051569938659668,5.199784755706787,-0.06960541754961014,-2543.362060546875,0
662.357,0.009349225088953972,-0.0022045262157917023,0.0008545543532818556,0.0,0.0,0.0,0.0,-0.0020429501309990883,-0.003516341792419553,-0.0008112824289128184,0.9971640110015869,0.0,0.0,0.0,14.063374519348145,5.20087194442749,-0.0651647225022316,-2545.498779296875,0
672.2420000000002,0.009396695531904697,-0.0021574439015239477,0.0008601478184573352,0.0,0.0,0.0,0.0,-6.880301953060552e-05,-0.0001901772484416142,0.0025915855076164007,0.9988883137702942,0.0,0.0,0.0,14.057442665100098,5.212362289428711,-0.04738905280828476,-2544.42529296875,0
682.1309999999994,0.00940915010869503,-0.0022510504350066185,0.0008521518320776522,0.0,0.0,0.0,0.0,-0.003135193372145295,0.002400449477136135,-0.0005423155380412936,0.9994603395462036,0.0,0.0,0.0,14.068635940551758,5.204566955566406,-0.03722148388624191,-2546.451171875,0
692.0190000000002,0.00949509534984827,-0.0021664081141352654,0.0008285782532766461,0.0,0.0,0.0,0.0,0.0022493149153888226,0.007399558089673519,-0.0005569189670495689,1.0015531778335571,0.0,0.0,0.0,14.062339782714844,5.221829414367676,-0.029449230059981346,-2545.311279296875,0
701.902,0.009418655186891556,-0.0022002074401825666,0.000820119515992701,0.0,0.0,0.0,0.0,-0.0002805519907269627,0.0012093937257304788,-0.0012902140151709318,1.0023894309997559,0.0,0.0,0.0,14.072407722473145,5.21624755859375,-0.04291139170527458,-2547.133544921875,0
711.7880000000005,0.009542908519506454,-0.002071287017315626,0.0007661059498786926,0.0,0.0,0.0,0.0,0.001098612672649324,-0.00158828089479357,-0.005153657868504524,1.0004842281341553,0.0,0.0,0.0,14.057232856750488,5.208750247955322,-0.05410285294055939,-2544.38720703125,0
721.6810000000005,0.009444904513657093,-0.0021002348512411118,0.000742014148272574,0.0,0.0,0.0,0.0,-0.006475241854786873,-0.003982373047620058,0.0014090719632804394,1.0003862380981445,0.0,0.0,0.0,14.068531036376953,5.213297367095947,-0.05957428365945816,-2546.431884765625,0
731.5660000000007,0.009572235867381096,-0.0019485759548842907,0.000693898240569979,0.0,0.0,0.0,0.0,0.002628036541864276,-0.0011892453767359257,-0.002879133215174079,1.0012140274047852,0.0,0.0,0.0,14.054981231689453,5.213600158691406,-0.058096203953027725,-2543.9794921875,0
741.4619999999995,0.009490987285971642,-0.002010197611525655,0.000640318903606385,0.0,0.0,0.0,0.0,0.0005461675464175642,0.0034024850465357304,-0.002597192069515586,0.9991841316223145,0.0,0.0,0.0,14.07197093963623,5.201256275177002,-0.06923375278711319,-2547.0546875,0
751.3310000000001,0.00952570978552103,-0.001990062417462468,0.000637063174508512,0.0,0.0,0.0,0.0,0.0015657421899959445,-0.0031992632430046797,0.004210743121802807,1.0002000331878662,0.0,0.0,0.0,14.057194709777832,5.1959028244018555,-0.07915044575929642,-2544.38037109375,0
761.2260000000006,0.009513848461210728,-0.0020124223083257675,0.0006518352311104536,0.0,0.0,0.0,0.0,0.00033650631667114794,0.0009837039979174733,0.0012703967513516545,1.0008697509765625,0.0,0.0,0.0,14.06740951538086,5.1949968338012695,-0.05104072019457817,-2546.229248046875,0
771.1039999999994,0.009507314302027225,-0.002036141464486718,0.0006874740356579423,0.0,0.0,0.0,0.0,0.0013381332391873002,-0.004267137497663498,0.0015466834884136915,1.000784993171692,0.0,0.0,0.0,14.05328369140625,5.185936450958252,-0.049614060670137405,-2543.672119140625,0
781.0010000000002,0.009449749253690243,-0.0020737226586788893,0.0006751988548785448,0.0,0.0,0.0,0.0,-0.0038594193756580353,0.00013657755334861577,0.0004724915197584778,0.9992307424545288,0.0,0.0,0.0,14.06531810760498,5.187220573425293,-0.04277487471699715,-2545.850341796875,0
790.8780000000006,0.009485538117587566,-0.002030939096584916,0.0006906279595568776,0.0,0.0,0.0,0.0,-0.000297251099254936,-0.0009581286576576531,-0.0005955155938863754,0.9997938871383667,0.0,0.0,0.0,14.05262565612793,5.187257289886475,-0.04424627497792244,-2543.552978515625,0
800.7839999999997,0.009355447255074978,-0.002043673302978277,0.0006631530704908073,0.0,0.0,0.0,0.0,-0.001642821473069489,0.006196892820298672,0.00161456479690969,1.0000911951065063,0.0,0.0,0.0,14.064395904541016,5.193044662475586,-0.05603928491473198,-2545.683837890625,0
810.6489999999994,0.009351000189781189,-0.002092743990942836,0.000664813444018364,0.0,0.0,0.0,0.0,0.0012005650205537677,0.006565587595105171,-0.002954967087134719,1.0006821155548096,0.0,0.0,0.0,14.050786018371582,5.184147357940674,-0.08252906799316406,-2543.22021484375,0
820.5460000000003,0.009295170195400715,-0.002125084400177002,0.0006715483032166958,0.0,0.0,0.0,0.0,-0.0013446888187900186,0.0004228809557389468,0.001776997116394341,1.0005723237991333,0.0,0.0,0.0,14.06566047668457,5.183246612548828,-0.0976889580488205,-2545.91259765625,0
830.4200000000001,0.009376239962875843,-0.0020117387175559998,0.0006440809229388833,0.0,0.0,0.0,0.0,-2.0194840544718318e-05,0.0038150919135659933,0.001113847945816815,1.0009900331497192,0.0,0.0,0.0,14.05078125,5.217983245849609,-0.07423961162567139,-2543.21923828125,0
840.3140000000003,0.009353827685117722,-0.002029817784205079,0.0006655227043665946,0.0,0.0,0.0,0.0,0.00040155911119654775,0.004840224515646696,0.003445910755544901,0.9986957311630249,0.0,0.0,0.0,14.065309524536133,5.219885349273682,-0.08902636170387268,-2545.848876953125,0
850.1919999999991,0.009349353611469269,-0.0020748721435666084,0.000669643166474998,0.0,0.0,0.0,0.0,0.0006723072729073465,-0.001077447785064578,-0.0007952313753776252,1.0005524158477783,0.0,0.0,0.0,14.050875663757324,5.2135796546936035,-0.09731502830982208,-2543.236328125,0
860.0849999999991,0.009365693666040897,-0.002116744639351964,0.0006868611089885235,0.0,0.0,0.0,0.0,0.003168305614963174,0.0047570825554430485,-0.0018657440086826682,1.0014384984970093,0.0,0.0,0.0,14.063130378723145,5.205856800079346,-0.0931319072842598,-2545.454345703125,0
869.9639999999999,0.009434337727725506,-0.002041078871116042,0.0006491408566944301,0.0,0.0,0.0,0.0,-0.0011013608891516924,-0.001916107488796115,-0.0006733061163686216,1.0004329681396484,0.0,0.0,0.0,14.058459281921387,5.227703094482422,-0.08202860504388809,-2544.609130859375,0
879.860999999999,0.009426828473806381,-0.0020751822739839554,0.0006663050735369325,0.0,0.0,0.0,0.0,0.0011660794261842966,0.0025482068303972483,0.003318162402138114,0.9994576573371887,0.0,0.0,0.0,14.06711483001709,5.226998805999756,-0.07046891003847122,-2546.175537109375,0
889.7369999999992,0.00942615233361721,-0.002065272070467472,0.0007178271189332008,0.0,0.0,0.0,0.0,0.003555174684152007,0.003029809333384037,0.0014006580458953977,1.00065016746521,0.0,0.0,0.0,14.054021835327148,5.218555927276611,-0.07116302847862244,-2543.805908203125,0
899.6309999999994,0.009401651099324226,-0.002101999707520008,0.000723262841347605,0.0,0.0,0.0,0.0,0.0012331291800364852,0.0050057354383170605,0.0016692790668457747,0.9995158910751343,0.0,0.0,0.0,14.064210891723633,5.209048748016357,-0.08281966298818588,-2545.650146484375,0
909.5139999999992,0.009425756521522999,-0.0020559264812618494,0.000764115247875452,0.0,0.0,0.0,0.0,0.0011265306966379285,2.3256347958522383e-06,0.0028733056969940662,0.9998408555984497,0.0,0.0,0.0,14.059356689453125,5.214162826538086,-0.07960623502731323,-2544.771728515625,0
919.4140000000007,0.009444263763725758,-0.0021449013147503138,0.0007459344924427569,0.0,0.0,0.0,0.0,0.0017586946487426758,0.003272647736594081,0.0008663739426992834,1.0012181997299194,0.0,0.0,0.0,14.071374893188477,5.199128150939941,-0.08407934010028839,-2546.94677734375,0
929.2849999999999,0.009450890123844147,-0.0021579379681497812,0.0007843252387829125,0.0,0.0,0.0,0.0,-0.0017124379519373178,-0.00073659373447299,-0.0008576152613386512,1.00190269947052,0.0,0.0,0.0,14.057888984680176,5.190156936645508,-0.08086550235748291,-2544.505859375,0
939.1820000000007,0.009414302185177803,-0.0021908951457589865,0.0007977930945344269,0.0,0.0,0.0,0.0,0.0006438702112063766,-0.0007799201412126422,-0.0009996345033869147,1.0011845827102661,0.0,0.0,0.0,14.0669527053833,5.191558361053467,-0.07730238139629364,-2546.146240234375,0
949.0540000000001,0.009497469291090965,-0.0020969032775610685,0.000794461986515671,0.0,0.0,0.0,0.0,-0.0002664601488504559,0.0018650171114131808,0.001184607157483697,1.000840425491333,0.0,0.0,0.0,14.05369758605957,5.188870906829834,-0.08087147772312164,-2543.747314453125,0
958.9529999999995,0.00943573284894228,-0.002126973122358322,0.0007958257338032126,0.0,0.0,0.0,0.0,-0.002745674690231681,0.003501397790387273,-0.0009334170608781278,1.0017586946487427,0.0,0.0,0.0,14.06491470336914,5.191024303436279,-0.09503196179866791,-2545.77734375,0
968.8310000000001,0.009576300159096718,-0.0020022045355290174,0.0007257618708536029,0.0,0.0,0.0,0.0,-0.00016632229380775243,-0.00348229450173676,-0.0007469728006981313,1.0022625923156738,0.0,0.0,0.0,14.050829887390137,5.192715167999268,-0.10194221884012222,-2543.22802734375,0
978.7180000000008,0.00944694597274065,-0.002011778298765421,0.000702111457940191,0.0,0.0,0.0,0.0,-0.0009417182300239801,0.002354229800403118,0.0035017875488847494,1.0019010305404663,0.0,0.0,0.0,14.065179824829102,5.205679893493652,-0.12472990155220032,-2545.825439453125,0
988.5990000000002,0.00956425815820694,-0.001884907716885209,0.0006624015513807535,0.0,0.0,0.0,0.0,0.001531981979496777,0.004504112992435694,-0.0012152129784226418,0.9991453289985657,0.0,0.0,0.0,14.037306785583496,5.229517936706543,-0.1064063236117363,-2540.780517578125,0
998.491,0.009382677264511585,-0.0018698596395552158,0.0006302566616795957,0.0,0.0,0.0,0.0,-0.001960297115147114,-0.006237005349248648,0.004324994515627623,0.9997801184654236,0.0,0.0,0.0,14.053936004638672,5.234867095947266,-0.13870258629322052,-2543.79052734375,0
1008.369999999999,0.009414824657142162,-0.0018563070334494114,0.0006298299995251,0.0,0.0,0.0,0.0,0.001704437774606049,-0.00534409424290061,0.005315104499459267,0.999128520488739,0.0,0.0,0.0,14.041304588317871,5.235815525054932,-0.1265375018119812,-2541.50390625,0
1018.2710000000006,0.009418625384569168,-0.0019091630820184946,0.0006276061176322401,0.0,0.0,0.0,0.0,0.0016901358030736446,-4.215238004690036e-05,-0.0016448410460725427,0.9986510872840881,0.0,0.0,0.0,14.057507514953613,5.228976249694824,-0.1173236146569252,-2544.436767578125,0
1028.1440000000002,0.009455118328332901,-0.0019060109043493867,0.0006115956348367035,0.0,0.0,0.0,0.0,0.0020225681364536285,0.0028798964340239763,0.00013596170174423605,1.0003105401992798,0.0,0.0,0.0,14.043408393859863,5.226911544799805,-0.10361199080944061,-2541.885009765625,0
1038.0470000000005,0.009455300867557526,-0.0019690063782036304,0.0006020544678904116,0.0,0.0,0.0,0.0,0.002271751407533884,-0.0017408202402293682,-0.0017064673593267798,0.9986698627471924,0.0,0.0,0.0,14.058085441589355,5.215194225311279,-0.11777819693088531,-2544.541259765625,0
1047.9140000000007,0.009456232190132141,-0.0019466174999251962,0.0006546509102918208,0.0,0.0,0.0,0.0,-0.001152789336629212,0.001942237140610814,-0.0022198192309588194,0.9972692131996155,0.0,0.0,0.0,14.037801742553711,5.215011119842529,-0.11563295125961304,-2540.869873046875,0
1057.8150000000005,0.009448548778891563,-0.002035262528806925,0.0006212618900462985,0.0,0.0,0.0,0.0,0.0006804498843848705,0.00020298874005675316,0.0012623431393876672,1.0001215934753418,0.0,0.0,0.0,14.058363914489746,5.205366134643555,-0.12520955502986908,-2544.591796875,0
1067.6859999999997,0.009527877904474735,-0.0019296922255307436,0.0006104034837335348,0.0,0.0,0.0,0.0,0.0006718387012369931,0.006548080127686262,0.0013172624167054892,1.0014045238494873,0.0,0.0,0.0,14.04457950592041,5.200663089752197,-0.12182816118001938,-2542.096923828125,0
1077.5810000000001,0.009480670094490051,-0.0020014075562357903,0.0005655975546687841,0.0,0.0,0.0,0.0,0.004951849579811096,0.0008949685143306851,0.001063395175151527,0.999499499797821,0.0,0.0,0.0,14.065496444702148,5.191627025604248,-0.139197438955307,-2545.8828125,0
1087.4599999999991,0.009525718167424202,-0.0019467819947749376,0.0005713282735086977,0.0,0.0,0.0,0.0,0.0012764337006956339,-0.0008836723282001913,-0.00010337771527701989,0.9985501170158386,0.0,0.0,0.0,14.051252365112305,5.1767168045043945,-0.13915051519870758,-2543.3046875,0
1097.357,0.00958637148141861,-0.0020400132052600384,0.0005658410955220461,0.0,0.0,0.0,0.0,-0.0006132934940978885,-0.00031749712070450187,-0.0018630340928211808,0.9992882609367371,0.0,0.0,0.0,14.06925106048584,5.161656379699707,-0.1163090169429779,-2546.562255859375,0
1107.2340000000004,0.009589294902980328,-0.002042019972577691,0.0006012759986333549,0.0,0.0,0.0,0.0,0.0020393221639096737,-0.003458090126514435,-0.0017810692079365253,1.0021191835403442,0.0,0.0,0.0,14.060708999633789,5.16782808303833,-0.11564433574676514,-2545.01611328125,0
1117.1260000000002,0.009575368836522102,-0.0020967540331184864,0.0005993309314362705,0.0,0.0,0.0,0.0,0.00032108198502101004,0.0053905462846159935,1.2144149877713062e-05,1.001846194267273,0.0,0.0,0.0,14.076155662536621,5.163366317749023,-0.11580359190702438,-2547.812255859375,0
1127.0049999999992,0.00958720687776804,-0.0020664858166128397,0.000647140434011817,0.0,0.0,0.0,0.0,0.0002356799232074991,0.0002967763284686953,-0.00018466859182808548,1.000341534614563,0.0,0.0,0.0,14.062736511230469,5.160719871520996,-0.11664645373821259,-2545.38330078125,0
1136.9009999999998,0.009533870965242386,-0.0021005698945373297,0.0006474372930824757,0.0,0.0,0.0,0.0,0.0023313991259783506,0.006295208353549242,0.00450992863625288,1.0006133317947388,0.0,0.0,0.0,14.079773902893066,5.156643867492676,-0.13266651332378387,-2548.467041015625,0
1146.7780000000002,0.009536080062389374,-0.0020932890474796295,0.0006926173809915781,0.0,0.0,0.0,0.0,-0.0009947627549991012,-0.0009819987462833524,-0.00027676354511640966,1.0013498067855835,0.0,0.0,0.0,14.059402465820312,5.161632061004639,-0.136764794588089,-2544.77978515625,0
1156.6820000000007,0.009403935633599758,-0.002088487148284912,0.0006910566007718444,0.0,0.0,0.0,0.0,-0.002100467449054122,-0.0006120994221419096,-0.0014401946682482958,1.002116084098816,0.0,0.0,0.0,14.075835227966309,5.172309875488281,-0.15639106929302216,-2547.754150390625,0
1166.5499999999993,0.009454384446144104,-0.0020109100732952356,0.0007073457236401737,0.0,0.0,0.0,0.0,-0.0021827248856425285,-3.6137100778432796e-06,0.0014023131225258112,1.0022010803222656,0.0,0.0,0.0,14.062662124633789,5.1710052490234375,-0.1593436300754547,-2545.36962890625,0
1176.4429999999993,0.00939097162336111,-0.0020416495390236378,0.0007103511597961187,0.0,0.0,0.0,0.0,0.0017788344994187355,0.001057442044839263,7.498353079427034e-05,1.0002280473709106,0.0,0.0,0.0,14.078606605529785,5.17844820022583,-0.17014776170253754,-2548.255615234375,0
1186.3230000000003,0.009373264387249947,-0.0020487934816628695,0.0007764680776745081,0.0,0.0,0.0,0.0,-0.0031141480430960655,-0.002879375359043479,0.0009805584559217095,0.998052179813385,0.0,0.0,0.0,14.056816101074219,5.184997081756592,-0.17058886587619781,-2544.3115234375,0
1196.2160000000003,0.009345059283077717,-0.002092814538627863,0.0007935430621728301,0.0,0.0,0.0,0.0,0.001443269895389676,0.0028751029167324305,-0.0014652961399406195,0.9994233250617981,0.0,0.0,0.0,14.071247100830078,5.186765670776367,-0.17297221720218658,-2546.923583984375,0
1206.0930000000008,0.00941434409469366,-0.0020147671457380056,0.0007806459907442331,0.0,0.0,0.0,0.0,-0.0011860867962241173,0.003632707055658102,0.0020415603648871183,1.0011636018753052,0.0,0.0,0.0,14.066855430603027,5.198912620544434,-0.16052937507629395,-2546.128662109375,0
1215.9959999999992,0.009309752844274044,-0.0020552603527903557,0.0007626311271451414,0.0,0.0,0.0,0.0,-0.00035913646570406854,0.0012897946871817112,0.001953315921127796,0.9979726672172546,0.0,0.0,0.0,14.082657814025879,5.201417446136475,-0.1629379391670227,-2548.989013671875,0
1225.866,0.009342523291707039,-0.0020290182437747717,0.0007621784461662173,0.0,0.0,0.0,0.0,-6.933888653293252e-05,0.003577153431251645,-0.0006949404487386346,0.9988652467727661,0.0,0.0,0.0,14.068575859069824,5.199141502380371,-0.16764043271541595,-2546.440185546875,0
1235.759,0.009297315962612629,-0.0020323966164141893,0.0007407423690892756,0.0,0.0,0.0,0.0,1.2860843526141252e-05,-0.002493890468031168,-0.002564579714089632,1.0006524324417114,0.0,0.0,0.0,14.098198890686035,5.199043273925781,-0.17086739838123322,-2551.8017578125,0
1245.637999999999,0.009384742937982082,-0.001979910535737872,0.0006890939548611641,0.0,0.0,0.0,0.0,0.0003195583703927696,0.006233973894268274,0.0002826428390108049,1.0007643699645996,0.0,0.0,0.0,14.069390296936035,5.188158988952637,-0.178761824965477,-2546.58740234375,0
1255.5339999999997,0.009333801455795765,-0.001977331005036831,0.000669661327265203,0.0,0.0,0.0,0.0,-0.002940608887001872,0.00271973991766572,-8.274922947748564e-06,0.9994728565216064,0.0,0.0,0.0,14.098976135253906,5.189459323883057,-0.18247771263122559,-2551.942626953125,0
1265.4130000000005,0.009335827082395554,-0.0020093785133212805,0.0006826591561548412,0.0,0.0,0.0,0.0,0.0016158982180058956,0.002926167566329241,0.0008253792766481638,0.999079704284668,0.0,0.0,0.0,14.061882972717285,5.194003582000732,-0.18118920922279358,-2545.228759765625,0
1275.3089999999993,0.00939013622701168,-0.0020557050593197346,0.0006721116951666772,0.0,0.0,0.0,0.0,-0.0002810749283526093,0.0026672042440623045,0.004376649856567383,1.0010501146316528,0.0,0.0,0.0,14.095658302307129,5.181764602661133,-0.1713968962430954,-2551.342041015625,0
1285.1820000000007,0.009477514773607254,-0.002000632230192423,0.000629967893473804,0.0,0.0,0.0,0.0,0.00014412525342777371,0.00517770741134882,-0.00024254887830466032,0.9999441504478455,0.0,0.0,0.0,14.068519592285156,5.174449920654297,-0.19706489145755768,-2546.429931640625,0
1295.0730000000003,0.009477725252509117,-0.002026390051469207,0.0006125848740339279,0.0,0.0,0.0,0.0,-0.003956212662160397,-0.0017157658003270626,-0.0035663610324263573,1.0035852193832397,0.0,0.0,0.0,14.089715957641602,5.168389320373535,-0.19498562812805176,-2550.266357421875,0
1304.9629999999997,0.009536012075841427,-0.0019974473398178816,0.0006040034350007772,0.0,0.0,0.0,0.0,0.0021854795049875975,0.0026132999919354916,-0.0007438031607307494,1.0026215314865112,0.0,0.0,0.0,14.0604248046875,5.17003870010376,-0.18602344393730164,-2544.96484375,0
1314.8449999999993,0.009524362161755562,-0.001980850240215659,0.0006106767687015235,0.0,0.0,0.0,0.0,0.0024626802187412977,0.0025777050759643316,0.0011869161389768124,0.9990627765655518,0.0,0.0,0.0,14.089261054992676,5.173121452331543,-0.18440784513950348,-2550.184326171875,0
1324.7330000000002,0.009526299312710762,-0.0020346646197140217,0.0006493340479210019,0.0,0.0,0.0,0.0,0.00031012282124720514,0.001128308824263513,0.0009347677696496248,0.9993150234222412,0.0,0.0,0.0,14.072365760803223,5.172662734985352,-0.20209850370883942,-2547.1259765625,0
1334.619999999999,0.009509212337434292,-0.002013294491916895,0.0006628240225836635,0.0,0.0,0.0,0.0,0.0011931371409446,0.0021119331941008568,-0.0013689827173948288,1.0001240968704224,0.0,0.0,0.0,14.098841667175293,5.176269054412842,-0.19914819300174713,-2551.918212890625,0
1344.5030000000006,0.00950122345238924,-0.002134449779987335,0.0006773345521651208,0.0,0.0,0.0,0.0,-0.0006382705178111792,-0.0010504593374207616,0.0023948808666318655,0.9999908208847046,0.0,0.0,0.0,14.068836212158203,5.16225004196167,-0.2147434651851654,-2546.4873046875,0
1354.3999999999996,0.009431980550289154,-0.002108179498463869,0.0006836416432633996,0.0,0.0,0.0,0.0,0.0007044574012979865,0.0025084144435822964,-0.0009150059195235372,0.998228907585144,0.0,0.0,0.0,14.09365463256836,5.172553062438965,-0.2215769737958908,-2550.9794921875,0
1364.2780000000002,0.009443039074540138,-0.002127825515344739,0.0007379770977422595,0.0,0.0,0.0,0.0,0.0008844052790664136,-0.001756108715198934,-0.0008536669774912298,0.9996719360351562,0.0,0.0,0.0,14.067959785461426,5.16517448425293,-0.21916943788528442,-2546.32861328125,0
1374.1589999999997,0.009365011937916279,-0.002086340682581067,0.0007383370539173484,0.0,0.0,0.0,0.0,-0.0018867558101192117,-0.0014201173326000571,-0.002924419241026044,1.0009019374847412,0.0,0.0,0.0,14.099346160888672,5.177944183349609,-0.22588562965393066,-2552.010009765625,0
1384.0560000000005,0.009365338832139969,-0.002125364262610674,0.0007676748209632933,0.0,0.0,0.0,0.0,-0.0009762325207702816,5.5257365602301434e-05,0.002137737115845084,1.0009299516677856,0.0,0.0,0.0,14.076709747314453,5.183045387268066,-0.21714240312576294,-2547.912353515625,0
1393.9310000000005,0.009327354840934277,-0.00210174429230392,0.0007696510874666274,0.0,0.0,0.0,0.0,0.0019548332784324884,-0.0027669642586261034,0.003490430535748601,1.00057852268219,0.0,0.0,0.0,14.108804702758789,5.188777446746826,-0.21824860572814941,-2553.7216796875,0
1403.821,0.009423233568668365,-0.0020199045538902283,0.0007151683676056564,0.0,0.0,0.0,0.0,-0.0012214143062010407,0.0021324343979358673,0.00044036153121851385,0.9996405839920044,0.0,0.0,0.0,14.081631660461426,5.184340953826904,-0.21030063927173615,-2548.80322265625,0
1413.7060000000001,0.009384529665112495,-0.002003735164180398,0.0007096742046996951,0.0,0.0,0.0,0.0,0.0015991103136911988,-0.0008505263831466436,0.0014021842507645488,0.9998895525932312,0.0,0.0,0.0,14.111820220947266,5.188293933868408,-0.21227417886257172,-2554.267578125,0
1423.5900000000001,0.009453131817281246,-0.0019599508959800005,0.0006691333837807178,0.0,0.0,0.0,0.0,-0.0014663105830550194,0.0021973575931042433,0.0005737671162933111,0.9979515075683594,0.0,0.0,0.0,14.082900047302246,5.185064315795898,-0.20855411887168884,-2549.03271484375,0
1433.4830000000002,0.009409751743078232,-0.0019369351211935282,0.0006706284475512803,0.0,0.0,0.0,0.0,0.0015196985332295299,-0.0031762283761054277,0.003135887673124671,0.9982302188873291,0.0,0.0,0.0,14.110733985900879,5.190011501312256,-0.2098221480846405,-2554.071044921875,0
1443.360999999999,0.009449033066630363,-0.0019112512236461043,0.0006487834034487605,0.0,0.0,0.0,0.0,-0.000756611640099436,0.00010505186946829781,-0.0014875811757519841,1.0004130601882935,0.0,0.0,0.0,14.08315658569336,5.185726165771484,-0.21862603724002838,-2549.079345703125,0
1453.259,0.009449183009564877,-0.001938505913130939,0.0006282830727286637,0.0,0.0,0.0,0.0,-0.00038431808934547007,0.0009993498679250479,0.0030625187791883945,1.00028395652771,0.0,0.0,0.0,14.112326622009277,5.179577350616455,-0.2162235975265503,-2554.359375,0
1463.1350000000002,0.009516095742583275,-0.0018618686590343714,0.0005993423401378095,0.0,0.0,0.0,0.0,-0.00031448929803445935,-0.0017849357100203633,-0.0018165508517995477,1.002334475517273,0.0,0.0,0.0,14.075589179992676,5.196893692016602,-0.20393827557563782,-2547.709716796875,0
1473.0210000000006,0.009439018554985523,-0.0018474142998456955,0.0005733403377234936,0.0,0.0,0.0,0.0,-0.0028814172837883234,0.001386455725878477,0.0013781647430732846,1.0013412237167358,0.0,0.0,0.0,14.106813430786133,5.20184850692749,-0.2120715081691742,-2553.361328125,0
1482.905999999999,0.009462537243962288,-0.0018535263370722532,0.0005452485638670623,0.0,0.0,0.0,0.0,0.0026569266337901354,-0.0039089396595954895,-0.0008173664100468159,1.0024546384811401,0.0,0.0,0.0,14.072747230529785,5.198136329650879,-0.20323269069194794,-2547.195068359375,0
1492.7919999999995,0.009516588412225246,-0.00188346893992275,0.0005472826887853444,0.0,0.0,0.0,0.0,7.052106866467511e-06,0.003592743771150708,-0.005186046473681927,1.0010589361190796,0.0,0.0,0.0,14.105012893676758,5.189539909362793,-0.19284607470035553,-2553.03564453125,0
1502.682999999999,0.00952128041535616,-0.0019081056816503406,0.0005509429611265659,0.0,0.0,0.0,0.0,-0.002819263143464923,-0.004315322730690241,0.0010693538933992386,1.0003361701965332,0.0,0.0,0.0,14.074564933776855,5.179358005523682,-0.19663874804973602,-2547.524169921875,0
1512.5650000000005,0.009541534818708897,-0.0019149362342432141,0.0005547896143980324,0.0,0.0,0.0,0.0,-0.0008221179014071822,0.0006814724765717983,0.0009266264969483018,0.9988905787467957,0.0,0.0,0.0,14.10821533203125,5.176474571228027,-0.19049347937107086,-2553.615234375,0
1522.4590000000007,0.009488236159086227,-0.00199411204084754,0.0006152266869321465,0.0,0.0,0.0,0.0,-0.0018871388165280223,-0.0006450676009990275,0.0016542444936931133,1.000658392906189,0.0,0.0,0.0,14.070146560668945,5.170237064361572,-0.18962746858596802,-2546.724365234375,0
1532.3379999999997,0.009521551430225372,-0.001999211497604847,0.0006263016839511693,0.0,0.0,0.0,0.0,-0.0007767337956465781,0.004070986993610859,0.00042191011016257107,0.9997527003288269,0.0,0.0,0.0,14.105295181274414,5.16722297668457,-0.18143483996391296,-2553.086669921875,0
1542.2389999999996,0.009494633413851261,-0.0020580466371029615,0.0006791355554014444,0.0,0.0,0.0,0.0,0.0009214720921590924,-0.0020641647279262543,-0.002193803433328867,1.0019084215164185,0.0,0.0,0.0,14.071697235107422,5.162752151489258,-0.19003674387931824,-2547.005126953125,0
1552.1090000000004,0.009432240389287472,-0.0020397466141730547,0.0006665230612270534,0.0,0.0,0.0,0.0,-0.0005351213039830327,0.0012037107953801751,-0.0024670250713825226,1.0023149251937866,0.0,0.0,0.0,14.094117164611816,5.1677985191345215,-0.19552293419837952,-2551.06298828125,0
1562.003999999999,0.009400314651429653,-0.0021471211221069098,0.000690389599185437,0.0,0.0,0.0,0.0,0.0006091435207054019,-0.0013097740011289716,-0.001252266694791615,1.002104640007019,0.0,0.0,0.0,14.065077781677246,5.158504962921143,-0.18412485718727112,-2545.806884765625,0
1571.8870000000006,0.009440532885491848,-0.0021415462251752615,0.0007074361201375723,0.0,0.0,0.0,0.0,-0.0024324061814695597,-0.0008250063401646912,0.0010415249271318316,1.0016319751739502,0.0,0.0,0.0,14.097646713256836,5.157484531402588,-0.1721228063106537,-2551.7021484375,0
1581.7819999999992,0.009413759224116802,-0.002254884224385023,0.0007420933688990772,0.0,0.0,0.0,0.0,0.0005216349964030087,0.0018810945330187678,0.005297488067299128,0.9999192357063293,0.0,0.0,0.0,14.070487976074219,5.151020050048828,-0.16896185278892517,-2546.7861328125,0
1591.664999999999,0.009373333305120468,-0.002225822303444147,0.000763912801630795,0.0,0.0,0.0,0.0,-0.0004868698597420007,0.0034525198861956596,-0.0006982009508647025,0.9990182518959045,0.0,0.0,0.0,14.09542179107666,5.163626194000244,-0.17137157917022705,-2551.29931640625,0
1601.5480000000007,0.00944526493549347,-0.0021619710605591536,0.0007364651537500322,0.0,0.0,0.0,0.0,-0.0019558423664420843,0.0009194832528010011,0.0007419923203997314,0.998682975769043,0.0,0.0,0.0,14.056918144226074,5.2096781730651855,-0.17221948504447937,-2544.330078125,0
1611.4339999999993,0.009404639713466167,-0.0021484100725501776,0.0007338445284403861,0.0,0.0,0.0,0.0,-1.1857803656312171e-05,0.004624716006219387,1.2957692888448946e-05,0.9974928498268127,0.0,0.0,0.0,14.087960243225098,5.214475154876709,-0.17344816029071808,-2549.948974609375,0
1621.3240000000005,0.009457561187446117,-0.0020999677944928408,0.0007345194462686777,0.0,0.0,0.0,0.0,2.3641479856451042e-05,0.002163622295483947,-0.0007634987705387175,0.9996985197067261,0.0,0.0,0.0,14.069731712341309,5.232076644897461,-0.18321987986564636,-2546.6494140625,0
1631.1990000000005,0.009409522637724876,-0.0020874536130577326,0.0007243528380058706,0.0,0.0,0.0,0.0,0.005634512286633253,0.002154217567294836,-0.0021553721744567156,1.0008488893508911,0.0,0.0,0.0,14.097602844238281,5.235620021820068,-0.18567782640457153,-2551.694091796875,0
1641.0990000000002,0.00938590057194233,-0.00218382035382092,0.0007465039961971343,0.0,0.0,0.0,0.0,-0.0014694205019623041,-0.00015315266500692815,0.0004308022034820169,1.0006239414215088,0.0,0.0,0.0,14.069217681884766,5.219066619873047,-0.2018953412771225,-2546.55615234375,0
1650.9830000000002,0.009416349232196808,-0.0021766105201095343,0.0007647701422683895,0.0,0.0,0.0,0.0,0.0021280415821820498,0.0023637826088815928,0.0032844278030097485,1.000247597694397,0.0,0.0,0.0,14.107410430908203,5.219263553619385,-0.19100619852542877,-2553.469482421875,0
1660.866,0.009401820600032806,-0.0022334272507578135,0.0007797814905643463,0.0,0.0,0.0,0.0,-0.0002841140958480537,-0.0058961836621165276,0.0014755440643057227,1.001734972000122,0.0,0.0,0.0,14.093576431274414,5.222428321838379,-0.19800271093845367,-2550.96533203125,0
1670.7440000000006,0.009349356405436993,-0.0022778704296797514,0.0007964715478010476,0.0,0.0,0.0,0.0,0.0024729405995458364,0.0029357795137912035,-0.0005604744656011462,1.0016018152236938,0.0,0.0,0.0,14.115667343139648,5.222964763641357,-0.19645030796527863,-2554.964111328125,0
1680.6409999999996,0.009500736370682716,-0.0020691840909421444,0.000640049169305712,0.0,0.0,0.0,0.0,0.0004581807879731059,0.004097574856132269,-0.0006196127505972981,0.9998698234558105,0.0,0.0,0.0,14.100166320800781,5.283796310424805,-0.1456758975982666,-2552.158447265625,0
1690.5229999999992,0.009425969794392586,-0.0020727242808789015,0.0006488446961157024,0.0,0.0,0.0,0.0,0.003548718523234129,-0.0035760104656219482,-0.0012160050682723522,0.9996102452278137,0.0,0.0,0.0,14.114167213439941,5.282680988311768,-0.15792694687843323,-2554.692626953125,0
1700.4140000000007,0.009449601173400879,-0.002024806570261717,0.0006516218418255448,0.0,0.0,0.0,0.0,0.0009779403917491436,0.0007179505773819983,0.0009356033988296986,1.0027433633804321,0.0,0.0,0.0,14.099710464477539,5.277919769287109,-0.16237758100032806,-2552.07568359375,0
1710.2880000000005,0.00942129734903574,-0.0020522605627775192,0.0006587033858522773,0.0,0.0,0.0,0.0,0.00281697791069746,0.007596627343446016,-0.0008293681894429028,1.0015887022018433,0.0,0.0,0.0,14.11263370513916,5.276299953460693,-0.15558099746704102,-2554.414794921875,0
1720.1849999999995,0.009411057457327843,-0.002089682500809431,0.0006678046192973852,0.0,0.0,0.0,0.0,0.0005796985351480544,-0.0022430054377764463,-0.003893214277923107,1.0024287700653076,0.0,0.0,0.0,14.098772048950195,5.266030788421631,-0.1707763373851776,-2551.905517578125,0
1730.0609999999997,0.009355910122394562,-0.0021019454579800367,0.0006938012083992362,0.0,0.0,0.0,0.0,-0.003171883523464203,-0.002102213678881526,0.0018327742582187057,1.0008512735366821,0.0,0.0,0.0,14.118125915527344,5.264804363250732,-0.18645213544368744,-2555.408935546875,0
1739.955,0.009486079216003418,-0.0019147370476275682,0.000616267672739923,0.0,0.0,0.0,0.0,-0.0001977886859094724,0.004541079048067331,-0.0011333347065374255,1.0001107454299927,0.0,0.0,0.0,14.092544555664062,5.311178207397461,-0.1462780386209488,-2550.7783203125,0
1749.8369999999995,0.009502141736447811,-0.0019613306503742933,0.0006247784476727247,0.0,0.0,0.0,0.0,-0.0016774451360106468,-0.0005619312869384885,-0.0008912633056752384,1.0017969608306885,0.0,0.0,0.0,14.116299629211426,5.297780990600586,-0.14796550571918488,-2555.078369140625,0
1759.7299999999996,0.009486767463386059,-0.0019680068362504244,0.0006757417577318847,0.0,0.0,0.0,0.0,-0.0006100315949879587,0.002160828560590744,-0.0006597329629585147,1.0008620023727417,0.0,0.0,0.0,14.092665672302246,5.301033020019531,-0.15456482768058777,-2550.80029296875,0
1769.6119999999992,0.009498675353825092,-0.0020118930842727423,0.0006940801395103335,0.0,0.0,0.0,0.0,0.002192386658862233,-0.0037871936801820993,-0.00014277236186899245,1.0010985136032104,0.0,0.0,0.0,14.113207817077637,5.29824686050415,-0.14597707986831665,-2554.518798828125,0
1779.5059999999994,0.009492423385381699,-0.00204867753200233,0.0007110912119969726,0.0,0.0,0.0,0.0,0.0031351291108876467,0.0042900871485471725,-0.0021232322324067354,1.0001568794250488,0.0,0.0,0.0,14.099574089050293,5.292725086212158,-0.15304815769195557,-2552.051025390625,0
1789.3780000000006,0.009433351457118988,-0.0020851644221693277,0.0007192519260570407,0.0,0.0,0.0,0.0,-0.003038870170712471,0.0005905354046262801,-0.0023780600167810917,0.9985295534133911,0.0,0.0,0.0,14.114059448242188,5.285210132598877,-0.16439317166805267,-2554.6728515625,0
1799.2780000000002,0.00952668022364378,-0.001970977522432804,0.0006623360677622259,0.0,0.0,0.0,0.0,0.002309616655111313,0.00018118326261173934,-0.0019539659842848778,1.0020395517349243,0.0,0.0,0.0,14.09925365447998,5.282159805297852,-0.16976094245910645,-2551.992919921875,0
1809.1620000000003,0.009454232640564442,-0.0020133820362389088,0.0006332472548820078,0.0,0.0,0.0,0.0,-0.00012256790068931878,-0.0009277249919250607,0.0027644457295536995,1.000311255455017,0.0,0.0,0.0,14.122030258178711,5.279688358306885,-0.169422909617424,-2556.115478515625,0
1819.0480000000007,0.009446114301681519,-0.00205002399161458,0.0006433150265365839,0.0,0.0,0.0,0.0,0.0004773107066284865,-0.0003829803317785263,0.0017541216220706701,0.9979023337364197,0.0,0.0,0.0,14.10730266571045,5.263281345367432,-0.16913069784641266,-2553.449951171875,0
1828.9230000000007,0.009422415867447853,-0.002046270063146949,0.0006927026552148163,0.0,0.0,0.0,0.0,0.001011157175526023,0.001833427115343511,-0.0022461717016994953,0.9994730353355408,0.0,0.0,0.0,14.128999710083008,5.273963451385498,-0.16681452095508575,-2557.376953125,0
1838.8340000000007,0.009469609707593918,-0.00197456032037735,0.0006853231461718678,0.0,0.0,0.0,0.0,-0.0001669152989052236,-0.0002886255970224738,-0.0007398237357847393,0.999974250793457,0.0,0.0,0.0,14.115888595581055,5.275198936462402,-0.1692970097064972,-2555.00390625,0
1848.6980000000003,0.009426913224160671,-0.002004798501729965,0.0006840847199782729,0.0,0.0,0.0,0.0,0.002332745585590601,0.006938667967915535,0.0005021487595513463,1.000232458114624,0.0,0.0,0.0,14.124695777893066,5.2653069496154785,-0.1715441197156906,-2556.59814453125,0
1858.5920000000006,0.009418140165507793,-0.0020385764073580503,0.0006949990056455135,0.0,0.0,0.0,0.0,0.0040490892715752125,-0.002480120165273547,7.441356865456328e-05,1.0018309354782104,0.0,0.0,0.0,14.110039710998535,5.255746364593506,-0.1831086277961731,-2553.9453125,0
1868.4699999999993,0.009395555593073368,-0.0020673151593655348,0.0007116914493963122,0.0,0.0,0.0,0.0,0.0018374555511400104,-0.002613040851429105,0.0013548018177971244,1.000990867614746,0.0,0.0,0.0,14.123802185058594,5.251260757446289,-0.1869637668132782,-2556.4365234375,0
1878.366,0.009399338625371456,-0.002040600636973977,0.0007594719645567238,0.0,0.0,0.0,0.0,-0.000663750630337745,-0.0025987555272877216,-0.0026457610074430704,0.9997719526290894,0.0,0.0,0.0,14.103367805480957,5.26095724105835,-0.18795187771320343,-2552.737548828125,0
1888.2420000000002,0.009385420009493828,-0.0020793455187231302,0.0007744678296148777,0.0,0.0,0.0,0.0,0.0026042181998491287,0.0001608912571100518,-0.000560650194529444,0.9993454217910767,0.0,0.0,0.0,14.116352081298828,5.250117778778076,-0.18853266537189484,-2555.087890625,0
1898.1409999999996,0.009455504827201366,-0.0019840386230498552,0.0007505752146244049,0.0,0.0,0.0,0.0,0.000915931595955044,0.004574282560497522,-0.0030743994284421206,1.0002883672714233,0.0,0.0,0.0,14.108355522155762,5.265770435333252,-0.16230599582195282,-2553.640380859375,0
1908.0139999999992,0.009385154582560062,-0.0019939898047596216,0.0007483540684916079,0.0,0.0,0.0,0.0,-0.0004713133384939283,0.0021437671966850758,-0.0028824261389672756,0.9990586638450623,0.0,0.0,0.0,14.125306129455566,5.264771461486816,-0.1835813969373703,-2556.708740234375,0
1917.9210000000003,0.009440358728170395,-0.0019091423600912094,0.0007452497957274318,0.0,0.0,0.0,0.0,0.0007796639110893011,0.002233331324532628,0.000955259776674211,0.9974185228347778,0.0,0.0,0.0,14.110030174255371,5.259445667266846,-0.18846428394317627,-2553.943603515625,0
1927.786,0.009482971392571926,-0.001979418098926544,0.0007478758343495429,0.0,0.0,0.0,0.0,0.0007259504054673016,-0.002919327700510621,0.0019281504210084677,0.9973838329315186,0.0,0.0,0.0,14.130101203918457,5.243240833282471,-0.18122956156730652,-2557.576416015625,0
1937.6820000000007,0.009488077834248543,-0.0019706720486283302,0.0007717846892774105,0.0,0.0,0.0,0.0,-0.001851915498264134,-0.00412504468113184,-0.003065316239371896,1.0007041692733765,0.0,0.0,0.0,14.109310150146484,5.247557640075684,-0.18207426369190216,-2553.813232421875,0
1947.557999999999,0.009497431106865406,-0.0020302499178797007,0.0007599123055115342,0.0,0.0,0.0,0.0,0.0018322954420000315,0.0029038272332400084,-0.00027337143546901643,0.9997584819793701,0.0,0.0,0.0,14.12732982635498,5.241824626922607,-0.16878831386566162,-2557.07470703125,0
1957.4580000000005,0.00953713059425354,-0.0019563150126487017,0.0007774110417813063,0.0,0.0,0.0,0.0,-0.002039728220552206,0.007411572616547346,-0.000665169907733798,0.9998102784156799,0.0,0.0,0.0,14.113463401794434,5.23040771484375,-0.17764325439929962,-2554.56494140625,0
1967.3420000000006,0.009523535147309303,-0.0020092211198061705,0.0007574314367957413,0.0,0.0,0.0,0.0,0.00228781602345407,0.0033752804156392813,-0.0005069999024271965,1.0003705024719238,0.0,0.0,0.0,14.13305950164795,5.220269680023193,-0.1965477019548416,-2558.11181640625,0
1977.2350000000006,0.009520716965198517,-0.002040934283286333,0.0007632039487361908,0.0,0.0,0.0,0.0,-0.00019015870930161327,0.0034955961164087057,-1.606644582352601e-05,1.000751256942749,0.0,0.0,0.0,14.11933422088623,5.21748161315918,-0.1950947344303131,-2555.627685546875,0
1987.1039999999994,0.00944354198873043,-0.0021013536024838686,0.0007270690402947366,0.0,0.0,0.0,0.0,-0.002156906295567751,-0.0014509446918964386,0.0024553651455789804,0.9998830556869507,0.0,0.0,0.0,14.137201309204102,5.2071709632873535,-0.21857398748397827,-2558.861572265625,0
1996.9979999999996,0.009547330439090729,-0.0019661951810121536,0.0006674969918094575,0.0,0.0,0.0,0.0,-0.0004781618481501937,0.0007976400665938854,-0.0010362177854403853,1.0019047260284424,0.0,0.0,0.0,14.120794296264648,5.247694492340088,-0.19501206278800964,-2555.89208984375,0
2006.8780000000006,0.009439753368496895,-0.001974181504920125,0.0006326839211396873,0.0,0.0,0.0,0.0,-0.0008614727994427085,-0.0009278031648136675,0.001279619988054037,1.0007203817367554,0.0,0.0,0.0,14.14071273803711,5.257112979888916,-0.21675583720207214,-2559.4970703125,0
2016.771999999999,0.00944007933139801,-0.0019598123617470264,0.0006596390740014613,0.0,0.0,0.0,0.0,-0.0023090702015906572,-0.003993000369518995,-2.2519509002449922e-05,0.9989521503448486,0.0,0.0,0.0,14.119678497314453,5.25798225402832,-0.21474596858024597,-2555.68994140625,0
2026.655999999999,0.009393936954438686,-0.001983867958188057,0.0006485416670329869,0.0,0.0,0.0,0.0,8.624483598396182e-05,-0.0016844156198203564,0.0033986615017056465,0.9999663829803467,0.0,0.0,0.0,14.1364164352417,5.2618279457092285,-0.20918285846710205,-2558.7197265625,0
2036.545,0.009487973526120186,-0.0018456743564456701,0.0006065341294743121,0.0,0.0,0.0,0.0,0.00014098694373387843,-0.0009349451866000891,0.0005798092461191118,1.0010019540786743,0.0,0.0,0.0,14.112257957458496,5.2888078689575195,-0.17647500336170197,-2554.346923828125,0
2046.4210000000003,0.009461954236030579,-0.0019108159467577934,0.0005648654769174755,0.0,0.0,0.0,0.0,-0.0005400910158641636,0.006530314218252897,0.002490747720003128,1.0005638599395752,0.0,0.0,0.0,14.1289701461792,5.278660297393799,-0.19012320041656494,-2557.371826171875,0
2056.3140000000003,0.009504915215075016,-0.0018165746005252004,0.0005718600004911423,0.0,0.0,0.0,0.0,-0.0010735851246863604,-1.0965741239488125e-05,-0.001950776670128107,0.9997946619987488,0.0,0.0,0.0,14.115893363952637,5.278255462646484,-0.1922578662633896,-2555.0048828125,0
2066.1929999999993,0.009444530121982098,-0.0018374265637248755,0.0005488118622452021,0.0,0.0,0.0,0.0,-0.0011060175020247698,0.00017029054288286716,0.0013132703024894,0.9984921216964722,0.0,0.0,0.0,14.131613731384277,5.276114463806152,-0.18829916417598724,-2557.850341796875,0
2076.0869999999995,0.009424311108887196,-0.001841028337366879,0.0005813795141875744,0.0,0.0,0.0,0.0,-0.001490268507041037,0.0020747436210513115,0.0011253932025283575,1.0000464916229248,0.0,0.0,0.0,14.117280960083008,5.274290084838867,-0.1922156810760498,-2555.255859375,0
2085.9670000000006,0.009490896947681904,-0.0019124752143397927,0.0005880541866645217,0.0,0.0,0.0,0.0,-0.002150340238586068,-0.0009473055833950639,0.000682246231008321,1.000792145729065,0.0,0.0,0.0,14.1342191696167,5.263538837432861,-0.17227157950401306,-2558.322021484375,0
2095.869999999999,0.009438217617571354,-0.001928779762238264,0.0006679610232822597,0.0,0.0,0.0,0.0,0.0010602263500913978,0.0017146875616163015,-0.0001989778393181041,1.001274824142456,0.0,0.0,0.0,14.120187759399414,5.259051322937012,-0.17304810881614685,-2555.7822265625,0
2105.742,0.009397119283676147,-0.00196341285482049,0.0006606481620110571,0.0,0.0,0.0,0.0,0.004937315825372934,-0.00024912625667639077,0.000814142927993089,1.0018123388290405,0.0,0.0,0.0,14.136663436889648,5.252796173095703,-0.17784884572029114,-2558.764404296875,0
2115.6360000000004,0.009412439540028572,-0.0019166546408087015,0.0006779448012821376,0.0,0.0,0.0,0.0,-0.0003215420583728701,0.0015903781168162823,0.004266645759344101,0.9988858103752136,0.0,0.0,0.0,14.122064590454102,5.240694522857666,-0.16984115540981293,-2556.121826171875,0
2125.513999999999,0.009425044991075993,-0.001980375964194536,0.00067943922476843,0.0,0.0,0.0,0.0,-0.0005830682930536568,0.00011476168583612889,0.0013441458577290177,1.0003223419189453,0.0,0.0,0.0,14.129663467407227,5.227358341217041,-0.16122402250766754,-2557.497314453125,0
2135.4069999999992,0.00945222657173872,-0.0019149631261825562,0.000694242597091943,0.0,0.0,0.0,0.0,0.0013368877116590738,-0.003953046631067991,-0.004143189173191786,1.0011076927185059,0.0,0.0,0.0,14.115283966064453,5.222906112670898,-0.15993043780326843,-2554.89453125,0
