timestamp,stateEstimate.x,stateEstimate.y,stateEstimate.z,controller.cmd_thrust,controller.cmd_roll,controller.cmd_pitch,controller.cmd_yaw,controller.r_roll,controller.r_pitch,controller.r_yaw,controller.accelz,controller.actuatorThrust,controller.roll,controller.pitch,controller.yaw,controller.rollRate,controller.pitchRate,controller.yawRate,controller.ctr_yaw
0.0,0.003873826703056693,0.0022963674273341894,-6.532417319249362e-05,0.0,0.0,0.0,0.0,7.377109432127327e-05,0.002497617155313492,0.0008423159597441554,0.9993934035301208,0.0,0.0,0.0,0.8827542066574097,6.118889808654785,-0.21286381781101227,-159.7802734375,0
9.878000000000611,0.0038514782208949327,0.002274362603202462,-9.40238096518442e-05,0.0,0.0,0.0,0.0,-0.0016275582602247596,-0.00019795141997747123,0.0024998816661536694,0.9988418817520142,0.0,0.0,0.0,0.8830268979072571,6.108863353729248,-0.21404990553855896,-159.82962036132812,0
19.778000000000247,0.003891805885359645,0.002266921568661928,-2.353240233787801e-05,0.0,0.0,0.0,0.0,0.0005848230794072151,-0.004972712602466345,0.0015704246470704675,0.9997075796127319,0.0,0.0,0.0,0.8912484049797058,6.121037483215332,-0.20202139019966125,-161.31773376464844,0
29.653000000000247,0.003868225496262312,0.0022445640061050653,-5.10574973304756e-05,0.0,0.0,0.0,0.0,0.0007589709130115807,0.005480094812810421,0.0008567930199205875,0.9997441172599792,0.0,0.0,0.0,0.889356791973114,6.1099467277526855,-0.20005127787590027,-160.97535705566406,0
39.55000000000109,0.0036515032406896353,0.0024207683745771646,-0.0002477259549777955,0.0,0.0,0.0,0.0,-0.00010992898751283064,0.0008553038933314383,-0.0007284763269126415,0.9974269866943359,0.0,0.0,0.0,0.8895460367202759,6.106082916259766,-0.2124364674091339,-161.00961303710938,0
49.42699999999968,0.003628125414252281,0.0024017738178372383,-0.00027775042690336704,0.0,0.0,0.0,0.0,0.00131229346152395,0.0029493682086467743,0.00024077585840132087,0.9972279071807861,0.0,0.0,0.0,0.8879033327102661,6.09732723236084,-0.2196510136127472,-160.71226501464844,0
59.33400000000074,0.00372867938131094,0.002419786062091589,-0.00020609186321962625,0.0,0.0,0.0,0.0,0.00017843434761743993,-0.001290721818804741,-0.0030301169026643038,0.9981492161750793,0.0,0.0,0.0,0.8865070939064026,6.086617469787598,-0.2195436954498291,-160.4595489501953,0
69.20600000000013,0.0037090633995831013,0.0024018720723688602,-0.000239332570345141,0.0,0.0,0.0,0.0,0.0007807320798747241,0.00031088030664250255,-0.0023809096310287714,0.9964694380760193,0.0,0.0,0.0,0.8851318359375,6.080414295196533,-0.22513990104198456,-160.2106170654297,0
79.10200000000077,0.003902224823832512,0.0023216414265334606,-9.340576798422262e-05,0.0,0.0,0.0,0.0,0.0030711861327290535,0.0028620916418731213,0.0014101243577897549,0.9990407228469849,0.0,0.0,0.0,0.8839320540428162,6.0758280754089355,-0.2162667065858841,-159.9934539794922,0
88.97400000000016,0.003883237252011895,0.0023015968035906553,-0.00012937455903738737,0.0,0.0,0.0,0.0,-0.0011742027709260583,0.002504700794816017,-0.00047190114855766296,1.0002590417861938,0.0,0.0,0.0,0.8827243447303772,6.065779685974121,-0.22201476991176605,-159.7748565673828,0
98.875,0.004114734474569559,0.002194525906816125,4.5366978156380355e-05,0.0,0.0,0.0,0.0,0.0019062769133597612,0.0030935360118746758,0.0022706345189362764,0.9989179968833923,0.0,0.0,0.0,0.8915719389915466,6.073061466217041,-0.22166913747787476,-161.3762969970703,0
108.74799999999959,0.004095721524208784,0.0021721727680414915,1.0114963515661657e-05,0.0,0.0,0.0,0.0,-0.0037890691310167313,-0.0009254663018509746,0.0017418776405975223,0.9978853464126587,0.0,0.0,0.0,0.8901357650756836,6.071892261505127,-0.22853611409664154,-161.11636352539062,0
118.64600000000064,0.004116351716220379,0.0021851672790944576,2.925485750893131e-05,0.0,0.0,0.0,0.0,-0.0009833466028794646,-0.0025216720532625914,0.0014222146710380912,0.9987149238586426,0.0,0.0,0.0,0.8912166953086853,6.072614669799805,-0.21743758022785187,-161.31201171875,0
128.51699999999983,0.004097773693501949,0.002160856267437339,-7.192305929493159e-06,0.0,0.0,0.0,0.0,0.0014669892843812704,-0.004559636116027832,0.0006434514070861042,0.9989848732948303,0.0,0.0,0.0,0.8905532956123352,6.065401077270508,-0.20503556728363037,-161.19192504882812,0
138.41200000000026,0.004195536486804485,0.0021265659015625715,5.068184691481292e-05,0.0,0.0,0.0,0.0,-0.0006105511565692723,0.005967781879007816,0.002618590835481882,0.9983620047569275,0.0,0.0,0.0,0.8890051245689392,6.057446002960205,-0.2008848637342453,-160.9116973876953,0
148.29000000000087,0.004179744981229305,0.002099966164678335,1.280175638385117e-05,0.0,0.0,0.0,0.0,0.0014753233408555388,0.005217240657657385,0.0006783862481825054,0.998774528503418,0.0,0.0,0.0,0.8887059688568115,6.050238609313965,-0.20389899611473083,-160.85752868652344,0
158.1890000000003,0.004178162198513746,0.0021308211144059896,1.3011147530050948e-05,0.0,0.0,0.0,0.0,-0.0015091430395841599,0.0013377709547057748,-0.0004383435007184744,1.0009251832962036,0.0,0.0,0.0,0.8873454928398132,6.044617652893066,-0.21435381472110748,-160.6112823486328,0
168.0640000000003,0.004158925265073776,0.002105246065184474,-2.377871351200156e-05,0.0,0.0,0.0,0.0,0.0011954877991229296,0.006558699999004602,-0.0017735045403242111,1.0010125637054443,0.0,0.0,0.0,0.8872878551483154,6.036550521850586,-0.22409072518348694,-160.6008758544922,0
177.96299999999974,0.004051101393997669,0.002166846999898553,-4.0430735680274665e-05,0.0,0.0,0.0,0.0,0.00029559206450358033,0.0020647228229790926,0.003246691543608904,1.0008697509765625,0.0,0.0,0.0,0.8798619508743286,6.044959545135498,-0.2522587180137634,-159.2567596435547,0
187.83600000000115,0.004025381989777088,0.0021418225951492786,-7.172273762989789e-05,0.0,0.0,0.0,0.0,0.004292372148483992,0.007693868596106768,-0.0029285333584994078,0.9995062947273254,0.0,0.0,0.0,0.8797220587730408,6.039597511291504,-0.2598669230937958,-159.2314453125,0
197.72999999999956,0.004258232191205025,0.002058902522549033,0.00013121349911671132,0.0,0.0,0.0,0.0,-0.0006448643398471177,0.003125555347651243,-0.0027006398886442184,0.9978503584861755,0.0,0.0,0.0,0.8778343796730042,6.030754089355469,-0.2682672441005707,-158.8897705078125,0
207.6110000000008,0.004234661813825369,0.002034233883023262,0.0001009841071208939,0.0,0.0,0.0,0.0,-0.0012953683035448194,-0.003974152263253927,0.002540344139561057,0.998839259147644,0.0,0.0,0.0,0.8774174451828003,6.020012855529785,-0.2804054319858551,-158.81431579589844,0
217.51100000000042,0.004210277926176786,0.002008389914408326,6.965237844269723e-05,0.0,0.0,0.0,0.0,-0.0009484034380875528,0.008313676342368126,-1.1796432772825938e-05,0.9997054934501648,0.0,0.0,0.0,0.8769093751907349,6.013514995574951,-0.2699100971221924,-158.72235107421875,0
227.3829999999998,0.004184373188763857,0.0019808299839496613,3.756074875127524e-05,0.0,0.0,0.0,0.0,-0.0007930755382403731,-0.00209588510915637,0.002430247375741601,0.9983223080635071,0.0,0.0,0.0,0.8762622475624084,6.008070468902588,-0.28460532426834106,-158.60520935058594,0
237.28100000000086,0.003950431477278471,0.0021640027407556772,-0.00014035278582014143,0.0,0.0,0.0,0.0,0.003675607731565833,-0.0030081195291131735,-0.0008627253700979054,0.9998897314071655,0.0,0.0,0.0,0.8704332709312439,6.0405097007751465,-0.2710830569267273,-157.55014038085938,0
247.15700000000106,0.003926273435354233,0.002137243514880538,-0.00017321575433015823,0.0,0.0,0.0,0.0,-0.002587767317891121,0.0031344096641987562,-0.00021729648869950324,0.9975254535675049,0.0,0.0,0.0,0.8700278401374817,6.026060581207275,-0.2715771496295929,-157.4767608642578,0
257.0560000000005,0.0039040169212967157,0.002107305685058236,-0.00020734249847009778,0.0,0.0,0.0,0.0,-0.001351711223833263,0.002286478178575635,-0.0011578022968024015,0.9980229735374451,0.0,0.0,0.0,0.8682394027709961,6.024984836578369,-0.2792155146598816,-157.153076171875,0
266.9349999999995,0.003883286379277706,0.002074623014777899,-0.00024319571093656123,0.0,0.0,0.0,0.0,0.00019336011609993875,0.00149908650200814,-0.0006934082484804094,0.9982229471206665,0.0,0.0,0.0,0.8670885562896729,6.022517681121826,-0.2777414619922638,-156.9447479248047,0
276.8250000000007,0.003863842925056815,0.00203895871527493,-0.00028041325276717544,0.0,0.0,0.0,0.0,-0.0001494295574957505,-0.0021677473559975624,-0.001794150797650218,0.9992982745170593,0.0,0.0,0.0,0.8654448986053467,6.014979362487793,-0.28155097365379333,-156.64724731445312,0
286.70200000000114,0.003845306346192956,0.002000019885599613,-0.00031836211564950645,0.0,0.0,0.0,0.0,0.000734216533601284,-0.005221870262175798,-0.004018905106931925,0.9986295700073242,0.0,0.0,0.0,0.8634549975395203,6.010869979858398,-0.2646973729133606,-156.2870635986328,0
296.60699999999997,0.003824637271463871,0.0019529350101947784,-0.00036107577034272254,0.0,0.0,0.0,0.0,0.0005983213195577264,0.0007807901129126549,-0.001154644531197846,0.9988215565681458,0.0,0.0,0.0,0.8620275855064392,6.001132488250732,-0.25855955481529236,-156.02870178222656,0
306.47500000000036,0.003824637271463871,0.0019529350101947784,-0.00036107577034272254,0.0,0.0,0.0,0.0,0.0020722730550915003,0.0015867931069806218,0.00017763368668965995,0.9979729056358337,0.0,0.0,0.0,0.8620275855064392,6.001132488250732,-0.25855955481529236,-156.02870178222656,0
316.3690000000006,0.0037854055408388376,0.0018573773559182882,-0.00044186494778841734,0.0,0.0,0.0,0.0,-0.00201052101328969,0.002611529314890504,8.055742910073604e-06,0.9988338947296143,0.0,0.0,0.0,0.859549880027771,5.985931873321533,-0.26042088866233826,-155.5802459716797,0
326.2479999999996,0.0037854055408388376,0.0018573773559182882,-0.00044186494778841734,0.0,0.0,0.0,0.0,-0.0006878231652081013,0.0031906685326248407,-0.001579274539835751,0.9976727962493896,0.0,0.0,0.0,0.859549880027771,5.985931873321533,-0.26042088866233826,-155.5802459716797,0
336.14500000000044,0.0037451141979545355,0.0017501154216006398,-0.0005288692191243172,0.0,0.0,0.0,0.0,-0.0008668554946780205,0.0016190723981708288,0.0027047274634242058,0.9980961084365845,0.0,0.0,0.0,0.857633113861084,5.972847938537598,-0.2771660089492798,-155.23329162597656,0
346.02100000000064,0.0037451141979545355,0.0017501154216006398,-0.0005288692191243172,0.0,0.0,0.0,0.0,0.0007071903091855347,-0.002222806913778186,0.004422462545335293,0.9986538290977478,0.0,0.0,0.0,0.857633113861084,5.972847938537598,-0.2771660089492798,-155.23329162597656,0
355.9200000000001,0.003707707393914461,0.0016298257978633046,-0.0006221347721293569,0.0,0.0,0.0,0.0,0.001152670825831592,0.005668911151587963,-0.0012461143778637052,0.998620331287384,0.0,0.0,0.0,0.8571934700012207,5.958289623260498,-0.2794557213783264,-155.15371704101562,0
365.79399999999987,0.003707707393914461,0.0016298257978633046,-0.0006221347721293569,0.0,0.0,0.0,0.0,-9.329112072009593e-05,0.00011175001418450847,-0.0014252082910388708,0.9985812902450562,0.0,0.0,0.0,0.8571934700012207,5.958289623260498,-0.2794557213783264,-155.15371704101562,0
375.6949999999997,0.0036738114431500435,0.001500187092460692,-0.0007201864500530064,0.0,0.0,0.0,0.0,0.0005304185324348509,0.0005959809059277177,-0.0002739934716373682,0.9999164938926697,0.0,0.0,0.0,0.8557184934616089,5.9456963539123535,-0.29346731305122375,-154.88674926757812,0
385.5670000000009,0.0036738114431500435,0.001500187092460692,-0.0007201864500530064,0.0,0.0,0.0,0.0,-0.0035971428733319044,-0.003422314301133156,-0.001212703064084053,0.9990073442459106,0.0,0.0,0.0,0.8557184934616089,5.9456963539123535,-0.29346731305122375,-154.88674926757812,0
395.46800000000076,0.003639531321823597,0.0013588042929768562,-0.0008204123005270958,0.0,0.0,0.0,0.0,0.0016383057227358222,-0.00011766808165702969,-0.0013500663917511702,0.9997608065605164,0.0,0.0,0.0,0.8532462120056152,5.94230318069458,-0.2865288555622101,-154.4392547607422,0
405.34799999999996,0.003639531321823597,0.0013588042929768562,-0.0008204123005270958,0.0,0.0,0.0,0.0,0.000785033218562603,0.0005175771657377481,-0.0002693229471333325,0.9985214471817017,0.0,0.0,0.0,0.8532462120056152,5.94230318069458,-0.2865288555622101,-154.4392547607422,0
415.2350000000006,0.0036056756507605314,0.00120626762509346,-0.000922932056710124,0.0,0.0,0.0,0.0,0.002540484070777893,0.0042065903544425964,-0.00010108262358698994,0.9996551871299744,0.0,0.0,0.0,0.852186918258667,5.922858238220215,-0.28651338815689087,-154.24754333496094,0
425.1139999999996,0.0036056756507605314,0.00120626762509346,-0.000922932056710124,0.0,0.0,0.0,0.0,-0.0012907538330182433,-0.004533218219876289,0.000819878070615232,1.0000174045562744,0.0,0.0,0.0,0.852186918258667,5.922858238220215,-0.28651338815689087,-154.24754333496094,0
435.0149999999994,0.0035764717031270266,0.001037474488839507,-0.0010262922151014209,0.0,0.0,0.0,0.0,-0.0005682347691617906,0.0037430773954838514,0.001950755133293569,0.9993365406990051,0.0,0.0,0.0,0.8510766625404358,5.91543436050415,-0.28065210580825806,-154.04656982421875,0
444.8870000000006,0.0035764717031270266,0.001037474488839507,-0.0010262922151014209,0.0,0.0,0.0,0.0,0.001297981827519834,-0.002502164337784052,0.0010068740230053663,1.0011684894561768,0.0,0.0,0.0,0.8510766625404358,5.91543436050415,-0.28065210580825806,-154.04656982421875,0
454.79199999999946,0.0035484456457197666,0.0008590877987444401,-0.0011297226883471012,0.0,0.0,0.0,0.0,-0.00019646459259092808,0.002522470196709037,-0.0031407014466822147,0.9989220499992371,0.0,0.0,0.0,0.8502200841903687,5.8883185386657715,-0.2786184251308441,-153.89151000976562,0
464.65999999999985,0.0035484456457197666,0.0008590877987444401,-0.0011297226883471012,0.0,0.0,0.0,0.0,-0.0004964448744431138,-0.00449539627879858,0.0021838683169335127,0.9999298453330994,0.0,0.0,0.0,0.8502200841903687,5.8883185386657715,-0.2786184251308441,-153.89151000976562,0
474.5570000000007,0.003521642182022333,0.0006681398954242468,-0.0012331409379839897,0.0,0.0,0.0,0.0,0.0005826373817399144,-0.0018382014241069555,-0.0006245617987588048,0.9975849390029907,0.0,0.0,0.0,0.8492963910102844,5.870538234710693,-0.2747414708137512,-153.72433471679688,0
484.4369999999999,0.003521642182022333,0.0006681398954242468,-0.0012331409379839897,0.0,0.0,0.0,0.0,0.0019205292919650674,0.0009661769727244973,-0.002105692168697715,1.0000715255737305,0.0,0.0,0.0,0.8492963910102844,5.870538234710693,-0.2747414708137512,-153.72433471679688,0
494.3299999999999,0.002646196633577347,0.0029163735453039408,-0.0015399684198200703,0.0,0.0,0.0,0.0,-0.0021672809962183237,-0.004303871653974056,-0.0003568213141988963,0.9971969127655029,0.0,0.0,0.0,0.8561359643936157,6.1768059730529785,-0.22122205793857574,-154.96231079101562,0
504.21399999999994,0.002646196633577347,0.0029163735453039408,-0.0015399684198200703,0.0,0.0,0.0,0.0,-0.0013724624877795577,0.002402540761977434,-0.000659693090710789,0.9983735084533691,0.0,0.0,0.0,0.8561359643936157,6.1768059730529785,-0.22122205793857574,-154.96231079101562,0
514.107,0.002037831349298358,0.0033514846581965685,-0.001863077632151544,0.0,0.0,0.0,0.0,-0.00020640144066419452,-0.0006709208828397095,-0.0024193571880459785,0.9968203902244568,0.0,0.0,0.0,0.8449243903160095,6.213364124298096,-0.22912366688251495,-152.93301391601562,0
523.9809999999998,0.002037831349298358,0.0033514846581965685,-0.001863077632151544,0.0,0.0,0.0,0.0,0.0013913060538470745,0.003431209595873952,0.004578885156661272,0.9988650679588318,0.0,0.0,0.0,0.8449243903160095,6.213364124298096,-0.22912366688251495,-152.93301391601562,0
533.8860000000004,0.002434335183352232,0.0031966823153197765,-0.0015667767729610205,0.0,0.0,0.0,0.0,0.0007500944193452597,-0.0002140019932994619,0.004916491452604532,1.0001503229141235,0.0,0.0,0.0,0.859743058681488,6.216761589050293,-0.22951610386371613,-155.61521911621094,0
543.7520000000004,0.002434335183352232,0.0031966823153197765,-0.0015667767729610205,0.0,0.0,0.0,0.0,0.0014165641041472554,0.003812149167060852,-0.0011095664231106639,0.9987863898277283,0.0,0.0,0.0,0.859743058681488,6.216761589050293,-0.22951610386371613,-155.61521911621094,0
553.648000000001,0.0018709570867940784,0.003512050025165081,-0.0019807112403213978,0.0,0.0,0.0,0.0,0.0014013322070240974,-0.002191196894273162,0.0020178165286779404,1.0002648830413818,0.0,0.0,0.0,0.8505199551582336,6.222350120544434,-0.24779430031776428,-153.94578552246094,0
563.5259999999998,0.0018709570867940784,0.003512050025165081,-0.0019807112403213978,0.0,0.0,0.0,0.0,-0.0009027776541188359,-0.007851558737456799,0.003498626407235861,0.9975498914718628,0.0,0.0,0.0,0.8505199551582336,6.222350120544434,-0.24779430031776428,-153.94578552246094,0
573.4269999999997,0.001848139800131321,0.003487447276711464,-0.0020619453862309456,0.0,0.0,0.0,0.0,0.0005982124712318182,9.046181367011741e-05,-7.021792953310069e-06,0.9979837536811829,0.0,0.0,0.0,0.8499631285667419,6.214031219482422,-0.22989408671855927,-153.84500122070312,0
583.3060000000005,0.001848139800131321,0.003487447276711464,-0.0020619453862309456,0.0,0.0,0.0,0.0,-5.8125355280935764e-05,-0.0008916216902434826,-0.001696484861895442,0.9968297481536865,0.0,0.0,0.0,0.8499631285667419,6.214031219482422,-0.22989408671855927,-153.84500122070312,0
593.2020000000011,0.0017948276363313198,0.003454086370766163,-0.001987570896744728,0.0,0.0,0.0,0.0,0.0003064202901441604,0.0031549616251140833,0.0015477712731808424,0.9960492849349976,0.0,0.0,0.0,0.8625286817550659,6.210270881652832,-0.2625296711921692,-156.11940002441406,0
603.0720000000001,0.0017948276363313198,0.003454086370766163,-0.001987570896744728,0.0,0.0,0.0,0.0,-0.0007711204816587269,0.0009705850388854742,0.003851155983284116,0.9968986511230469,0.0,0.0,0.0,0.8625286817550659,6.210270881652832,-0.2625296711921692,-156.11940002441406,0
612.9670000000006,0.001702433219179511,0.003461565123870969,-0.001993286656215787,0.0,0.0,0.0,0.0,0.0014000572264194489,-0.00465804198756814,0.0027700145728886127,1.0000152587890625,0.0,0.0,0.0,0.8786317706108093,6.209133148193359,-0.2731966972351074,-159.03408813476562,0
622.848,0.001702433219179511,0.003461565123870969,-0.001993286656215787,0.0,0.0,0.0,0.0,-0.0014149940107017756,-0.0024416313972324133,0.002022112486883998,0.9991234540939331,0.0,0.0,0.0,0.8786317706108093,6.209133148193359,-0.2731966972351074,-159.03408813476562,0
632.7489999999998,0.0013102568918839097,0.0035979270469397306,-0.00223196716979146,0.0,0.0,0.0,0.0,6.255719199543819e-05,0.0018701523076742887,-0.0007298004347831011,0.9988816976547241,0.0,0.0,0.0,0.8665007948875427,6.2045674324035645,-0.27747446298599243,-156.83836364746094,0
642.6180000000004,0.0013102568918839097,0.0035979270469397306,-0.00223196716979146,0.0,0.0,0.0,0.0,0.0021573775447905064,0.005392975173890591,0.0009571839473210275,0.9975619316101074,0.0,0.0,0.0,0.8665007948875427,6.2045674324035645,-0.27747446298599243,-156.83836364746094,0
652.5190000000002,0.0014749792171642184,0.00351562793366611,-0.0020771396812051535,0.0,0.0,0.0,0.0,0.00027013334329240024,0.0017599156126379967,-0.001206320128403604,0.9985232353210449,0.0,0.0,0.0,0.8732246160507202,6.212789535522461,-0.29351139068603516,-158.05538940429688,0
662.393,0.0014749792171642184,0.00351562793366611,-0.0020771396812051535,0.0,0.0,0.0,0.0,0.004071551375091076,-0.006555477622896433,-0.0008691212278790772,1.0013991594314575,0.0,0.0,0.0,0.8732246160507202,6.212789535522461,-0.29351139068603516,-158.05538940429688,0
672.2890000000007,0.0013429397949948907,0.0035609256010502577,-0.0021967922803014517,0.0,0.0,0.0,0.0,0.0040067280642688274,-0.0017497596563771367,0.0014970570337027311,0.9982631802558899,0.0,0.0,0.0,0.8714617490768433,6.189536094665527,-0.2827831506729126,-157.73631286621094,0
682.1650000000009,0.0013429397949948907,0.0035609256010502577,-0.0021967922803014517,0.0,0.0,0.0,0.0,0.0024273672606796026,0.00589588051661849,-0.0009593935101293027,0.999957799911499,0.0,0.0,0.0,0.8714617490768433,6.189536094665527,-0.2827831506729126,-157.73631286621094,0
692.0740000000005,0.0016573519678786397,0.0034580205101519823,-0.001973855309188366,0.0,0.0,0.0,0.0,-0.0014343606308102608,-0.0029528492596000433,-0.0011568410554900765,1.0002927780151367,0.0,0.0,0.0,0.8915897011756897,6.189040660858154,-0.2924756109714508,-161.37950134277344,0
701.9369999999999,0.0016573519678786397,0.0034580205101519823,-0.001973855309188366,0.0,0.0,0.0,0.0,-0.00015009910566732287,-0.004167170729488134,0.0016439856262877584,0.9994170069694519,0.0,0.0,0.0,0.8915897011756897,6.189040660858154,-0.2924756109714508,-161.37950134277344,0
711.8410000000003,0.0016176827484741807,0.0034354403614997864,-0.0020455089397728443,0.0,0.0,0.0,0.0,0.0009945373749360442,-0.002917093690484762,-0.0037685888819396496,0.9997795820236206,0.0,0.0,0.0,0.8910909295082092,6.177491188049316,-0.2653268873691559,-161.2892303466797,0
721.7119999999995,0.0016176827484741807,0.0034354403614997864,-0.0020455089397728443,0.0,0.0,0.0,0.0,0.0024933554232120514,0.0041004060767591,-0.002098998287692666,0.9995061755180359,0.0,0.0,0.0,0.8910909295082092,6.177491188049316,-0.2653268873691559,-161.2892303466797,0
731.6130000000012,0.0017151178326457739,0.003395839361473918,-0.0019010314717888832,0.0,0.0,0.0,0.0,0.0004232423088978976,0.00039933042717166245,0.00039306413964368403,0.9995551705360413,0.0,0.0,0.0,0.9024522304534912,6.180004596710205,-0.277247816324234,-163.3456573486328,0
741.4860000000008,0.0017151178326457739,0.003395839361473918,-0.0019010314717888832,0.0,0.0,0.0,0.0,-0.0003201337531208992,-0.0007452137069776654,0.00020423950627446175,1.0002292394638062,0.0,0.0,0.0,0.9024522304534912,6.180004596710205,-0.277247816324234,-163.3456573486328,0
751.3790000000008,0.00177330756559968,0.0033688137773424387,-0.0018049882492050529,0.0,0.0,0.0,0.0,0.0013805544003844261,0.004592097830027342,0.0033739295322448015,0.9998629689216614,0.0,0.0,0.0,0.9176493287086487,6.179149150848389,-0.2786882519721985,-166.09634399414062,0
761.2579999999998,0.00177330756559968,0.0033688137773424387,-0.0018049882492050529,0.0,0.0,0.0,0.0,-0.0043784198351204395,0.0012614965671673417,-0.001088565681129694,0.9976503849029541,0.0,0.0,0.0,0.9176493287086487,6.179149150848389,-0.2786882519721985,-166.09634399414062,0
771.1560000000009,0.0020757114980369806,0.003232689341530204,-0.0015270302537828684,0.0,0.0,0.0,0.0,-0.001574659370817244,0.0014442064566537738,0.0005425200215540826,1.0001453161239624,0.0,0.0,0.0,0.9165782332420349,6.170110702514648,-0.28488367795944214,-165.90248107910156,0
781.0300000000007,0.0020757114980369806,0.003232689341530204,-0.0015270302537828684,0.0,0.0,0.0,0.0,0.00042321591172367334,0.0015755845233798027,0.0031302517745643854,1.0003232955932617,0.0,0.0,0.0,0.9165782332420349,6.170110702514648,-0.28488367795944214,-165.90248107910156,0
790.9250000000011,0.0021601596381515265,0.003192285308614373,-0.001440971391275525,0.0,0.0,0.0,0.0,-0.0005228856462053955,0.004052439704537392,-0.0018515574047341943,1.002005696296692,0.0,0.0,0.0,0.9152637720108032,6.15983247756958,-0.28663504123687744,-165.66456604003906,0
800.8140000000003,0.0021601596381515265,0.003192285308614373,-0.001440971391275525,0.0,0.0,0.0,0.0,0.0040626064874231815,0.006478880066424608,0.00459815189242363,1.0008825063705444,0.0,0.0,0.0,0.9152637720108032,6.15983247756958,-0.28663504123687744,-165.66456604003906,0
810.7060000000001,0.0025302409194409847,0.0030217990279197693,-0.0011086056474596262,0.0,0.0,0.0,0.0,0.0005621481686830521,-0.00211408082395792,9.610147390048951e-05,0.99981290102005,0.0,0.0,0.0,0.9144569635391235,6.1473002433776855,-0.3031746447086334,-165.51852416992188,0
820.5760000000009,0.0025206678546965122,0.0030140099115669727,-0.0011219356674700975,0.0,0.0,0.0,0.0,-0.003398881759494543,0.002733077621087432,0.0007372694090008736,0.9985151886940002,0.0,0.0,0.0,0.9132875800132751,6.138398170471191,-0.3109833598136902,-165.30686950683594,0
830.4750000000004,0.0029750021640211344,0.00281180115416646,-0.0007760180160403252,0.0,0.0,0.0,0.0,0.0036270017735660076,0.0005924166762270033,0.0020228258799761534,0.9989467263221741,0.0,0.0,0.0,0.9120649695396423,6.13551139831543,-0.31451091170310974,-165.08558654785156,0
840.3490000000002,0.0029709069058299065,0.002800691407173872,-0.000788375677075237,0.0,0.0,0.0,0.0,0.0026246567722409964,0.0006919109146110713,-0.0003637968620751053,0.9979817867279053,0.0,0.0,0.0,0.9113993644714355,6.128459453582764,-0.3194916248321533,-164.965087890625,0
850.2440000000006,0.0029711041133850813,0.0027870165649801493,-0.0007822582847438753,0.0,0.0,0.0,0.0,-0.0009754514903761446,-0.001489192945882678,3.6247223761165515e-05,0.9995670914649963,0.0,0.0,0.0,0.8977749347686768,6.117539882659912,-0.32929593324661255,-162.49905395507812,0
860.1229999999996,0.002965663792565465,0.002770514227449894,-0.0007961763185448945,0.0,0.0,0.0,0.0,0.0008496834198012948,0.0014225883642211556,-0.003248106688261032,0.9975799322128296,0.0,0.0,0.0,0.8975542783737183,6.1062397956848145,-0.3171219229698181,-162.45912170410156,0
870.0239999999994,0.0029608162585645914,0.002750386018306017,-0.0008108001202344894,0.0,0.0,0.0,0.0,0.0014730787370353937,-0.004133141133934259,-0.00207575224339962,0.9985299110412598,0.0,0.0,0.0,0.8955008387565613,6.100180625915527,-0.33002403378486633,-162.08741760253906,0
879.8999999999996,0.0029568455647677183,0.0027268428821116686,-0.0008269513491541147,0.0,0.0,0.0,0.0,0.0016119277570396662,0.0030708694830536842,0.00016995915211737156,0.9996817708015442,0.0,0.0,0.0,0.893444299697876,6.094365119934082,-0.3211720287799835,-161.7152099609375,0
889.7960000000003,0.0031709293834865093,0.002683322411030531,-0.0007002054480835795,0.0,0.0,0.0,0.0,0.002529463032260537,-0.00230480101890862,-0.0012660472420975566,0.9982003569602966,0.0,0.0,0.0,0.8936575055122375,6.090198040008545,-0.3111909031867981,-161.7537841796875,0
899.6800000000003,0.0031742043793201447,0.0026591792702674866,-0.000717897666618228,0.0,0.0,0.0,0.0,-0.002221574541181326,-0.005317687522619963,0.0017828406998887658,0.9984765648841858,0.0,0.0,0.0,0.8928634524345398,6.079247951507568,-0.3139457404613495,-161.6100616455078,0
909.5670000000009,0.0031773766968399286,0.002633308758959174,-0.0007366181234829128,0.0,0.0,0.0,0.0,-0.0007880667690187693,0.0023469494190067053,0.0004022337088827044,0.9998378157615662,0.0,0.0,0.0,0.8923470973968506,6.073958396911621,-0.30420300364494324,-161.5166015625,0
919.4459999999999,0.0031800884753465652,0.0026058058720082045,-0.0007564395200461149,0.0,0.0,0.0,0.0,-0.0008378447964787483,-0.0027745836414396763,0.0005838328506797552,1.0012197494506836,0.0,0.0,0.0,0.8909211754798889,6.066777229309082,-0.31046566367149353,-161.2584991455078,0
929.3310000000001,0.0034883986227214336,0.002545954193919897,-0.0005631906096823514,0.0,0.0,0.0,0.0,-0.0029664672911167145,-0.000506471551489085,0.000684978673234582,0.9999366998672485,0.0,0.0,0.0,0.8808415532112122,6.0946879386901855,-0.2920094132423401,-159.43406677246094,0
939.2200000000012,0.0034969141706824303,0.0025204529520124197,-0.0005816962802782655,0.0,0.0,0.0,0.0,-0.003284195903688669,-0.0015454856911674142,0.0007371570100076497,0.998641312122345,0.0,0.0,0.0,0.8793465495109558,6.093791484832764,-0.2798779606819153,-159.16346740722656,0
949.1080000000002,0.003359387628734112,0.0026265450287610292,-0.0006563891656696796,0.0,0.0,0.0,0.0,-0.0008031360921449959,-0.0015129491221159697,-0.0023728846572339535,0.9973982572555542,0.0,0.0,0.0,0.8645227551460266,6.11578893661499,-0.2780023217201233,-156.48033142089844,0
959.0,0.00336672505363822,0.0026028563734143972,-0.0006732669426128268,0.0,0.0,0.0,0.0,-0.00233199424110353,0.001761014573276043,-0.001484417705796659,0.9989532828330994,0.0,0.0,0.0,0.8632528781890869,6.109878063201904,-0.27612096071243286,-156.25048828125,0
968.8770000000004,0.00289171002805233,0.002917498117312789,-0.0009867206681519747,0.0,0.0,0.0,0.0,0.0014244192279875278,0.0029906199779361486,0.001265641301870346,0.9987825751304626,0.0,0.0,0.0,0.8424105644226074,6.140681266784668,-0.280346155166626,-152.4779815673828,0
978.7700000000004,0.0028945249505341053,0.0029025583062320948,-0.0010039536282420158,0.0,0.0,0.0,0.0,0.0022461998742073774,0.003245194209739566,0.00012561997573357075,0.9996656775474548,0.0,0.0,0.0,0.8413935899734497,6.128363132476807,-0.2797245383262634,-152.2938995361328,0
988.6509999999998,0.0025567994453012943,0.0030782080721110106,-0.001253879046998918,0.0,0.0,0.0,0.0,-0.0018115293933078647,-0.004910519812256098,-0.0018271306762471795,0.9989833831787109,0.0,0.0,0.0,0.8409693837165833,6.1157965660095215,-0.29998934268951416,-152.21713256835938,0
998.5429999999997,0.002553463215008378,0.0030619811732321978,-0.0012711866293102503,0.0,0.0,0.0,0.0,0.0010288687190040946,0.005731385201215744,0.0015529990196228027,0.9977636933326721,0.0,0.0,0.0,0.8405168652534485,6.1043572425842285,-0.3015241324901581,-152.13522338867188,0
1008.4330000000009,0.002301477827131748,0.003216605167835951,-0.0014167085755616426,0.0,0.0,0.0,0.0,-0.0005153279053047299,0.004607257898896933,0.0017235690029338002,1.0004295110702515,0.0,0.0,0.0,0.8398905992507935,6.095546245574951,-0.3077678978443146,-152.02186584472656,0
1018.3160000000007,0.002293721307069063,0.0032018590718507767,-0.0014336265157908201,0.0,0.0,0.0,0.0,-0.0006258575012907386,0.0037134382873773575,0.004452673252671957,0.9994868040084839,0.0,0.0,0.0,0.8390296101570129,6.08732271194458,-0.31548023223876953,-151.86602783203125,0
1028.1980000000003,0.002285431604832411,0.0031852314714342356,-0.0014506359584629536,0.0,0.0,0.0,0.0,-0.002446867059916258,0.0027874151710420847,-0.002811964601278305,0.9985702037811279,0.0,0.0,0.0,0.839305579662323,6.08270788192749,-0.32904762029647827,-151.9159698486328,0
1038.1010000000006,0.0022763051092624664,0.0031656615901738405,-0.00146748055703938,0.0,0.0,0.0,0.0,-0.0008570701465941966,0.004433044698089361,0.0010324408067390323,0.9979546666145325,0.0,0.0,0.0,0.838972270488739,6.082403659820557,-0.33460280299186707,-151.85565185546875,0
1047.9740000000002,0.0019650915637612343,0.003376507665961981,-0.0016773749375715852,0.0,0.0,0.0,0.0,-0.003048213664442301,-0.000546851719263941,-0.0018752056639641523,0.999142050743103,0.0,0.0,0.0,0.8374727964401245,6.076275825500488,-0.3405241072177887,-151.58425903320312,0
1057.8639999999996,0.0019522642251104116,0.003358158515766263,-0.001694744685664773,0.0,0.0,0.0,0.0,0.00016776967095211148,0.005569376517087221,0.0016437815502285957,0.9970079064369202,0.0,0.0,0.0,0.8364965319633484,6.0722174644470215,-0.34836533665657043,-151.4075469970703,0
1067.746000000001,0.0018368628807365894,0.0034529687836766243,-0.0017417460912838578,0.0,0.0,0.0,0.0,-0.00017170007049571723,-0.005037907976657152,-0.0017735596047714353,0.997973620891571,0.0,0.0,0.0,0.8360021710395813,6.0636887550354,-0.3478589951992035,-151.31805419921875,0
1077.6380000000008,0.0018236825708299875,0.0034381654113531113,-0.0017601815052330494,0.0,0.0,0.0,0.0,-0.001689148019067943,0.008991232141852379,0.001060916343703866,0.9989639520645142,0.0,0.0,0.0,0.8359869718551636,6.058377742767334,-0.3388678729534149,-151.3153076171875,0
1087.518,0.0021256092004477978,0.0032793001737445593,-0.0014653208199888468,0.0,0.0,0.0,0.0,-0.0013386222999542952,-0.0033521961886435747,0.0019143875688314438,1.0003833770751953,0.0,0.0,0.0,0.8535633683204651,6.063908576965332,-0.34303563833236694,-154.49667358398438,0
1097.4120000000003,0.0021140347234904766,0.0032626232132315636,-0.00148243666626513,0.0,0.0,0.0,0.0,-0.00015681484364904463,0.002215271582826972,-0.001170883304439485,0.9986710548400879,0.0,0.0,0.0,0.8529887199401855,6.052774906158447,-0.3565819561481476,-154.39266967773438,0
1107.2980000000007,0.002413724083453417,0.003112096106633544,-0.001183759537525475,0.0,0.0,0.0,0.0,0.0020045642741024494,-0.0019788085483014584,-0.0007996638305485249,0.9998446702957153,0.0,0.0,0.0,0.8687456846237183,6.0577921867370605,-0.34831368923187256,-157.2447052001953,0
1117.183000000001,0.002401854144409299,0.003091648919507861,-0.0011970831546932459,0.0,0.0,0.0,0.0,0.0014674299163743854,0.0049009863287210464,0.0044905440881848335,0.9990745186805725,0.0,0.0,0.0,0.8680839538574219,6.048945903778076,-0.35783156752586365,-157.12493896484375,0
1127.062,0.0026975180953741074,0.002947427099570632,-0.0009269119473174214,0.0,0.0,0.0,0.0,-0.0007037419127300382,0.0031431803945451975,2.570179094618652e-05,0.998212456703186,0.0,0.0,0.0,0.8669470548629761,6.04047155380249,-0.365366131067276,-156.9191436767578,0
1136.955,0.0026885406114161015,0.0029256565030664206,-0.0009386973106302321,0.0,0.0,0.0,0.0,2.9418057238217443e-05,-0.00020122420391999185,0.0007978267967700958,0.9972928166389465,0.0,0.0,0.0,0.8661181926727295,6.035888671875,-0.3703583776950836,-156.76913452148438,0
1146.835000000001,0.0029239878058433533,0.002811647253111005,-0.0007294845418073237,0.0,0.0,0.0,0.0,0.0009003892191685736,-0.004501572344452143,0.0020982061978429556,1.000062346458435,0.0,0.0,0.0,0.8808692097663879,6.04174280166626,-0.35345497727394104,-159.43907165527344,0
1156.7299999999996,0.002918891841545701,0.0027856130618602037,-0.0007420671172440052,0.0,0.0,0.0,0.0,0.0049507408402860165,-0.0014173652743920684,0.0025413522962480783,1.0001895427703857,0.0,0.0,0.0,0.8809002637863159,6.037009239196777,-0.3479374349117279,-159.44468688964844,0
1166.6080000000002,0.0029155989177525043,0.002756094327196479,-0.000755018088966608,0.0,0.0,0.0,0.0,0.001836695009842515,0.0011254320852458477,0.0014467067085206509,1.0022542476654053,0.0,0.0,0.0,0.8797457814216614,6.0250773429870605,-0.3384898900985718,-159.23573303222656,0
1176.5130000000008,0.002912988420575857,0.0027242309879511595,-0.0007670483319088817,0.0,0.0,0.0,0.0,-0.0031669943127781153,0.00015331224130932242,0.0029034188482910395,0.9997221827507019,0.0,0.0,0.0,0.8790997266769409,6.01669454574585,-0.3314625024795532,-159.11878967285156,0
1186.3809999999994,0.0027027418836951256,0.0028953023720532656,-0.0009342982666566968,0.0,0.0,0.0,0.0,-0.001684411778114736,0.003570413216948509,-0.0012721593957394361,0.9981810450553894,0.0,0.0,0.0,0.8782559037208557,6.043761253356934,-0.3227265775203705,-158.966064453125,0
1196.2810000000009,0.002700169337913394,0.002867824397981167,-0.0009442693553864956,0.0,0.0,0.0,0.0,0.0035838845651596785,0.0044828918762505054,0.002719661220908165,1.0004422664642334,0.0,0.0,0.0,0.8776195049285889,6.03739595413208,-0.326793372631073,-158.8508758544922,0
1206.1540000000005,0.0026744238566607237,0.002951505361124873,-0.0009996889857575297,0.0,0.0,0.0,0.0,-0.0018821622943505645,-0.0020287081133574247,-9.258159843739122e-05,0.9978294968605042,0.0,0.0,0.0,0.8769859075546265,6.031876087188721,-0.3299330472946167,-158.73619079589844,0
1216.0480000000007,0.002675157506018877,0.002927280031144619,-0.0010113564785569906,0.0,0.0,0.0,0.0,0.0027285038959234953,0.0036816857755184174,0.0001036148751154542,0.9978116750717163,0.0,0.0,0.0,0.8768611550331116,6.020696640014648,-0.321706622838974,-158.71360778808594,0
1225.925000000001,0.0026762820780277252,0.0029013310559093952,-0.0010243920842185616,0.0,0.0,0.0,0.0,-0.001985818613320589,0.005306345410645008,0.0007054687011986971,0.9969139695167542,0.0,0.0,0.0,0.8748961687088013,6.012688159942627,-0.33118772506713867,-158.35794067382812,0
1235.826000000001,0.0026778734754770994,0.0028730989433825016,-0.0010398972081020474,0.0,0.0,0.0,0.0,-0.0028466745279729366,0.0005212415708228946,-0.0010242813732475042,0.9976752400398254,0.0,0.0,0.0,0.8738023042678833,6.013514041900635,-0.33932238817214966,-158.1599578857422,0
1245.7000000000007,0.002679675817489624,0.002842857502400875,-0.0010581660317257047,0.0,0.0,0.0,0.0,-0.002578156068921089,-0.003902352647855878,0.002048063324764371,1.0017600059509277,0.0,0.0,0.0,0.8716105818748474,6.010793209075928,-0.3381960093975067,-157.76324462890625,0
1255.598,0.0026820816565304995,0.002811009529978037,-0.00107790797483176,0.0,0.0,0.0,0.0,-0.0013935695169493556,0.000766811310313642,8.447766595054418e-05,0.9996317028999329,0.0,0.0,0.0,0.8708724975585938,6.007333278656006,-0.3348079323768616,-157.62965393066406,0
1265.473,0.002355718519538641,0.003065097378566861,-0.001338839065283537,0.0,0.0,0.0,0.0,-0.00031635822961106896,-0.0009274279582314193,-0.0012763568665832281,0.9970086216926575,0.0,0.0,0.0,0.8596791625022888,6.0419921875,-0.32828426361083984,-155.60365295410156,0
1275.3649999999998,0.002358234953135252,0.003038343507796526,-0.0013578612124547362,0.0,0.0,0.0,0.0,-0.00010353022662457079,0.007700070273131132,-0.002564282389357686,0.9979646801948547,0.0,0.0,0.0,0.8589965105056763,6.039051055908203,-0.32624804973602295,-155.48007202148438,0
1285.255000000001,0.0023620310239493847,0.003009198233485222,-0.0013787875650450587,0.0,0.0,0.0,0.0,0.0012832505162805319,0.00360721442848444,-0.0015246549155563116,0.9970254898071289,0.0,0.0,0.0,0.8584343791007996,6.0308661460876465,-0.3430721163749695,-155.37832641601562,0
1295.1399999999994,0.0023662347812205553,0.002976184943690896,-0.0014018535148352385,0.0,0.0,0.0,0.0,0.000924938649404794,7.001343328738585e-05,-0.0029342330526560545,0.9951422810554504,0.0,0.0,0.0,0.8562125563621521,6.022341251373291,-0.35661348700523376,-154.97616577148438,0
1305.023000000001,0.0020515713840723038,0.003227442968636751,-0.0016292163636535406,0.0,0.0,0.0,0.0,-0.0009722824324853718,-0.004756083711981773,0.0006478067371062934,0.9930175542831421,0.0,0.0,0.0,0.8471100330352783,6.062442779541016,-0.35851019620895386,-153.32859802246094,0
1314.916000000001,0.0020507401786744595,0.0031979053746908903,-0.0016579658258706331,0.0,0.0,0.0,0.0,0.0029089876916259527,0.006379242520779371,0.0005938370013609529,0.9983784556388855,0.0,0.0,0.0,0.8462989330291748,6.0602006912231445,-0.34102439880371094,-153.18179321289062,0
1324.7970000000005,0.0022434021811932325,0.003165803151205182,-0.00151375203859061,0.0,0.0,0.0,0.0,0.0037784064188599586,0.003155757673084736,-0.0014716192381456494,1.0000431537628174,0.0,0.0,0.0,0.8451318740844727,6.051514148712158,-0.3518461585044861,-152.97055053710938,0
1334.688,0.002247060649096966,0.003138558939099312,-0.0015483041061088443,0.0,0.0,0.0,0.0,-0.00379106099717319,-0.007266226690262556,0.0018963954644277692,1.0001651048660278,0.0,0.0,0.0,0.8439627289772034,6.039689540863037,-0.35583242774009705,-152.75894165039062,0
1344.5660000000007,0.0020262934267520905,0.0032650160137563944,-0.0016975629841908813,0.0,0.0,0.0,0.0,0.0004046866961289197,0.0011450612219050527,-1.5357038137153722e-05,0.9992506504058838,0.0,0.0,0.0,0.8299034237861633,6.047570705413818,-0.36104780435562134,-150.21417236328125,0
1354.460000000001,0.00202785967849195,0.003239734098315239,-0.0017306036315858364,0.0,0.0,0.0,0.0,-0.0014311164850369096,-0.0016266967868432403,-0.0032048667781054974,1.000170111656189,0.0,0.0,0.0,0.8291652202606201,6.03641939163208,-0.3525833189487457,-150.08055114746094,0
1364.3400000000001,0.0017635388066992164,0.003399341367185116,-0.0019294357625767589,0.0,0.0,0.0,0.0,-4.138169242651202e-05,0.002679254626855254,0.0028332476504147053,1.0004262924194336,0.0,0.0,0.0,0.828752875328064,6.03544807434082,-0.34385013580322266,-150.00592041015625,0
1374.2380000000012,0.0017643264727666974,0.003373459680005908,-0.001961338799446821,0.0,0.0,0.0,0.0,0.003974554594606161,-0.000893442309461534,0.0008023919072002172,0.9993652701377869,0.0,0.0,0.0,0.8269100785255432,6.023554801940918,-0.3534626364707947,-149.67236328125,0
1384.1130000000012,0.0017649977235123515,0.0033456359524279833,-0.001992597011849284,0.0,0.0,0.0,0.0,0.0014309294056147337,0.0035663193557411432,0.00019285829330328852,0.9987669587135315,0.0,0.0,0.0,0.8266571760177612,6.0168256759643555,-0.36189374327659607,-149.62660217285156,0
1394.0159999999996,0.0017648517386987805,0.003316295798867941,-0.00202402682043612,0.0,0.0,0.0,0.0,3.4403659810777754e-05,-0.001754052471369505,0.0030873615760356188,1.0015268325805664,0.0,0.0,0.0,0.8254541158676147,6.005320072174072,-0.36209794878959656,-149.40884399414062,0
1403.889000000001,0.001969215925782919,0.003296824637800455,-0.0018368068849667907,0.0,0.0,0.0,0.0,0.0022781509906053543,-0.00026709589292295277,-0.0011837148340418935,0.998452365398407,0.0,0.0,0.0,0.8357476592063904,6.033387184143066,-0.3570999503135681,-151.27198791503906,0
1413.7780000000002,0.001970819430425763,0.0032725732307881117,-0.001864692778326571,0.0,0.0,0.0,0.0,-0.0006830845959484577,0.00039375139749608934,-0.00019822560716420412,0.9997395277023315,0.0,0.0,0.0,0.8347455859184265,6.029746055603027,-0.35159897804260254,-151.09060668945312,0
1423.657000000001,0.001971856690943241,0.0032466326374560595,-0.0018929213983938098,0.0,0.0,0.0,0.0,0.0006340480176731944,-0.005370679777115583,-0.0008839676156640053,0.9989139437675476,0.0,0.0,0.0,0.8334206938743591,6.02516508102417,-0.35230857133865356,-150.85079956054688,0
1433.5529999999999,0.0019716660026460886,0.003218586090952158,-0.0019214445492252707,0.0,0.0,0.0,0.0,0.0003116545267403126,0.0076501923613250256,0.0010969677241519094,0.9973753094673157,0.0,0.0,0.0,0.8316279649734497,6.016415119171143,-0.3452867269515991,-150.52630615234375,0
1443.433000000001,0.0016791119705885649,0.003409445518627763,-0.0020708201918751,0.0,0.0,0.0,0.0,-0.00025579959037713706,-0.0020510039757937193,0.0011849675793200731,0.9984166622161865,0.0,0.0,0.0,0.8317420482635498,6.011829853057861,-0.3483341336250305,-150.54696655273438,0
1453.3360000000011,0.0016703997971490026,0.003387079108506441,-0.0020992523059248924,0.0,0.0,0.0,0.0,-0.001678892527706921,-0.0001569182495586574,0.0018256446346640587,1.0006130933761597,0.0,0.0,0.0,0.8307462334632874,6.004732131958008,-0.3686473071575165,-150.36672973632812,0
1463.2029999999995,0.0016892182175070047,0.0034464197233319283,-0.00197075167670846,0.0,0.0,0.0,0.0,-0.00022905760852154344,0.0006679946673102677,-0.004457034170627594,0.9984121918678284,0.0,0.0,0.0,0.8462656140327454,6.038388729095459,-0.3721123933792114,-153.17575073242188,0
1473.1020000000008,0.0016793166287243366,0.0034285197034478188,-0.0019954987801611423,0.0,0.0,0.0,0.0,0.0009733033366501331,0.005487773101776838,-0.002641707891598344,0.9985799789428711,0.0,0.0,0.0,0.8457707166671753,6.0311994552612305,-0.371523916721344,-153.08619689941406,0
1482.9770000000008,0.0016697656828910112,0.0034076382871717215,-0.002021031454205513,0.0,0.0,0.0,0.0,0.0014939382672309875,0.0009193987352773547,0.00013479847984854132,0.999026358127594,0.0,0.0,0.0,0.8448977470397949,6.0208024978637695,-0.3838423192501068,-152.9281768798828,0
1492.8700000000008,0.0016600257949903607,0.003384375013411045,-0.002047757152467966,0.0,0.0,0.0,0.0,0.00338322133757174,0.0035732719115912914,-0.0019418629817664623,0.9975384473800659,0.0,0.0,0.0,0.843775749206543,6.012184143066406,-0.39582210779190063,-152.72509765625,0
1502.759,0.0016494987066835165,0.003358843270689249,-0.0020755294244736433,0.0,0.0,0.0,0.0,-0.0015326781431213021,0.0006213925080373883,-0.001390171004459262,0.9973816871643066,0.0,0.0,0.0,0.8430567979812622,6.004245281219482,-0.3973701000213623,-152.59495544433594,0
1512.6450000000004,0.0016374161932617426,0.0033300674986094236,-0.002105163177475333,0.0,0.0,0.0,0.0,-0.0020298133604228497,0.0013753290986642241,0.00014418717182707042,0.9974951148033142,0.0,0.0,0.0,0.8416869044303894,5.993152618408203,-0.39899519085884094,-152.3470001220703,0
1522.523000000001,0.0012789048487320542,0.0035419759806245565,-0.00225600297562778,0.0,0.0,0.0,0.0,0.0013349744258448482,0.0004797838337253779,0.0041030170395970345,0.9969117641448975,0.0,0.0,0.0,0.8408026695251465,5.9906392097473145,-0.40346720814704895,-152.18695068359375,0
1532.4210000000003,0.0012581811752170324,0.0035146870650351048,-0.0022859692107886076,0.0,0.0,0.0,0.0,-0.0027515836991369724,-0.0015603717183694243,0.00016762218729127198,0.9973176121711731,0.0,0.0,0.0,0.8400370478630066,5.982747554779053,-0.41238221526145935,-152.04837036132812,0
1542.2960000000003,0.0012374900979921222,0.0034866766072809696,-0.00231856107711792,0.0,0.0,0.0,0.0,-0.005704327020794153,0.003143412061035633,-0.003525146283209324,0.9993669390678406,0.0,0.0,0.0,0.8404025435447693,5.978845119476318,-0.40426763892173767,-152.11453247070312,0
1552.1949999999997,0.0012169928522780538,0.003457666141912341,-0.002353161107748747,0.0,0.0,0.0,0.0,0.00014435382036026567,0.004475791938602924,0.0013719195267185569,0.999908447265625,0.0,0.0,0.0,0.839451789855957,5.988605499267578,-0.40747466683387756,-151.94244384765625,0
1562.0689999999995,0.0012375584337860346,0.0035514107439666986,-0.0022942565847188234,0.0,0.0,0.0,0.0,-0.00013390634558163583,0.0007073232554830611,0.0013666658196598291,0.9984297156333923,0.0,0.0,0.0,0.8329845070838928,6.020443439483643,-0.40778976678848267,-150.7718505859375,0
1571.9629999999997,0.0012189751723781228,0.003528897650539875,-0.0023268002551048994,0.0,0.0,0.0,0.0,-0.0009777415543794632,0.0016518509946763515,0.0017694178968667984,0.9978033304214478,0.0,0.0,0.0,0.832738995552063,6.014655590057373,-0.41470953822135925,-150.72740173339844,0
1581.844000000001,0.0011382647790014744,0.0036276865284889936,-0.0023670524824410677,0.0,0.0,0.0,0.0,0.00025996824842877686,-0.0025968693662434816,-4.1378618334420025e-05,0.9983319640159607,0.0,0.0,0.0,0.8182178735733032,6.037418365478516,-0.4171557128429413,-148.09906005859375,0
1591.7380000000012,0.0011176541447639465,0.0036061599384993315,-0.002400652738288045,0.0,0.0,0.0,0.0,0.0012282487004995346,-0.0020725876092910767,-0.0033749293070286512,0.9998311996459961,0.0,0.0,0.0,0.8174171447753906,6.036373615264893,-0.4084514379501343,-147.95411682128906,0
1601.6200000000008,0.0015439606504514813,0.003458072431385517,-0.00208371807821095,0.0,0.0,0.0,0.0,-0.004161037039011717,-0.0025831907987594604,0.0009889618959277868,0.9987369775772095,0.0,0.0,0.0,0.8160527944564819,6.028136730194092,-0.39862149953842163,-147.70716857910156,0
1611.5110000000004,0.0015258986968547106,0.0034351067151874304,-0.00211685081012547,0.0,0.0,0.0,0.0,0.004194220993667841,0.004994065035134554,0.0015392509521916509,0.9999021291732788,0.0,0.0,0.0,0.8144166469573975,6.028143405914307,-0.39550864696502686,-147.41104125976562,0
1621.389000000001,0.0018221087520942092,0.0033243584912270308,-0.0018144350033253431,0.0,0.0,0.0,0.0,0.0007115566404536366,0.0019482236821204424,0.001177503145299852,0.9983996152877808,0.0,0.0,0.0,0.8141674399375916,6.018580913543701,-0.39329496026039124,-147.36593627929688,0
1631.2890000000007,0.0018028573831543326,0.0033002509735524654,-0.0018438822589814663,0.0,0.0,0.0,0.0,-0.000521885696798563,0.0020426728297024965,-0.003958509769290686,0.9981372952461243,0.0,0.0,0.0,0.8144091367721558,6.002006530761719,-0.39302268624305725,-147.40968322753906,0
1641.1620000000003,0.001585711957886815,0.0034465629141777754,-0.0020014375913888216,0.0,0.0,0.0,0.0,-0.00016689511539880186,-0.0021442079450935125,0.0008328186231665313,1.000346064567566,0.0,0.0,0.0,0.7980196475982666,6.021886825561523,-0.39627641439437866,-144.44314575195312,0
1651.071,0.0015668828273192048,0.0034238947555422783,-0.002032351214438677,0.0,0.0,0.0,0.0,-0.0014496345538645983,0.0042793466709554195,0.0019689942710101604,0.999106764793396,0.0,0.0,0.0,0.7970207929611206,6.010327339172363,-0.4007270932197571,-144.2623291015625,0
1660.937,0.0020472067408263683,0.0032018551137298346,-0.0016778347780928016,0.0,0.0,0.0,0.0,-0.001226810272783041,-0.0031008406076580286,-0.003976857755333185,0.9995378255844116,0.0,0.0,0.0,0.8029964566230774,6.022427082061768,-0.38904404640197754,-145.3439483642578,0
1670.8289999999997,0.0020333933643996716,0.0031768695916980505,-0.0017074639908969402,0.0,0.0,0.0,0.0,-0.002333670388907194,-0.0013586018467321992,-0.0015988107770681381,0.9989610314369202,0.0,0.0,0.0,0.8028308749198914,6.0137763023376465,-0.4013760983943939,-145.31398010253906,0
1680.7090000000007,0.0018523632315918803,0.003302390221506357,-0.0018472119700163603,0.0,0.0,0.0,0.0,0.002218129113316536,0.0030773580074310303,-0.003984374459832907,0.9986147880554199,0.0,0.0,0.0,0.7899200320243835,6.036418437957764,-0.39046576619148254,-142.9770965576172,0
1690.6040000000012,0.0018364653224125504,0.0032803050708025694,-0.0018774342024698853,0.0,0.0,0.0,0.0,-0.005183324217796326,-0.0021835954394191504,-0.0008120655547827482,0.9984186291694641,0.0,0.0,0.0,0.7890112996101379,6.023897171020508,-0.3945671319961548,-142.8126220703125,0
1700.4840000000004,0.0022321429569274187,0.0031461219768971205,-0.001606861362233758,0.0,0.0,0.0,0.0,0.0001307162456214428,-0.003255256451666355,0.006152595859020948,1.0000637769699097,0.0,0.0,0.0,0.7869769930839539,6.021207332611084,-0.39327290654182434,-142.44439697265625,0
1710.3760000000002,0.0022233175113797188,0.003123227506875992,-0.0016382583416998386,0.0,0.0,0.0,0.0,0.0005588259664364159,0.00675582280382514,-0.0005345711833797395,0.9992600679397583,0.0,0.0,0.0,0.785855770111084,6.017301082611084,-0.384896457195282,-142.241455078125,0
1720.2569999999996,0.0024680353235453367,0.003044552868232131,-0.001460549421608448,0.0,0.0,0.0,0.0,0.0009621548233553767,0.005710987839847803,-0.0028026564978063107,0.9989703893661499,0.0,0.0,0.0,0.7862138748168945,6.012375831604004,-0.38466230034828186,-142.3062744140625,0
1730.1530000000002,0.0024615400470793247,0.003022007178515196,-0.0014909066958352923,0.0,0.0,0.0,0.0,-0.002645299071446061,-0.001189953531138599,-0.0024967757053673267,0.9996155500411987,0.0,0.0,0.0,0.7863388657569885,6.003244400024414,-0.40027350187301636,-142.32888793945312,0
1740.0419999999995,0.002621276071295142,0.0029710617382079363,-0.001342468080110848,0.0,0.0,0.0,0.0,0.003585220780223608,0.0045912968926131725,0.00281244283542037,0.9998980760574341,0.0,0.0,0.0,0.7911511063575745,6.022540092468262,-0.40969157218933105,-143.19992065429688,0
1749.925000000001,0.0026156622916460037,0.002949336776509881,-0.0013706728350371122,0.0,0.0,0.0,0.0,-1.5922656530165114e-05,-0.00339059391990304,-0.0002732719585765153,1.0014976263046265,0.0,0.0,0.0,0.7900029420852661,6.019123077392578,-0.40947553515434265,-142.9921112060547,0
1759.8009999999995,0.0028622299432754517,0.002841876819729805,-0.001136702485382557,0.0,0.0,0.0,0.0,0.0018721551168709993,0.003904457436874509,0.0017454023472964764,1.0002672672271729,0.0,0.0,0.0,0.7841723561286926,6.030407428741455,-0.41092321276664734,-141.93675231933594,0
1769.6939999999995,0.0028569018468260765,0.0028172547463327646,-0.001159452018328011,0.0,0.0,0.0,0.0,-0.002103680744767189,0.003992686979472637,-0.002537071006372571,0.9967578649520874,0.0,0.0,0.0,0.7843827605247498,6.02199649810791,-0.4214768409729004,-141.974853515625,0
1779.5789999999997,0.002796793356537819,0.0028557225596159697,-0.0011187706841155887,0.0,0.0,0.0,0.0,-0.0016048755496740341,0.0009459478314965963,0.003924008458852768,0.9989156723022461,0.0,0.0,0.0,0.7902607917785645,6.034302711486816,-0.44647061824798584,-143.0387725830078,0
1789.4680000000008,0.0027889751363545656,0.002832199912518263,-0.0011382588418200612,0.0,0.0,0.0,0.0,-0.00044146800064481795,-0.004047910217195749,0.0029394819866865873,0.9979923367500305,0.0,0.0,0.0,0.7897986173629761,6.030858516693115,-0.45332157611846924,-142.9551239013672,0
1799.3520000000008,0.0026006591506302357,0.002954374300315976,-0.0012393787037581205,0.0,0.0,0.0,0.0,1.5622055798303336e-05,-0.003796220989897847,0.0006132200360298157,0.9996066093444824,0.0,0.0,0.0,0.783771812915802,6.0443902015686035,-0.4598064720630646,-141.86427307128906,0
1809.2489999999998,0.002590471412986517,0.0029309510719031096,-0.0012590574333444238,0.0,0.0,0.0,0.0,0.0007454324513673782,0.0025075534358620644,7.201634434750304e-05,0.9986061453819275,0.0,0.0,0.0,0.7837362289428711,6.0437703132629395,-0.44931331276893616,-141.8578338623047,0
1819.1200000000008,0.002429598942399025,0.0030127819627523422,-0.0013079768978059292,0.0,0.0,0.0,0.0,-0.0011049616150557995,-0.004070360213518143,0.0013932938454672694,0.9977465867996216,0.0,0.0,0.0,0.7821654677391052,6.03333854675293,-0.4488913416862488,-141.57350158691406,0
1829.0190000000002,0.00241539953276515,0.002987966872751713,-0.0013254890218377113,0.0,0.0,0.0,0.0,0.002049136906862259,-0.0024831281043589115,-0.003384411334991455,0.9959948658943176,0.0,0.0,0.0,0.7815626859664917,6.024332523345947,-0.4460718333721161,-141.46438598632812,0
1838.893,0.002400527475401759,0.002960611367598176,-0.001345333643257618,0.0,0.0,0.0,0.0,-0.0042751203291118145,-0.001601137570105493,-0.0020360369235277176,0.9989553093910217,0.0,0.0,0.0,0.781256914138794,6.011474132537842,-0.4447890520095825,-141.4090576171875,0
1848.7890000000007,0.0023864763788878918,0.002931860974058509,-0.001368065131828189,0.0,0.0,0.0,0.0,0.0014660201268270612,0.004759658128023148,-0.00015957883442752063,0.9988574981689453,0.0,0.0,0.0,0.7799655199050903,6.008180618286133,-0.445927232503891,-141.17530822753906,0
1858.666000000001,0.0023741465993225574,0.0029014297761023045,-0.0013922280631959438,0.0,0.0,0.0,0.0,-0.0006225092220120132,-0.002462740521878004,0.003585586091503501,0.9988882541656494,0.0,0.0,0.0,0.7783805131912231,6.00478458404541,-0.43938812613487244,-140.888427734375,0
1868.576000000001,0.0023626398760825396,0.002868759213015437,-0.0014171409420669079,0.0,0.0,0.0,0.0,0.0029641047585755587,0.0011602566810324788,-0.0009515527635812759,0.998865008354187,0.0,0.0,0.0,0.7778533101081848,5.996914863586426,-0.4521944522857666,-140.79298400878906,0
1878.4430000000011,0.0021818014793097973,0.0030272232834249735,-0.0014619805151596665,0.0,0.0,0.0,0.0,7.57324232836254e-05,-0.0008253082633018494,0.0021559398155659437,1.000354528427124,0.0,0.0,0.0,0.7819983959197998,6.030664920806885,-0.4599740505218506,-141.5432586669922,0
1888.3330000000005,0.002162734977900982,0.003000921104103327,-0.0014836108312010765,0.0,0.0,0.0,0.0,0.0005580480792559683,0.004068093374371529,-0.0007022587233223021,0.9989601373672485,0.0,0.0,0.0,0.7812350988388062,6.022611618041992,-0.45642274618148804,-141.40509033203125,0
1898.219000000001,0.002141793491318822,0.002972837770357728,-0.0015054743271321058,0.0,0.0,0.0,0.0,-0.003534965915605426,0.0007395409629680216,-0.0010846637887880206,0.9970892667770386,0.0,0.0,0.0,0.77983558177948,6.018413066864014,-0.46403178572654724,-141.15179443359375,0
1908.1080000000002,0.0021199786569923162,0.002940744860097766,-0.001528291730210185,0.0,0.0,0.0,0.0,3.880295844282955e-05,0.0026747379451990128,-0.0006134374998509884,0.9988703727722168,0.0,0.0,0.0,0.7798155546188354,6.0176005363464355,-0.4719707667827606,-141.14816284179688,0
1917.9930000000004,0.0020089023746550083,0.0031003584153950214,-0.0015429739141836762,0.0,0.0,0.0,0.0,0.0006925472407601774,0.0004056110046803951,-0.0003463845932856202,0.9993889331817627,0.0,0.0,0.0,0.7812997102737427,6.053359031677246,-0.47158870100975037,-141.41680908203125,0
1927.8809999999994,0.00198553130030632,0.003072003135457635,-0.0015650856075808406,0.0,0.0,0.0,0.0,-0.0022256660740822554,-0.0060660806484520435,-0.0004971047164872289,1.0001193284988403,0.0,0.0,0.0,0.7798051238059998,6.042803764343262,-0.47558581829071045,-141.1462860107422,0
1937.7669999999998,0.001961455913260579,0.003041947493329644,-0.0015876953257247806,0.0,0.0,0.0,0.0,-0.0016127092530950904,-0.00058088602963835,0.002963233506307006,1.0010572671890259,0.0,0.0,0.0,0.7791614532470703,6.038884162902832,-0.47540146112442017,-141.02978515625,0
1947.6460000000006,0.0019374105613678694,0.0030102767050266266,-0.0016099498607218266,0.0,0.0,0.0,0.0,-0.0007570726447738707,0.002096522366628051,0.001771761104464531,1.0007990598678589,0.0,0.0,0.0,0.7783163785934448,6.035787105560303,-0.4702398478984833,-140.87680053710938,0
1957.541000000001,0.0025530389975756407,0.002852238016203046,-0.001188449445180595,0.0,0.0,0.0,0.0,-0.0007950856233946979,-0.0011942090932279825,-0.0012446491746231914,0.9989032745361328,0.0,0.0,0.0,0.7968268990516663,6.080381870269775,-0.4242306351661682,-144.2272491455078,0
1967.434000000001,0.002538599306717515,0.0028250953182578087,-0.0012074160622432828,0.0,0.0,0.0,0.0,-0.0006401988794095814,-0.0010493479203432798,-0.0011961475247517228,0.9964368939399719,0.0,0.0,0.0,0.7952700257301331,6.070670127868652,-0.4241720139980316,-143.94544982910156,0
1977.317000000001,0.0025245128199458122,0.002795664593577385,-0.0012274826876819134,0.0,0.0,0.0,0.0,-0.00036219475441612303,0.0035569833125919104,0.000882232969161123,0.9993407726287842,0.0,0.0,0.0,0.7942104339599609,6.0705766677856445,-0.42377081513404846,-143.753662109375,0
1987.1930000000011,0.0025103006046265364,0.0027651211712509394,-0.0012497282586991787,0.0,0.0,0.0,0.0,-0.0005922308191657066,-0.0008371766307391226,0.0016307051992043853,0.9984983801841736,0.0,0.0,0.0,0.7943099737167358,6.062551498413086,-0.4202728867530823,-143.7716827392578,0
1997.085000000001,0.00310800620354712,0.0026774434372782707,-0.0008260285248979926,0.0,0.0,0.0,0.0,0.004467561841011047,0.003336172318086028,-0.005632207728922367,1.0009243488311768,0.0,0.0,0.0,0.8106611967086792,6.120842933654785,-0.3760933578014374,-146.7312774658203,0
2006.9740000000002,0.0031044003553688526,0.0026562854181975126,-0.0008478047675453126,0.0,0.0,0.0,0.0,-0.0007695683161728084,0.00023154294467531145,-0.001614550594240427,0.999610424041748,0.0,0.0,0.0,0.8091804385185242,6.114989757537842,-0.3756272792816162,-146.46327209472656,0
2016.8680000000004,0.0034744860604405403,0.00258885370567441,-0.0005767957190982997,0.0,0.0,0.0,0.0,0.0005833928589709103,-0.0043129390105605125,0.0013130202423781157,1.0009574890136719,0.0,0.0,0.0,0.8108863830566406,6.145223140716553,-0.3679417371749878,-146.77203369140625,0
2026.7440000000006,0.0034766988828778267,0.002572610042989254,-0.000595577119383961,0.0,0.0,0.0,0.0,0.0012439212296158075,0.004434093367308378,-7.436762098222971e-05,0.9995010495185852,0.0,0.0,0.0,0.8098874688148499,6.141112327575684,-0.3652201294898987,-146.59124755859375,0
2036.6319999999996,0.0032714882399886847,0.002693421673029661,-0.0007173266494646668,0.0,0.0,0.0,0.0,-0.001659156521782279,6.880205910420045e-05,0.00037575114401988685,0.9993056654930115,0.0,0.0,0.0,0.8009725213050842,6.14222526550293,-0.3787734806537628,-144.9776153564453,0
2046.514000000001,0.0032700365409255028,0.0026800280902534723,-0.0007337104761973023,0.0,0.0,0.0,0.0,-0.0007921991054899991,0.0059540462680161,0.0010556696215644479,0.9991174340248108,0.0,0.0,0.0,0.8005542755126953,6.1326751708984375,-0.3851378560066223,-144.9019317626953,0
2056.4050000000007,0.0031384634785354137,0.002761783776804805,-0.0008191828383132815,0.0,0.0,0.0,0.0,-0.0009328314336016774,-0.0008415760821662843,-0.002057736972346902,0.9986268877983093,0.0,0.0,0.0,0.7991952300071716,6.128138065338135,-0.3853723406791687,-144.6559295654297,0
2066.291000000001,0.0031350934877991676,0.002749635139480233,-0.0008360942592844367,0.0,0.0,0.0,0.0,0.003117064479738474,0.00640692887827754,-0.0006872827070765197,0.9998025894165039,0.0,0.0,0.0,0.7974861860275269,6.117014408111572,-0.39081481099128723,-144.34658813476562,0
2076.174000000001,0.0028319854754954576,0.0029103634878993034,-0.001037323148921132,0.0,0.0,0.0,0.0,1.3668546671397053e-05,0.0006282361573539674,0.0017196708358824253,0.9993062615394592,0.0,0.0,0.0,0.7896180748939514,6.124649524688721,-0.4060630202293396,-142.92242431640625,0
2086.076000000001,0.0028248887974768877,0.002895229496061802,-0.0010543196694925427,0.0,0.0,0.0,0.0,0.0011142755392938852,-0.007613989524543285,0.003055144567042589,0.9984449744224548,0.0,0.0,0.0,0.7866267561912537,6.112761497497559,-0.42148593068122864,-142.38099670410156,0
2095.9490000000005,0.003075447864830494,0.002784240525215864,-0.0008237512083724141,0.0,0.0,0.0,0.0,7.227321475511417e-05,-1.8674645616556518e-05,-0.0018147010123357177,0.9988435506820679,0.0,0.0,0.0,0.793128252029419,6.11867094039917,-0.4130435883998871,-143.55780029296875,0
2105.836000000001,0.0030703386291861534,0.002766983350738883,-0.0008395904442295432,0.0,0.0,0.0,0.0,-0.000886507157701999,-0.006213536486029625,0.0021551467943936586,0.9972947239875793,0.0,0.0,0.0,0.7923257350921631,6.108623027801514,-0.41029953956604004,-143.41253662109375,0
2115.7170000000006,0.00294331181794405,0.0028434274718165398,-0.0009252620511688292,0.0,0.0,0.0,0.0,0.002430652268230915,-0.0002015848585870117,0.000176683854078874,0.9978388547897339,0.0,0.0,0.0,0.7914038896560669,6.100529670715332,-0.3951909840106964,-143.24569702148438,0
2125.611000000001,0.0029357809107750654,0.0028245842549949884,-0.000943940132856369,0.0,0.0,0.0,0.0,0.0014346088282763958,0.001914353109896183,0.000952689500991255,0.9988334774971008,0.0,0.0,0.0,0.7909311652183533,6.094587802886963,-0.39108315110206604,-143.16012573242188,0
