timestamp,stateEstimate.x,stateEstimate.y,stateEstimate.z,controller.cmd_thrust,controller.cmd_roll,controller.cmd_pitch,controller.cmd_yaw,controller.r_roll,controller.r_pitch,controller.r_yaw,controller.accelz,controller.actuatorThrust,controller.roll,controller.pitch,controller.yaw,controller.rollRate,controller.pitchRate,controller.yawRate,controller.ctr_yaw
0.0,-0.0025964064989238977,0.018976693972945213,-0.006169295869767666,0.0,0.0,0.0,0.0,0.0002047359012067318,0.006055856589227915,0.0028730062767863274,1.0000007152557373,0.0,0.0,0.0,28.689180374145508,7.219106674194336,-0.7641866207122803,-5192.79931640625,0
9.903000000000247,-0.0025717630051076412,0.0190722793340683,-0.006321554537862539,0.0,0.0,0.0,0.0,-0.0013074235757812858,-0.000577094207983464,0.0002478811948094517,1.0002650022506714,0.0,0.0,0.0,28.71680450439453,7.2155070304870605,-0.7706593871116638,-5197.798828125,0
19.77900000000045,-0.0025905496440827847,0.019006308168172836,-0.006242599803954363,0.0,0.0,0.0,0.0,0.001124371774494648,0.006203671917319298,0.0018464545719325542,1.0000358819961548,0.0,0.0,0.0,28.688859939575195,7.210416316986084,-0.7634984254837036,-5192.7412109375,0
29.659999999999854,-0.002582408022135496,0.01907086744904518,-0.0063421581871807575,0.0,0.0,0.0,0.0,-0.0028340667486190796,-0.006493879482150078,0.00287363538518548,1.000354528427124,0.0,0.0,0.0,28.719261169433594,7.212581157684326,-0.7735205292701721,-5198.24365234375,0
39.54500000000007,-0.002598401391878724,0.019005173817276955,-0.006264932919293642,0.0,0.0,0.0,0.0,0.00217390526086092,-0.0006538837333209813,0.00017157824186142534,0.9997929930686951,0.0,0.0,0.0,28.690662384033203,7.196590900421143,-0.7878904342651367,-5193.06689453125,0
49.43499999999949,-0.0025660665705800056,0.019159844145178795,-0.006409880239516497,0.0,0.0,0.0,0.0,-0.0005253541748970747,-0.0009308087755925953,-0.0010144751286134124,0.9984272122383118,0.0,0.0,0.0,28.719390869140625,7.211333274841309,-0.771457314491272,-5198.26708984375,0
59.315999999998894,-0.0025813777465373278,0.01909765787422657,-0.006333677563816309,0.0,0.0,0.0,0.0,0.0020531213376671076,0.0021542194299399853,0.0010107161942869425,0.9996224045753479,0.0,0.0,0.0,28.691448211669922,7.204493999481201,-0.7682998776435852,-5193.2099609375,0
69.20199999999932,-0.0025650018360465765,0.019193436950445175,-0.006440207362174988,0.0,0.0,0.0,0.0,0.000280966138234362,-0.0033548041246831417,0.0007533835014328361,1.0007730722427368,0.0,0.0,0.0,28.72069549560547,7.212684631347656,-0.7634580135345459,-5198.5029296875,0
79.08699999999953,-0.0025779909919947386,0.019130975008010864,-0.0063665141351521015,0.0,0.0,0.0,0.0,-0.0005510019254870713,-0.0028655624482780695,-0.0010256045497953892,1.00286865234375,0.0,0.0,0.0,28.691734313964844,7.201054573059082,-0.761228084564209,-5193.26123046875,0
88.98799999999937,-0.0025579268112778664,0.01924736425280571,-0.006499700713902712,0.0,0.0,0.0,0.0,-0.0011710233520716429,0.0012519527226686478,-1.3008903806621674e-05,1.0006612539291382,0.0,0.0,0.0,28.719987869262695,7.221691131591797,-0.755570113658905,-5198.375,0
98.86499999999978,-0.0025692060589790344,0.019186990335583687,-0.006424521561712027,0.0,0.0,0.0,0.0,-0.0012990478426218033,0.0014922552509233356,0.0005361337098293006,1.000195860862732,0.0,0.0,0.0,28.6910343170166,7.214345932006836,-0.7493734359741211,-5193.13427734375,0
108.7619999999988,-0.0025776622351258993,0.019126318395137787,-0.0063483756966888905,0.0,0.0,0.0,0.0,0.0028747881297022104,-0.005503749009221792,-0.0017884864937514067,1.0010762214660645,0.0,0.0,0.0,28.663774490356445,7.206429481506348,-0.7557803988456726,-5188.19970703125,0
118.6369999999988,-0.002568229101598263,0.019221870228648186,-0.006448510102927685,0.0,0.0,0.0,0.0,-0.002226642332971096,0.006993264425545931,0.00017240583838429302,1.000929832458496,0.0,0.0,0.0,28.693294525146484,7.213606834411621,-0.764482319355011,-5193.54345703125,0
128.52499999999964,-0.002578025683760643,0.019163137301802635,-0.006372189614921808,0.0,0.0,0.0,0.0,0.0008506395388394594,-0.002089275047183037,-0.0015335914213210344,0.9999142289161682,0.0,0.0,0.0,28.66444206237793,7.205743789672852,-0.7769514918327332,-5188.3212890625,0
138.40899999999965,-0.0025505435187369585,0.019280346110463142,-0.006497228052467108,0.0,0.0,0.0,0.0,0.0005508303875103593,-0.0054081580601632595,0.0005315985181368887,0.9995136260986328,0.0,0.0,0.0,28.694995880126953,7.210729122161865,-0.7816768884658813,-5193.8515625,0
148.30099999999948,-0.0025598197244107723,0.019221607595682144,-0.006421644706279039,0.0,0.0,0.0,0.0,0.0014739439357072115,0.0002812640741467476,0.004348915535956621,1.0015714168548584,0.0,0.0,0.0,28.665895462036133,7.203275203704834,-0.7757564783096313,-5188.583984375,0
158.1880000000001,-0.0025210585445165634,0.019360220059752464,-0.006576063111424446,0.0,0.0,0.0,0.0,-0.0010249532060697675,-0.0013970098225399852,0.0008980848942883313,0.9995490908622742,0.0,0.0,0.0,28.69550132751465,7.206812381744385,-0.7764580249786377,-5193.94287109375,0
168.07899999999972,-0.0025319280102849007,0.01930304989218712,-0.006501367781311274,0.0,0.0,0.0,0.0,0.0010126384440809488,0.007697079796344042,-0.004363697022199631,0.9999760389328003,0.0,0.0,0.0,28.66744613647461,7.197239875793457,-0.7787643671035767,-5188.86474609375,0
177.9489999999987,-0.0025199400261044502,0.019378719851374626,-0.006589808966964483,0.0,0.0,0.0,0.0,2.1051895600976422e-05,-0.0003472907701507211,-0.00014904889394529164,0.9985644817352295,0.0,0.0,0.0,28.697341918945312,7.212339401245117,-0.7838791608810425,-5194.27587890625,0
187.85199999999895,-0.0025332635268568993,0.01932075060904026,-0.006516421679407358,0.0,0.0,0.0,0.0,0.0003896123089361936,-0.0011685838690027595,-0.0021648420952260494,1.0014369487762451,0.0,0.0,0.0,28.6687068939209,7.202555179595947,-0.7849181890487671,-5189.0927734375,0
197.73099999999977,-0.0025238574016839266,0.019373120740056038,-0.006585387978702784,0.0,0.0,0.0,0.0,-0.0006528934463858604,-0.004696294665336609,0.0005149184726178646,1.0009417533874512,0.0,0.0,0.0,28.697694778442383,7.201927661895752,-0.793262779712677,-5194.33984375,0
207.61499999999978,-0.0025353857781738043,0.019315529614686966,-0.006512385327368975,0.0,0.0,0.0,0.0,-2.7121077437186614e-05,-0.0008679503225721419,-0.004447512794286013,1.000845193862915,0.0,0.0,0.0,28.669492721557617,7.204840660095215,-0.7812317609786987,-5189.2353515625,0
217.49399999999878,-0.0024858044926077127,0.019375469535589218,-0.006597757805138826,0.0,0.0,0.0,0.0,-0.0009299665107391775,-0.0018235140014439821,0.0019345434848219156,0.9983028173446655,0.0,0.0,0.0,28.698524475097656,7.198981285095215,-0.7555985450744629,-5194.490234375,0
227.3829999999998,-0.00249177822843194,0.019320091232657433,-0.006524944677948952,0.0,0.0,0.0,0.0,-0.002721630735322833,-0.0027732225134968758,0.002073359675705433,1.0006855726242065,0.0,0.0,0.0,28.670198440551758,7.186675071716309,-0.7451092600822449,-5189.36279296875,0
237.27299999999923,-0.002456982620060444,0.01934715360403061,-0.006586066912859678,0.0,0.0,0.0,0.0,0.0016365748597308993,-0.0023797431495040655,-0.0021328211296349764,0.999445915222168,0.0,0.0,0.0,28.705596923828125,7.179196834564209,-0.7287630438804626,-5195.77001953125,0
247.16699999999946,-0.002458689734339714,0.019292503595352173,-0.006515624932944775,0.0,0.0,0.0,0.0,-0.0018393243663012981,-0.002169735496863723,0.003988762851804495,1.0012640953063965,0.0,0.0,0.0,28.676889419555664,7.172245025634766,-0.7158826589584351,-5190.57421875,0
257.04299999999967,-0.0024049400817602873,0.019398866221308708,-0.006660199258476496,0.0,0.0,0.0,0.0,-0.0014004798140376806,-0.0034566752146929502,0.0008596237748861313,0.9983854293823242,0.0,0.0,0.0,28.706310272216797,7.173618793487549,-0.7165701389312744,-5195.8994140625,0
266.9359999999997,-0.0024023554287850857,0.01934306137263775,-0.006591224577277899,0.0,0.0,0.0,0.0,-0.0017200973816215992,-0.0018884872552007437,-0.0006573839345946908,1.0014289617538452,0.0,0.0,0.0,28.678544998168945,7.1745123863220215,-0.7062339186668396,-5190.87353515625,0
276.8169999999991,-0.002364165149629116,0.019422711804509163,-0.006706614047288895,0.0,0.0,0.0,0.0,5.113847510074265e-05,-0.0019413760164752603,-0.0002448273007757962,1.003265380859375,0.0,0.0,0.0,28.70553207397461,7.176427364349365,-0.702324390411377,-5195.7587890625,0
286.7079999999987,-0.002359566744416952,0.019365154206752777,-0.006637703161686659,0.0,0.0,0.0,0.0,0.0027299521025270224,0.0011581769213080406,0.001317232963629067,0.9984709620475769,0.0,0.0,0.0,28.676340103149414,7.1726975440979,-0.7054809331893921,-5190.47412109375,0
296.5829999999987,-0.002355816075578332,0.01945411041378975,-0.006709702778607607,0.0,0.0,0.0,0.0,0.0005831792368553579,0.0014087767340242863,0.0052958158776164055,1.0017400979995728,0.0,0.0,0.0,28.697629928588867,7.189573287963867,-0.7111391425132751,-5194.328125,0
306.4889999999996,-0.0023518584202975035,0.019401906058192253,-0.006639285944402218,0.0,0.0,0.0,0.0,-0.002080469625070691,-0.0023215278051793575,0.0025439190212637186,1.0002144575119019,0.0,0.0,0.0,28.668975830078125,7.17716121673584,-0.7202719449996948,-5189.14111328125,0
316.3580000000002,-0.0023457854986190796,0.019350489601492882,-0.006567929871380329,0.0,0.0,0.0,0.0,0.000806352705694735,-0.0003268517612013966,-0.001037516864016652,1.0010138750076294,0.0,0.0,0.0,28.640193939208984,7.174509048461914,-0.7147098779678345,-5183.93212890625,0
326.2529999999988,-0.0023391966242343187,0.01929858885705471,-0.006495506968349218,0.0,0.0,0.0,0.0,0.00013971110456623137,-0.0027020976413041353,-2.7681693609338254e-05,1.0016796588897705,0.0,0.0,0.0,28.611648559570312,7.1645612716674805,-0.7106195092201233,-5178.76513671875,0
336.134,-0.0023324338253587484,0.01924537681043148,-0.00642172759398818,0.0,0.0,0.0,0.0,-0.0018597209127619863,-0.0014207481872290373,-0.001338219502940774,1.0007323026657104,0.0,0.0,0.0,28.582122802734375,7.15916109085083,-0.7081689238548279,-5173.4208984375,0
346.02599999999984,-0.00232482748106122,0.019191371276974678,-0.006346662528812885,0.0,0.0,0.0,0.0,0.001831474364735186,-0.0010358099825680256,0.0005418696673586965,1.00083327293396,0.0,0.0,0.0,28.55462646484375,7.150730609893799,-0.7111921906471252,-5168.44384765625,0
355.896999999999,-0.0023164551239460707,0.01913626119494438,-0.006270263344049454,0.0,0.0,0.0,0.0,-0.0032453613821417093,-0.004282840061932802,-0.00039385055424645543,1.0003994703292847,0.0,0.0,0.0,28.526914596557617,7.139744758605957,-0.7098175883293152,-5163.4287109375,0
365.8019999999997,-0.002307293936610222,0.019079826772212982,-0.00619256217032671,0.0,0.0,0.0,0.0,-0.0005830563604831696,0.004747624509036541,0.0013061272911727428,0.9995448589324951,0.0,0.0,0.0,28.498620986938477,7.139581680297852,-0.6967633366584778,-5158.30712890625,0
375.6790000000001,-0.0022975204046815634,0.019022243097424507,-0.0061140418983995914,0.0,0.0,0.0,0.0,0.0021698265336453915,0.002932104514911771,0.0009576359298080206,1.00114905834198,0.0,0.0,0.0,28.469619750976562,7.130895614624023,-0.7097197771072388,-5153.05810546875,0
385.5619999999999,-0.002287673531100154,0.018963593989610672,-0.006034994497895241,0.0,0.0,0.0,0.0,-0.0011709241662174463,0.0033635799773037434,-0.0016569808358326554,0.999518096446991,0.0,0.0,0.0,28.44199562072754,7.123238563537598,-0.7161291241645813,-5148.0576171875,0
395.4480000000003,-0.002277675084769726,0.018903587013483047,-0.005955159198492765,0.0,0.0,0.0,0.0,0.000926384178455919,3.593226210796274e-05,0.0021121534518897533,0.9986816644668579,0.0,0.0,0.0,28.41399574279785,7.118409633636475,-0.7233302593231201,-5142.9892578125,0
405.3349999999991,-0.00226614554412663,0.01884198561310768,-0.005875350907444954,0.0,0.0,0.0,0.0,0.0017166315810754895,0.0005787953268736601,-0.0018801696132868528,0.9996650815010071,0.0,0.0,0.0,28.386077880859375,7.1127166748046875,-0.7276234030723572,-5137.9365234375,0
415.22299999999996,-0.002252117730677128,0.018779966980218887,-0.005796479526907206,0.0,0.0,0.0,0.0,0.0020501890685409307,0.004626530222594738,-0.00023418119235429913,1.0009621381759644,0.0,0.0,0.0,28.3576602935791,7.104283332824707,-0.7321579456329346,-5132.79296875,0
425.11199999999917,-0.002236392814666033,0.018717844039201736,-0.005717674270272255,0.0,0.0,0.0,0.0,-0.0011083988938480616,-0.0038369239773601294,-6.3461295212619e-05,1.0017646551132202,0.0,0.0,0.0,28.328916549682617,7.097831726074219,-0.7376772165298462,-5127.59033203125,0
435.0,-0.0022203074768185616,0.01865515485405922,-0.005637722089886665,0.0,0.0,0.0,0.0,-0.00076054478995502,0.003535280004143715,-0.0030081761069595814,1.000286340713501,0.0,0.0,0.0,28.300140380859375,7.089484691619873,-0.7331361770629883,-5122.3818359375,0
444.8889999999992,-0.0022040200419723988,0.018591202795505524,-0.005556335672736168,0.0,0.0,0.0,0.0,-0.001957651460543275,0.0012391571654006839,-0.0031628988217562437,0.9996246099472046,0.0,0.0,0.0,28.271461486816406,7.080474853515625,-0.7383641600608826,-5117.19091796875,0
454.759,-0.0021862946450710297,0.01852562092244625,-0.005474429111927748,0.0,0.0,0.0,0.0,-0.0016686933813616633,-0.0010058027692139149,-0.0008938519167713821,0.9999847412109375,0.0,0.0,0.0,28.2434139251709,7.078577041625977,-0.7397018671035767,-5112.1142578125,0
464.65999999999985,-0.002165631391108036,0.018458852544426918,-0.005392818711698055,0.0,0.0,0.0,0.0,-0.0014711384428665042,-0.0010325798066332936,-0.0006246279226616025,1.0006563663482666,0.0,0.0,0.0,28.216350555419922,7.077117443084717,-0.7414546608924866,-5107.2158203125,0
474.52999999999884,-0.0021427341271191835,0.01839018426835537,-0.005310983397066593,0.0,0.0,0.0,0.0,0.001776128658093512,-0.0002361521328566596,0.0016238406533375382,1.0019233226776123,0.0,0.0,0.0,28.188087463378906,7.065857410430908,-0.7433038353919983,-5102.099609375,0
484.41699999999946,-0.00211936142295599,0.018318921327590942,-0.005227949470281601,0.0,0.0,0.0,0.0,-0.0030608850065618753,-0.0010372863616794348,-0.0010228675091639161,1.0015002489089966,0.0,0.0,0.0,28.16000747680664,7.056730270385742,-0.750066339969635,-5097.01708984375,0
494.3019999999997,-0.0020956748630851507,0.018246522173285484,-0.005142924375832081,0.0,0.0,0.0,0.0,0.0003920150629710406,0.003039119066670537,-0.0023117170203477144,0.9986767172813416,0.0,0.0,0.0,28.13178253173828,7.052031517028809,-0.741981565952301,-5091.908203125,0
504.1890000000003,-0.0020711817778646946,0.018174108117818832,-0.005056918598711491,0.0,0.0,0.0,0.0,-0.0006880945293232799,0.003464534878730774,-0.00237169093452394,0.9986844658851624,0.0,0.0,0.0,28.10274314880371,7.047280311584473,-0.747761070728302,-5086.65283203125,0
514.0759999999991,-0.0020455438643693924,0.01810109242796898,-0.004971605725586414,0.0,0.0,0.0,0.0,0.000904796936083585,-0.0003676764026749879,-0.0005244460189715028,1.0016698837280273,0.0,0.0,0.0,28.074331283569336,7.0388970375061035,-0.7667834758758545,-5081.509765625,0
523.9609999999993,-0.0020191040821373463,0.01802702061831951,-0.004886396694928408,0.0,0.0,0.0,0.0,0.002313931006938219,0.004547444637864828,0.0006627546972595155,1.002265453338623,0.0,0.0,0.0,28.046314239501953,7.030647277832031,-0.7714885473251343,-5076.4384765625,0
533.8500000000004,-0.002767685567960143,0.018690668046474457,-0.005410054698586464,0.0,0.0,0.0,0.0,-0.0007422595517709851,0.00423182500526309,0.002950577763840556,0.9989001750946045,0.0,0.0,0.0,28.133840560913086,7.1743483543396,-0.9042273163795471,-5092.28125,0
543.7349999999988,-0.002782906638458371,0.01863284781575203,-0.005327445454895496,0.0,0.0,0.0,0.0,-0.00035393136204220355,-0.002154887653887272,-0.0017831322038546205,0.9981087446212769,0.0,0.0,0.0,28.106245040893555,7.166130542755127,-0.9179595112800598,-5087.28662109375,0
553.6189999999988,-0.002623724052682519,0.019059326499700546,-0.0059748156927526,0.0,0.0,0.0,0.0,0.0011449453886598349,0.004622726235538721,0.00027012007194571197,0.9990501999855042,0.0,0.0,0.0,28.185916900634766,7.1654815673828125,-0.9183161854743958,-5101.70703125,0
563.5249999999996,-0.0026370526757091284,0.01900022104382515,-0.005901315249502659,0.0,0.0,0.0,0.0,-0.0016222642734646797,0.0010262863943353295,-0.001343491137959063,0.9998098611831665,0.0,0.0,0.0,28.1580810546875,7.156633377075195,-0.9191880226135254,-5096.66845703125,0
573.3899999999994,-0.0025215521454811096,0.019375773146748543,-0.006468721199780703,0.0,0.0,0.0,0.0,-0.0008072394412010908,-0.0017188868951052427,0.002985043916851282,0.9992299675941467,0.0,0.0,0.0,28.238327026367188,7.16503381729126,-0.932642936706543,-5111.19384765625,0
583.2960000000003,-0.002534646773710847,0.019315335899591446,-0.006403307430446148,0.0,0.0,0.0,0.0,0.00035566522274166346,-0.002953824121505022,9.509363007964566e-05,0.9990866780281067,0.0,0.0,0.0,28.210939407348633,7.16000509262085,-0.9295325875282288,-5106.236328125,0
593.1669999999995,-0.00239641685038805,0.019678669050335884,-0.0069232359528541565,0.0,0.0,0.0,0.0,-0.0028581679798662663,0.0003249293949920684,-0.002329316223040223,1.0004408359527588,0.0,0.0,0.0,28.286663055419922,7.163354873657227,-0.9175271987915039,-5119.9423828125,0
603.0519999999997,-0.0024073750246316195,0.019619282335042953,-0.006864443421363831,0.0,0.0,0.0,0.0,-0.00019757484551519156,-0.000519981374964118,-0.0011767427204176784,1.0001022815704346,0.0,0.0,0.0,28.257856369018555,7.155332088470459,-0.9118685126304626,-5114.728515625,0
612.9359999999997,-0.002303236862644553,0.019866324961185455,-0.007188713178038597,0.0,0.0,0.0,0.0,-0.00025877138250507414,-0.00470588868483901,-8.504639845341444e-05,0.9980710744857788,0.0,0.0,0.0,28.32764434814453,7.156810760498047,-0.8971602320671082,-5127.35986328125,0
622.8289999999997,-0.0023103661369532347,0.019808949902653694,-0.007133055943995714,0.0,0.0,0.0,0.0,-0.003342587035149336,-0.0035254473332315683,0.0032228282652795315,0.9996248483657837,0.0,0.0,0.0,28.299245834350586,7.1505656242370605,-0.8969829082489014,-5122.2197265625,0
632.7079999999987,-0.002238537883386016,0.019979292526841164,-0.007441948167979717,0.0,0.0,0.0,0.0,0.0033735514152795076,-0.0004600526299327612,-0.0009051896631717682,1.0003000497817993,0.0,0.0,0.0,28.365245819091797,7.149140357971191,-0.8856325149536133,-5134.16552734375,0
642.5919999999987,-0.0022433290723711252,0.019918221980333328,-0.007392211351543665,0.0,0.0,0.0,0.0,-0.0013905471423640847,-0.0002365744294365868,-0.001568303443491459,0.9985527992248535,0.0,0.0,0.0,28.336685180664062,7.1421427726745605,-0.877618134021759,-5128.99609375,0
652.491,-0.0021783874835819006,0.020096901804208755,-0.007683979347348213,0.0,0.0,0.0,0.0,-0.0022858313750475645,0.003754769219085574,-0.0034439607989042997,0.9993574023246765,0.0,0.0,0.0,28.40227508544922,7.142428398132324,-0.8886661529541016,-5140.8681640625,0
662.3719999999994,-0.0021843761205673218,0.020033951848745346,-0.007639068644493818,0.0,0.0,0.0,0.0,0.0012428831541910768,-0.0025794270914047956,0.0018394336802884936,1.0010098218917847,0.0,0.0,0.0,28.373964309692383,7.137269496917725,-0.8965007066726685,-5135.74365234375,0
672.25,-0.002056705066934228,0.020361458882689476,-0.008013025857508183,0.0,0.0,0.0,0.0,0.0016593699110671878,0.009951463900506496,0.002374854637309909,0.9993459582328796,0.0,0.0,0.0,28.43111228942871,7.1475114822387695,-0.8883357644081116,-5146.087890625,0
682.1489999999994,-0.0020627062767744064,0.020303139463067055,-0.007969094440340996,0.0,0.0,0.0,0.0,-0.0007747464114800096,-0.0007350267842411995,0.0023777391761541367,0.9999513626098633,0.0,0.0,0.0,28.404062271118164,7.1409687995910645,-0.8994925022125244,-5141.19140625,0
692.0259999999998,-0.001991306897252798,0.020501038059592247,-0.008261109702289104,0.0,0.0,0.0,0.0,-0.0010189946042373776,0.001705675502307713,0.0032986861187964678,1.0007710456848145,0.0,0.0,0.0,28.458484649658203,7.148682117462158,-0.9064734578132629,-5151.04248046875,0
701.9079999999994,-0.001996295526623726,0.020443063229322433,-0.008220141753554344,0.0,0.0,0.0,0.0,-0.0003624985401984304,-0.004960859660059214,0.0021437769755721092,0.9994845986366272,0.0,0.0,0.0,28.429513931274414,7.1357269287109375,-0.9018118381500244,-5145.79833984375,0
711.8159999999989,-0.0019004190107807517,0.020712673664093018,-0.008505098521709442,0.0,0.0,0.0,0.0,0.001439355779439211,-0.009440535679459572,0.0002803458191920072,0.9978656768798828,0.0,0.0,0.0,28.480472564697266,7.155137062072754,-0.8889913558959961,-5155.0224609375,0
721.6800000000003,-0.0019035255536437035,0.020656242966651917,-0.008464322425425053,0.0,0.0,0.0,0.0,0.0008828078280203044,-1.8114253180101514e-05,-0.0003691248712129891,0.9992607235908508,0.0,0.0,0.0,28.4525089263916,7.147943019866943,-0.8758245706558228,-5149.9609375,0
731.5769999999993,-0.0018224187660962343,0.020884942263364792,-0.008721060119569302,0.0,0.0,0.0,0.0,0.001115591498091817,0.0020321260672062635,0.0009729750454425812,1.0003958940505981,0.0,0.0,0.0,28.493444442749023,7.163956165313721,-0.869451642036438,-5157.3701171875,0
741.4529999999995,-0.0018262554658576846,0.02083144709467888,-0.008682923391461372,0.0,0.0,0.0,0.0,-0.0007397664012387395,0.006132773123681545,-0.002925795502960682,0.9996421337127686,0.0,0.0,0.0,28.465410232543945,7.152712345123291,-0.8707330226898193,-5152.2958984375,0
751.3500000000004,-0.0017812144942581654,0.021119626238942146,-0.008968607522547245,0.0,0.0,0.0,0.0,0.0046808235347270966,0.0029203726444393396,0.00047361504402942955,0.9997232556343079,0.0,0.0,0.0,28.50417709350586,7.1902360916137695,-0.8920302391052246,-5159.3125,0
761.2240000000002,-0.0017865896224975586,0.02107301913201809,-0.00893073994666338,0.0,0.0,0.0,0.0,-0.004899084568023682,-3.446947084739804e-05,0.0005379630019888282,0.9992256760597229,0.0,0.0,0.0,28.475826263427734,7.178841590881348,-0.9016416072845459,-5154.18115234375,0
771.1239999999998,-0.0017538975225761533,0.02131163701415062,-0.009170065633952618,0.0,0.0,0.0,0.0,0.002544393762946129,-0.00020414221216924489,0.004837378393858671,0.9996208548545837,0.0,0.0,0.0,28.518529891967773,7.209385395050049,-0.9129384160041809,-5161.9111328125,0
781.003999999999,-0.001761120860464871,0.021268192678689957,-0.009134373627603054,0.0,0.0,0.0,0.0,-0.0003557923773769289,-0.0018959009321406484,-0.0002637767174746841,0.9990667700767517,0.0,0.0,0.0,28.490617752075195,7.199489116668701,-0.9045050144195557,-5156.85888671875,0
790.8950000000004,-0.0016780237201601267,0.0214469525963068,-0.009340794757008553,0.0,0.0,0.0,0.0,-0.000324223015923053,-0.006042108405381441,0.0013879404868930578,1.0007888078689575,0.0,0.0,0.0,28.531208038330078,7.201794624328613,-0.8829508423805237,-5164.20556640625,0
800.768,-0.0016833762638270855,0.021405324339866638,-0.009306701831519604,0.0,0.0,0.0,0.0,0.0011081452248618007,-0.00022849554079584777,0.00183737778570503,0.9989287853240967,0.0,0.0,0.0,28.502944946289062,7.192688465118408,-0.8745211362838745,-5159.08984375,0
810.6669999999995,-0.0015846117166802287,0.021629469469189644,-0.009564131498336792,0.0,0.0,0.0,0.0,-0.0009498133440501988,-0.002897803205996752,0.000301074207527563,1.0013803243637085,0.0,0.0,0.0,28.540849685668945,7.19455099105835,-0.8616134524345398,-5165.95068359375,0
820.5419999999995,-0.0015866904286667705,0.02159031294286251,-0.009530738927423954,0.0,0.0,0.0,0.0,-0.001996810780838132,0.003437930252403021,-0.0003990017285104841,0.9996289014816284,0.0,0.0,0.0,28.511451721191406,7.187312126159668,-0.8542570471763611,-5160.6298828125,0
830.4369999999999,-0.0015186106320470572,0.021752534434199333,-0.009724391624331474,0.0,0.0,0.0,0.0,-0.0007465603412128985,-0.004992589354515076,0.0021923126187175512,0.999977707862854,0.0,0.0,0.0,28.551006317138672,7.1923112869262695,-0.8626377582550049,-5167.7890625,0
840.3209999999999,-0.00152249273378402,0.02171402797102928,-0.009690819308161736,0.0,0.0,0.0,0.0,-0.0008963733562268317,-0.004399494268000126,-0.00014188767818268389,1.0006802082061768,0.0,0.0,0.0,28.523265838623047,7.182598114013672,-0.8588630557060242,-5162.76806640625,0
850.2089999999989,-0.0015110336244106293,0.021750790998339653,-0.00979713723063469,0.0,0.0,0.0,0.0,-0.0008411726448684931,-0.004948956426233053,0.0020209290087223053,1.000237226486206,0.0,0.0,0.0,28.56448745727539,7.181755065917969,-0.8581836223602295,-5170.22900390625,0
860.1029999999992,-0.0015139825409278274,0.02171298861503601,-0.009765497408807278,0.0,0.0,0.0,0.0,0.0016831912798807025,-0.004380938597023487,-0.0005654558190144598,0.9997463822364807,0.0,0.0,0.0,28.537376403808594,7.18211555480957,-0.8492986559867859,-5165.32177734375,0
869.9789999999994,-0.0014455831842496991,0.021899526938796043,-0.009951886720955372,0.0,0.0,0.0,0.0,-0.0012217209441587329,0.005327343940734863,0.0016489591216668487,1.0007200241088867,0.0,0.0,0.0,28.574390411376953,7.1886162757873535,-0.8377193808555603,-5172.021484375,0
879.8590000000004,-0.001446541748009622,0.021865084767341614,-0.009920340031385422,0.0,0.0,0.0,0.0,0.0015800950350239873,0.0015976647846400738,-8.440146484645084e-05,1.0010875463485718,0.0,0.0,0.0,28.546369552612305,7.189002513885498,-0.8356430530548096,-5166.9501953125,0
889.7690000000002,-0.001406059949658811,0.022004127502441406,-0.010068339295685291,0.0,0.0,0.0,0.0,0.0014957356033846736,-0.0016966740367934108,0.0037747041787952185,0.9994519948959351,0.0,0.0,0.0,28.575841903686523,7.19641637802124,-0.8359686732292175,-5172.2841796875,0
899.643,-0.0013643204001709819,0.02212441898882389,-0.010185330174863338,0.0,0.0,0.0,0.0,-0.0011156246764585376,-0.006277194246649742,-0.002604707842692733,0.9991265535354614,0.0,0.0,0.0,28.611982345581055,7.20222806930542,-0.8232083916664124,-5178.82568359375,0
909.5299999999988,-0.001364447409287095,0.022091608494520187,-0.01015389058738947,0.0,0.0,0.0,0.0,-0.00025628850562497973,0.0005685365758836269,0.004163497593253851,1.0002645254135132,0.0,0.0,0.0,28.583354949951172,7.195925235748291,-0.8066407442092896,-5173.64404296875,0
919.4259999999995,-0.0013036252930760384,0.022265296429395676,-0.010348984971642494,0.0,0.0,0.0,0.0,-0.0027054401580244303,-0.0036999951116740704,-0.0009983731433749199,1.0007520914077759,0.0,0.0,0.0,28.620513916015625,7.203959941864014,-0.7998524904251099,-5180.36962890625,0
929.2950000000001,-0.0013027209788560867,0.022232618182897568,-0.010318244807422161,0.0,0.0,0.0,0.0,-0.003065853612497449,-0.001854477683082223,-0.0013365326449275017,0.9998293519020081,0.0,0.0,0.0,28.5926456451416,7.194866180419922,-0.7929620742797852,-5175.32568359375,0
939.1829999999991,-0.0012787125306203961,0.02235538326203823,-0.010465286672115326,0.0,0.0,0.0,0.0,-0.0019925953820347786,-0.0015560038154944777,0.0032547686714679003,0.999384880065918,0.0,0.0,0.0,28.629880905151367,7.209405899047852,-0.7950793504714966,-5182.06494140625,0
949.0769999999993,-0.0012774402275681496,0.022324441000819206,-0.010435692965984344,0.0,0.0,0.0,0.0,-0.0005933053907938302,0.002192447893321514,-0.0009935498237609863,1.0011359453201294,0.0,0.0,0.0,28.601306915283203,7.210614204406738,-0.7982630133628845,-5176.89306640625,0
958.9509999999991,-0.0012809564359486103,0.022308921441435814,-0.010470007546246052,0.0,0.0,0.0,0.0,0.0013547998387366533,0.006150990724563599,0.0016082003712654114,0.9996088743209839,0.0,0.0,0.0,28.638200759887695,7.206521987915039,-0.7992181181907654,-5183.57080078125,0
968.8449999999993,-0.0012776805087924004,0.022275548428297043,-0.01044178381562233,0.0,0.0,0.0,0.0,0.0010032535064965487,0.007706609554588795,7.065484533086419e-05,1.0006784200668335,0.0,0.0,0.0,28.61061668395996,7.203110694885254,-0.8089964985847473,-5178.578125,0
978.726999999999,-0.0012746750144287944,0.022309431806206703,-0.010504700243473053,0.0,0.0,0.0,0.0,0.002231534104794264,0.0021298739593476057,0.0032627061009407043,0.9992164969444275,0.0,0.0,0.0,28.6438045501709,7.194899559020996,-0.8189800977706909,-5184.58544921875,0
988.6180000000004,-0.001272400375455618,0.022273996844887733,-0.010477165691554546,0.0,0.0,0.0,0.0,0.0006913209799677134,-0.0015890378272160888,0.0015532460529357195,0.9995446801185608,0.0,0.0,0.0,28.615251541137695,7.190153121948242,-0.8307470083236694,-5179.4169921875,0
998.4959999999992,-0.0012752118054777384,0.022284245118498802,-0.010524500161409378,0.0,0.0,0.0,0.0,0.00025180703960359097,-0.003350768703967333,0.0014768424443900585,0.9989861249923706,0.0,0.0,0.0,28.65264129638672,7.189361572265625,-0.8291519284248352,-5186.18505859375,0
1008.3919999999998,-0.0012764938874170184,0.022246230393648148,-0.010498995892703533,0.0,0.0,0.0,0.0,0.0011978497495874763,0.0029747909866273403,-0.0011594033567234874,0.9997615218162537,0.0,0.0,0.0,28.62500762939453,7.181662559509277,-0.8226637244224548,-5181.18310546875,0
1018.268,-0.0012463503517210484,0.022360190749168396,-0.010588067583739758,0.0,0.0,0.0,0.0,-7.609404565300792e-05,0.0023707072250545025,-0.0003598699695430696,1.001039981842041,0.0,0.0,0.0,28.657901763916016,7.192453861236572,-0.818871259689331,-5187.13671875,0
1028.1669999999995,-0.0012494957773014903,0.022324027493596077,-0.010561782866716385,0.0,0.0,0.0,0.0,-0.00024454237427562475,-0.006999639794230461,0.0029547419399023056,0.9986310005187988,0.0,0.0,0.0,28.629077911376953,7.181290149688721,-0.8332419395446777,-5181.919921875,0
1038.0409999999993,-0.0012051467783749104,0.02246962860226631,-0.010700344108045101,0.0,0.0,0.0,0.0,6.818513065809384e-05,0.003737916238605976,-0.004153971094638109,0.9980225563049316,0.0,0.0,0.0,28.660049438476562,7.191867351531982,-0.8254678845405579,-5187.52587890625,0
1047.938,-0.001207526307553053,0.022435862571001053,-0.010674649849534035,0.0,0.0,0.0,0.0,0.002080342033877969,-0.0008282408816739917,-0.0013974603498354554,1.001949429512024,0.0,0.0,0.0,28.631900787353516,7.180431842803955,-0.8205589652061462,-5182.43115234375,0
1057.813,-0.0012073307298123837,0.022518878802657127,-0.010756720788776875,0.0,0.0,0.0,0.0,-0.0006787091260775924,-0.0005982851143926382,-0.002762623131275177,1.0006103515625,0.0,0.0,0.0,28.668235778808594,7.195437908172607,-0.817785382270813,-5189.00732421875,0
1067.7079999999987,-0.001212496543303132,0.022483816370368004,-0.010730640962719917,0.0,0.0,0.0,0.0,0.0025895237922668457,-0.0010974917095154524,-0.0009425138123333454,1.0003864765167236,0.0,0.0,0.0,28.63921356201172,7.186808109283447,-0.8230302929878235,-5183.7548828125,0
1077.5849999999991,-0.0012377393431961536,0.022448092699050903,-0.010721002705395222,0.0,0.0,0.0,0.0,0.0004168165905866772,0.00018207186076324433,-0.001980506582185626,1.0005420446395874,0.0,0.0,0.0,28.67376708984375,7.18562126159668,-0.8244653940200806,-5190.00830078125,0
1087.4879999999994,-0.0012443532468751073,0.02241227962076664,-0.010694092139601707,0.0,0.0,0.0,0.0,0.001568042323924601,-0.0036509286146610975,0.0050260694697499275,1.0019912719726562,0.0,0.0,0.0,28.6452693939209,7.173524379730225,-0.8305798768997192,-5184.8505859375,0
1097.351999999999,-0.0011958819814026356,0.022543415427207947,-0.010819542221724987,0.0,0.0,0.0,0.0,0.0009432067745365202,0.00038987540756352246,0.0029486813582479954,1.000786304473877,0.0,0.0,0.0,28.67567253112793,7.174483299255371,-0.8181071281433105,-5190.35400390625,0
1107.2559999999994,-0.0011994661763310432,0.022509731352329254,-0.010790024884045124,0.0,0.0,0.0,0.0,0.001049654558300972,-0.0010822862386703491,-0.001956620719283819,1.0001442432403564,0.0,0.0,0.0,28.64766502380371,7.16991662979126,-0.8216882348060608,-5185.28466796875,0
1117.1350000000002,-0.0011924789287149906,0.02255619689822197,-0.01079702377319336,0.0,0.0,0.0,0.0,0.00018560107855591923,0.006868370342999697,-0.0019163101678714156,1.0006914138793945,0.0,0.0,0.0,28.680747985839844,7.175454616546631,-0.8163488507270813,-5191.27197265625,0
1127.030999999999,-0.0011979874689131975,0.022525526583194733,-0.010764896869659424,0.0,0.0,0.0,0.0,-9.595659503247589e-05,-0.0004909105482511222,-0.0008998207631520927,1.001013159751892,0.0,0.0,0.0,28.65268898010254,7.163693428039551,-0.8308371901512146,-5186.193359375,0
1136.9009999999998,-0.0012122527696192265,0.022514313459396362,-0.010768776759505272,0.0,0.0,0.0,0.0,0.00024367481819353998,0.00245072809047997,0.0022046056110411882,0.9986057877540588,0.0,0.0,0.0,28.68614387512207,7.16038703918457,-0.8355873227119446,-5192.24853515625,0
1146.7970000000005,-0.0012179139303043485,0.022480234503746033,-0.010736537165939808,0.0,0.0,0.0,0.0,0.0007038917974568903,-0.0018413853831589222,-0.0008138253469951451,0.9987400770187378,0.0,0.0,0.0,28.657764434814453,7.147353649139404,-0.8309296369552612,-5187.1123046875,0
1156.673999999999,-0.001203901250846684,0.022541753947734833,-0.010770649649202824,0.0,0.0,0.0,0.0,0.0008132081711664796,0.0006488237995654345,-0.000828459276817739,0.9985608458518982,0.0,0.0,0.0,28.688404083251953,7.148516654968262,-0.8242785334587097,-5192.658203125,0
1166.5739999999987,-0.001208044239319861,0.022509420290589333,-0.010739660821855068,0.0,0.0,0.0,0.0,0.0015587930101901293,0.002843405120074749,0.0017325661610811949,0.9996918439865112,0.0,0.0,0.0,28.66012191772461,7.140906810760498,-0.8221666812896729,-5187.5390625,0
1176.4529999999995,-0.00117362046148628,0.02261442132294178,-0.010831437073647976,0.0,0.0,0.0,0.0,-0.0008301080670207739,0.004429887048900127,0.0011019903467968106,0.9990996718406677,0.0,0.0,0.0,28.689470291137695,7.141025066375732,-0.8242546319961548,-5192.85107421875,0
1186.342999999999,-0.0011774682207033038,0.02258429117500782,-0.01080159842967987,0.0,0.0,0.0,0.0,-0.003689540782943368,-0.0006967925583012402,-0.0015793892089277506,1.000439167022705,0.0,0.0,0.0,28.662166595458984,7.137559413909912,-0.8338760137557983,-5187.9091796875,0
1196.217999999999,-0.001202637329697609,0.02254563197493553,-0.010798598639667034,0.0,0.0,0.0,0.0,-0.0002843450056388974,2.6725676434580237e-05,0.0013627647422254086,1.001390814781189,0.0,0.0,0.0,28.694015502929688,7.140276908874512,-0.8329375982284546,-5193.673828125,0
1206.1170000000002,-0.0012054545804858208,0.02251478098332882,-0.01077020913362503,0.0,0.0,0.0,0.0,-0.0006474824622273445,-0.004419280681759119,-0.00119678711052984,0.9992347359657288,0.0,0.0,0.0,28.66594696044922,7.133054256439209,-0.8452204465866089,-5188.59326171875,0
1215.9979999999996,-0.0012043947353959084,0.022509483620524406,-0.010800826363265514,0.0,0.0,0.0,0.0,-0.0002619345032144338,0.003648018231615424,0.00207700626924634,0.9999353289604187,0.0,0.0,0.0,28.693138122558594,7.126046180725098,-0.8376250863075256,-5193.51513671875,0
1225.8940000000002,-0.0012033084640279412,0.022477416321635246,-0.010772733017802238,0.0,0.0,0.0,0.0,0.0008440519450232387,-0.0017231317469850183,0.0016416262369602919,0.9985450506210327,0.0,0.0,0.0,28.665653228759766,7.122142314910889,-0.8324819207191467,-5188.54052734375,0
1235.7610000000004,-0.0011683970224112272,0.022576790302991867,-0.010841579176485538,0.0,0.0,0.0,0.0,0.0006993132992647588,-0.004511409904807806,0.00033670460106804967,0.998409628868103,0.0,0.0,0.0,28.695337295532227,7.136358737945557,-0.8224101066589355,-5193.9130859375,0
1245.6630000000005,-0.0011641777819022536,0.02254685014486313,-0.010813675820827484,0.0,0.0,0.0,0.0,0.000229979123105295,0.0023616738617420197,0.0018882097210735083,1.00095534324646,0.0,0.0,0.0,28.66737174987793,7.130424976348877,-0.817018985748291,-5188.8515625,0
1255.5389999999989,-0.001178911654278636,0.022586902603507042,-0.010836641304194927,0.0,0.0,0.0,0.0,0.0021715532056987286,-0.0027338264044374228,-0.0010082183871418238,1.001477837562561,0.0,0.0,0.0,28.7014102935791,7.149994373321533,-0.8217981457710266,-5195.0126953125,0
1265.4310000000005,-0.0011763167567551136,0.022559789940714836,-0.010809056460857391,0.0,0.0,0.0,0.0,-0.0022190778981894255,-0.0011976982932537794,-0.002034632256254554,1.0016474723815918,0.0,0.0,0.0,28.672927856445312,7.143139362335205,-0.8239861130714417,-5189.8564453125,0
1275.3060000000005,-0.0011595432879403234,0.022624626755714417,-0.010862702503800392,0.0,0.0,0.0,0.0,0.0005699264002032578,0.0026253543328493834,0.00027576633146964014,1.0011475086212158,0.0,0.0,0.0,28.70240592956543,7.151287078857422,-0.8216635584831238,-5195.19287109375,0
1285.2060000000001,-0.0011554750381037593,0.02259836159646511,-0.01083174254745245,0.0,0.0,0.0,0.0,0.0014178890269249678,-0.0068493676371872425,-0.0015513106482103467,0.9993189573287964,0.0,0.0,0.0,28.674163818359375,7.144002437591553,-0.8247063755989075,-5190.08056640625,0
1295.0829999999987,-0.0011539991246536374,0.022635025903582573,-0.010828073136508465,0.0,0.0,0.0,0.0,0.00403048237785697,0.004090277012437582,-0.000993147725239396,0.9999168515205383,0.0,0.0,0.0,28.697980880737305,7.151669025421143,-0.8089708089828491,-5194.39208984375,0
1304.976999999999,-0.0011502607958391309,0.02261166088283062,-0.010795647278428078,0.0,0.0,0.0,0.0,0.002294574398547411,0.0025322414003312588,-0.0024262049701064825,0.999136209487915,0.0,0.0,0.0,28.669450759887695,7.144503593444824,-0.8207186460494995,-5189.22705078125,0
1314.8500000000004,-0.0011662788456305861,0.022638065740466118,-0.010831252671778202,0.0,0.0,0.0,0.0,0.0008205647463910282,-0.005589706357568502,0.002502245595678687,0.9995714426040649,0.0,0.0,0.0,28.700498580932617,7.1428351402282715,-0.8245357275009155,-5194.84765625,0
1324.7439999999988,-0.001165135414339602,0.02261193096637726,-0.010800797492265701,0.0,0.0,0.0,0.0,0.002305553061887622,-0.0025042949710041285,0.0009177769534289837,1.0003705024719238,0.0,0.0,0.0,28.672452926635742,7.1306986808776855,-0.8264545202255249,-5189.7705078125,0
1334.6270000000004,-0.0012008210178464651,0.022590355947613716,-0.010774543508887291,0.0,0.0,0.0,0.0,-0.0026485249400138855,0.0005093537038192153,0.004280157387256622,0.9985871911048889,0.0,0.0,0.0,28.704967498779297,7.1402268409729,-0.830769419670105,-5195.65673828125,0
1344.5209999999988,-0.0012020078720524907,0.02256026491522789,-0.010744797065854073,0.0,0.0,0.0,0.0,-0.0006595615413971245,0.0019748350605368614,0.0007447166717611253,0.9991194009780884,0.0,0.0,0.0,28.6763973236084,7.134174823760986,-0.8387938737869263,-5190.48486328125,0
1354.3950000000004,-0.0011885249987244606,0.022586636245250702,-0.01076019462198019,0.0,0.0,0.0,0.0,0.001442202483303845,-0.0007474585436284542,0.0007731285877525806,0.9997559189796448,0.0,0.0,0.0,28.705852508544922,7.132023811340332,-0.8311136960983276,-5195.81640625,0
1364.3050000000003,-0.001187485409900546,0.02255694568157196,-0.010731497779488564,0.0,0.0,0.0,0.0,0.0021948672365397215,0.0036870031617581844,-0.00036290360731072724,0.9966666102409363,0.0,0.0,0.0,28.67799949645996,7.1188063621521,-0.8241121172904968,-5190.7744140625,0
1374.1659999999993,-0.0012275271583348513,0.0225214920938015,-0.01071511022746563,0.0,0.0,0.0,0.0,0.0015430634375661612,0.0010052118450403214,0.0012218026677146554,1.0002633333206177,0.0,0.0,0.0,28.706218719482422,7.121701240539551,-0.8490995168685913,-5195.8828125,0
1384.0649999999987,-0.0012260841904208064,0.022487226873636246,-0.010690174996852875,0.0,0.0,0.0,0.0,-0.0031877406872808933,0.00045991549268364906,-0.0003029120562132448,0.9984793066978455,0.0,0.0,0.0,28.678197860717773,7.108068466186523,-0.8550184965133667,-5190.81103515625,0
1393.938,-0.0012036659754812717,0.022580143064260483,-0.010798433795571327,0.0,0.0,0.0,0.0,-0.0011004492407664657,0.0008609835640527308,-0.0017041894607245922,0.998257577419281,0.0,0.0,0.0,28.71282958984375,7.114951133728027,-0.8599948883056641,-5197.0791015625,0
1403.8379999999997,-0.0011995300883427262,0.022545963525772095,-0.010775892063975334,0.0,0.0,0.0,0.0,0.00014807186380494386,-0.003181309439241886,-0.0028486603405326605,0.9976418614387512,0.0,0.0,0.0,28.684471130371094,7.10575532913208,-0.8643876314163208,-5191.9462890625,0
1413.708999999999,-0.0011854965705424547,0.02257405035197735,-0.010797789320349693,0.0,0.0,0.0,0.0,0.003658801317214966,0.001423556823283434,0.0002082589635392651,0.9997397065162659,0.0,0.0,0.0,28.714092254638672,7.114049911499023,-0.8459198474884033,-5197.30810546875,0
1423.6039999999994,-0.0011811151634901762,0.02253814972937107,-0.010777185671031475,0.0,0.0,0.0,0.0,-0.0032372488640248775,-0.0005622030585072935,0.0004218237882014364,0.9992491006851196,0.0,0.0,0.0,28.686403274536133,7.103520393371582,-0.8543771505355835,-5192.2958984375,0
1433.4889999999996,-0.0011838298523798585,0.022548843175172806,-0.01082719024270773,0.0,0.0,0.0,0.0,0.002191372914239764,-0.0008761358913034201,-0.0008877211948856711,1.0005896091461182,0.0,0.0,0.0,28.722013473510742,7.1032819747924805,-0.8596551418304443,-5198.74169921875,0
1443.378999999999,-0.0011825839756056666,0.022511562332510948,-0.010808983817696571,0.0,0.0,0.0,0.0,-0.0006087608053348958,0.002709626220166683,0.002707339823246002,1.0005779266357422,0.0,0.0,0.0,28.693479537963867,7.094126224517822,-0.8524971604347229,-5193.5771484375,0
1453.2529999999988,-0.0011387692065909505,0.022587398067116737,-0.01089309249073267,0.0,0.0,0.0,0.0,0.0014247649814933538,-0.00011563287262106314,0.0005577361444011331,1.0009186267852783,0.0,0.0,0.0,28.729625701904297,7.096095561981201,-0.8576306700706482,-5200.11962890625,0
1463.1499999999996,-0.0011370413703843951,0.022550715133547783,-0.010872961021959782,0.0,0.0,0.0,0.0,0.0004640770494006574,-0.00034097014577127993,-8.842468378134072e-05,0.9989346265792847,0.0,0.0,0.0,28.701040267944336,7.085857391357422,-0.8550495505332947,-5194.9453125,0
1473.0349999999999,-0.0011337175965309143,0.022548364475369453,-0.010861138813197613,0.0,0.0,0.0,0.0,0.00110855873208493,0.001430091098882258,0.003451914992183447,0.9985825419425964,0.0,0.0,0.0,28.736427307128906,7.087490558624268,-0.8454111814498901,-5201.3505859375,0
1482.9229999999989,-0.0011311591370031238,0.022510560229420662,-0.01084019336849451,0.0,0.0,0.0,0.0,-0.0038204484153538942,-0.0029210520442575216,0.002375657670199871,1.0003879070281982,0.0,0.0,0.0,28.70901870727539,7.085056304931641,-0.844367504119873,-5196.3896484375,0
1492.8089999999993,-0.0011547694448381662,0.02249841019511223,-0.010861508548259735,0.0,0.0,0.0,0.0,0.0026363818906247616,0.0050367084331810474,-0.00012002213043160737,1.000949501991272,0.0,0.0,0.0,28.74359703063965,7.0935444831848145,-0.8468338251113892,-5202.6484375,0
1502.6949999999997,-0.0011547692120075226,0.022460611537098885,-0.010841932147741318,0.0,0.0,0.0,0.0,-0.0014495108043774962,0.000892601499799639,-0.005087845493108034,1.0007410049438477,0.0,0.0,0.0,28.715473175048828,7.0836381912231445,-0.8495104312896729,-5197.55810546875,0
1512.58,-0.0011460380628705025,0.022535238415002823,-0.010887591168284416,0.0,0.0,0.0,0.0,-0.00013151000894140452,-0.0014790758723393083,0.00016433277050964534,1.0016257762908936,0.0,0.0,0.0,28.745826721191406,7.097904682159424,-0.8479318618774414,-5203.05224609375,0
1522.4599999999991,-0.0011477787047624588,0.022499170154333115,-0.01086454838514328,0.0,0.0,0.0,0.0,0.0008342505316250026,0.004480551928281784,0.0014015412889420986,1.0027368068695068,0.0,0.0,0.0,28.717927932739258,7.0871663093566895,-0.8535313606262207,-5198.001953125,0
1532.3469999999998,-0.001134641352109611,0.02259244956076145,-0.010911118239164352,0.0,0.0,0.0,0.0,0.0003127173113171011,0.002018153667449951,0.0009702158276923001,0.9984742403030396,0.0,0.0,0.0,28.744333267211914,7.100693702697754,-0.8559316992759705,-5202.78125,0
1542.2369999999992,-0.0011360498610883951,0.022557366639375687,-0.010882380418479443,0.0,0.0,0.0,0.0,-0.0021761376410722733,-0.0037302731070667505,-0.0005787408445030451,0.9997063279151917,0.0,0.0,0.0,28.716812133789062,7.092214107513428,-0.8550639748573303,-5197.80029296875,0
1552.1180000000004,-0.0011279820464551449,0.02263152413070202,-0.01091630756855011,0.0,0.0,0.0,0.0,0.0009773877682164311,-0.0018304612021893263,0.0013678856194019318,1.0014129877090454,0.0,0.0,0.0,28.744739532470703,7.112130641937256,-0.8372151851654053,-5202.85498046875,0
1562.012999999999,-0.0011302960338070989,0.022595737129449844,-0.010885998606681824,0.0,0.0,0.0,0.0,0.0013539321953430772,0.003804323961958289,-1.7509565850559738e-06,0.9973740577697754,0.0,0.0,0.0,28.716341018676758,7.100710868835449,-0.8338383436203003,-5197.71484375,0
1571.8919999999998,-0.0011284437496215105,0.022727685049176216,-0.010936878621578217,0.0,0.0,0.0,0.0,-0.0031439159065485,-0.0019837121944874525,-0.00015424819139298052,1.0001732110977173,0.0,0.0,0.0,28.744522094726562,7.126805305480957,-0.8386101126670837,-5202.81591796875,0
1581.7780000000002,-0.0011313986033201218,0.022694595158100128,-0.010904478840529919,0.0,0.0,0.0,0.0,-0.001791055197827518,-0.0006826380849815905,0.001188168185763061,1.0024672746658325,0.0,0.0,0.0,28.716381072998047,7.129148006439209,-0.8298829197883606,-5197.72216796875,0
1591.6620000000003,-0.0011874797055497766,0.02269855886697769,-0.010858272202312946,0.0,0.0,0.0,0.0,-0.003106815507635474,-0.0035404504742473364,0.0011373524321243167,0.999818742275238,0.0,0.0,0.0,28.751420974731445,7.152513027191162,-0.8347879648208618,-5204.064453125,0
1601.548999999999,-0.0011940745171159506,0.02266673929989338,-0.010821923613548279,0.0,0.0,0.0,0.0,0.0019839557353407145,0.008333234116435051,0.001782884355634451,0.9968498945236206,0.0,0.0,0.0,28.723337173461914,7.153719425201416,-0.8323737382888794,-5198.98095703125,0
1611.4390000000003,-0.001224562176503241,0.02271083928644657,-0.010834668762981892,0.0,0.0,0.0,0.0,-0.002418126678094268,-0.0005319074261933565,-0.0013507888652384281,0.999238133430481,0.0,0.0,0.0,28.759220123291016,7.168503284454346,-0.8594520688056946,-5205.47607421875,0
1621.3230000000003,-0.0012321824906393886,0.022682147100567818,-0.010800843127071857,0.0,0.0,0.0,0.0,-0.00208770832978189,0.003629472339525819,-0.0007312502712011337,0.9991092681884766,0.0,0.0,0.0,28.730541229248047,7.163119316101074,-0.8695911765098572,-5200.28515625,0
1631.2060000000001,-0.0012477004202082753,0.02268529310822487,-0.010735475458204746,0.0,0.0,0.0,0.0,-0.001978666987270117,0.0028756889514625072,0.0024741191882640123,1.0012495517730713,0.0,0.0,0.0,28.758739471435547,7.168582439422607,-0.8770438432693481,-5205.38916015625,0
1641.0949999999993,-0.001253811758942902,0.02266009896993637,-0.010700207203626633,0.0,0.0,0.0,0.0,0.00026584541774354875,0.0032356621231883764,-0.0010947913397103548,0.9997826814651489,0.0,0.0,0.0,28.73042106628418,7.162457466125488,-0.87446528673172,-5200.26318359375,0
1650.976999999999,-0.0012792720226570964,0.022541701793670654,-0.010648880153894424,0.0,0.0,0.0,0.0,0.0012733963085338473,0.0031643749680370092,0.0002566133625805378,0.9996781349182129,0.0,0.0,0.0,28.764896392822266,7.143553256988525,-0.8723940849304199,-5206.50341796875,0
1660.8649999999998,-0.001285203150473535,0.02251001074910164,-0.010616489686071873,0.0,0.0,0.0,0.0,0.0003428846539463848,-0.0024431003257632256,-0.0003162205102853477,1.0017750263214111,0.0,0.0,0.0,28.73600196838379,7.134808540344238,-0.8862354755401611,-5201.2734375,0
1670.7510000000002,-0.001276356284506619,0.02249043807387352,-0.010594376362860203,0.0,0.0,0.0,0.0,-0.0010572319151833653,-0.005196044687181711,0.0030671684071421623,1.0026330947875977,0.0,0.0,0.0,28.766115188598633,7.127950191497803,-0.8763930201530457,-5206.72412109375,0
1680.6399999999994,-0.0012799424584954977,0.02245711348950863,-0.010558979585766792,0.0,0.0,0.0,0.0,-0.002140167634934187,0.002741941250860691,0.0009118313319049776,1.0011661052703857,0.0,0.0,0.0,28.73856544494629,7.122146129608154,-0.8777007460594177,-5201.7373046875,0
1690.5259999999998,-0.0012803591089323163,0.02239055000245571,-0.010509179905056953,0.0,0.0,0.0,0.0,0.0026988156605511904,0.004911969415843487,1.1673835615511052e-05,0.9975893497467041,0.0,0.0,0.0,28.77179527282715,7.109664440155029,-0.8635473847389221,-5207.751953125,0
1700.411,-0.0012806125450879335,0.022355511784553528,-0.010471783578395844,0.0,0.0,0.0,0.0,-0.0010848880046978593,-0.005315692164003849,0.0024841756094247103,0.9979568123817444,0.0,0.0,0.0,28.744497299194336,7.1031670570373535,-0.867239773273468,-5202.81103515625,0
1710.2960000000003,-0.00126749521587044,0.022334588691592216,-0.010477234609425068,0.0,0.0,0.0,0.0,0.0015550378011539578,-0.0028903139755129814,0.0022632661275565624,1.003016710281372,0.0,0.0,0.0,28.777191162109375,7.089463233947754,-0.8687241077423096,-5208.72900390625,0
1720.1779999999999,-0.001265268074348569,0.022297333925962448,-0.010443014092743397,0.0,0.0,0.0,0.0,0.0010284563759341836,0.004194155335426331,-0.0004542904789559543,1.001774787902832,0.0,0.0,0.0,28.749740600585938,7.085989475250244,-0.8627037405967712,-5203.76025390625,0
1730.0689999999995,-0.0012032147496938705,0.02230682782828808,-0.01047919038683176,0.0,0.0,0.0,0.0,6.458270945586264e-05,0.003111316356807947,0.0030811857432127,0.9985628724098206,0.0,0.0,0.0,28.780536651611328,7.065466403961182,-0.85030198097229,-5209.33447265625,0
1739.950999999999,-0.0011943747522309422,0.022267678752541542,-0.01044189278036356,0.0,0.0,0.0,0.0,-0.0014542689314112067,-0.004141837824136019,0.00013048682012595236,0.998199999332428,0.0,0.0,0.0,28.753461837768555,7.051035404205322,-0.8634454011917114,-5204.43408203125,0
1749.839,-0.0012008527992293239,0.02225864864885807,-0.010439060628414154,0.0,0.0,0.0,0.0,0.0007212136406451464,0.0023198937997221947,0.001816330710425973,0.9988479614257812,0.0,0.0,0.0,28.788665771484375,7.058836936950684,-0.8683269619941711,-5210.8056640625,0
1759.7330000000002,-0.0011910423636436462,0.022215766832232475,-0.010404393076896667,0.0,0.0,0.0,0.0,-0.0006319473613984883,-0.0016149262664839625,0.00013618345838040113,1.0001929998397827,0.0,0.0,0.0,28.76044273376465,7.04815149307251,-0.8753455877304077,-5205.697265625,0
1769.6099999999988,-0.0012142508057877421,0.02224378101527691,-0.010414169169962406,0.0,0.0,0.0,0.0,0.0009050662047229707,0.004789558704942465,-0.0030879515688866377,1.000982642173767,0.0,0.0,0.0,28.78969955444336,7.068228721618652,-0.8843364119529724,-5210.99267578125,0
1779.4989999999998,-0.0012065578484907746,0.02219950594007969,-0.010378987528383732,0.0,0.0,0.0,0.0,-0.00509618828073144,-0.004309834912419319,8.280442125396803e-05,0.9998129606246948,0.0,0.0,0.0,28.760732650756836,7.058328628540039,-0.890073299407959,-5205.75,0
1789.3799999999992,-0.001257044030353427,0.02224481664597988,-0.010329590179026127,0.0,0.0,0.0,0.0,0.0006793112261220813,-0.002335425466299057,-0.0007746022311039269,1.0015846490859985,0.0,0.0,0.0,28.783802032470703,7.099613189697266,-0.912253737449646,-5209.92529296875,0
1799.2729999999992,-0.0012519212905317545,0.022204264998435974,-0.01029067113995552,0.0,0.0,0.0,0.0,0.0012672834564000368,-0.003492040326818824,-0.0011956491507589817,1.0000278949737549,0.0,0.0,0.0,28.755565643310547,7.092504501342773,-0.9026532769203186,-5204.814453125,0
1809.1579999999994,-0.0012665328104048967,0.022244730964303017,-0.01030537486076355,0.0,0.0,0.0,0.0,-0.0021773299667984247,0.0037063886411488056,-0.0035487229470163584,1.0010390281677246,0.0,0.0,0.0,28.777416229248047,7.109169960021973,-0.9106889963150024,-5208.76953125,0
1819.048999999999,-0.0012641346547752619,0.02220439910888672,-0.010264383628964424,0.0,0.0,0.0,0.0,-0.0013166316784918308,0.0013318532146513462,-0.0004969412693753839,0.9990639686584473,0.0,0.0,0.0,28.749204635620117,7.100778579711914,-0.9213169813156128,-5203.6630859375,0
1828.929,-0.0012968939263373613,0.02226806990802288,-0.010256153531372547,0.0,0.0,0.0,0.0,0.002615091623738408,-0.0013870808761566877,0.0003619867202360183,0.9981918931007385,0.0,0.0,0.0,28.776920318603516,7.132475852966309,-0.9403389096260071,-5208.68017578125,0
1838.8140000000003,-0.0012993478449061513,0.02222970314323902,-0.010213920846581459,0.0,0.0,0.0,0.0,-0.0014315118314698339,-0.0030203061178326607,0.0038322650361806154,0.9991720914840698,0.0,0.0,0.0,28.748504638671875,7.1210618019104,-0.9455083012580872,-5203.537109375,0
1848.7070000000003,-0.0013186754658818245,0.02227950282394886,-0.010214153677225113,0.0,0.0,0.0,0.0,-0.002187933074310422,0.000624991487711668,-0.0008652204414829612,1.0006273984909058,0.0,0.0,0.0,28.77174949645996,7.144816875457764,-0.9384914040565491,-5207.74365234375,0
1858.5949999999993,-0.001325257238931954,0.02224252186715603,-0.010172716341912746,0.0,0.0,0.0,0.0,0.0005656740977428854,-0.003029672661796212,0.0021878937259316444,1.000487208366394,0.0,0.0,0.0,28.743179321289062,7.141666412353516,-0.9321319460868835,-5202.57275390625,0
1868.4759999999987,-0.0013482548529282212,0.022207269445061684,-0.010142846032977104,0.0,0.0,0.0,0.0,0.0016110310098156333,-0.0012885084142908454,0.0008282914059236646,0.9992437958717346,0.0,0.0,0.0,28.765817642211914,7.137697219848633,-0.9411728382110596,-5206.669921875,0
1878.3590000000004,-0.001354953390546143,0.022167718037962914,-0.010100942105054855,0.0,0.0,0.0,0.0,0.0008142067235894501,-0.003136047162115574,-0.0036449292674660683,0.9975477457046509,0.0,0.0,0.0,28.736879348754883,7.128984451293945,-0.9313918948173523,-5201.4326171875,0
1888.241,-0.001383222290314734,0.02211216650903225,-0.010095623321831226,0.0,0.0,0.0,0.0,-0.0024350176099687815,-0.003530135378241539,-0.0026362764183431864,0.9981048703193665,0.0,0.0,0.0,28.767484664916992,7.122798442840576,-0.9388235211372375,-5206.97216796875,0
1898.1319999999996,-0.0013949844287708402,0.022067030891776085,-0.010058131068944931,0.0,0.0,0.0,0.0,-0.001703503541648388,-0.0012337176594883204,0.0015903681050986052,0.9998238682746887,0.0,0.0,0.0,28.737926483154297,7.119668483734131,-0.9319993257522583,-5201.6220703125,0
1908.0110000000004,-0.0014078314416110516,0.02199922688305378,-0.010038450360298157,0.0,0.0,0.0,0.0,-0.0002201032475568354,-0.001679903594776988,0.0030093046370893717,0.9999362230300903,0.0,0.0,0.0,28.766529083251953,7.10894775390625,-0.9204829335212708,-5206.798828125,0
1917.9030000000002,-0.001418484142050147,0.0219492856413126,-0.010003805160522461,0.0,0.0,0.0,0.0,-0.0022629601880908012,-0.0016993891913443804,0.001596079091541469,1.0020594596862793,0.0,0.0,0.0,28.73807144165039,7.099245548248291,-0.92854905128479,-5201.64794921875,0
1927.780999999999,-0.001467072288505733,0.02186420001089573,-0.009943483397364616,0.0,0.0,0.0,0.0,0.001796659198589623,0.0014008227735757828,0.0003921619208995253,1.0020653009414673,0.0,0.0,0.0,28.76769256591797,7.104916095733643,-0.9274618029594421,-5207.00927734375,0
1937.679,-0.0014796559698879719,0.02181064896285534,-0.009906901977956295,0.0,0.0,0.0,0.0,-0.0006885770708322525,-0.0021224950905889273,-0.0003600162162911147,0.9996259212493896,0.0,0.0,0.0,28.739654541015625,7.092825889587402,-0.9287914037704468,-5201.9345703125,0
1947.5569999999989,-0.0014696151483803988,0.021865956485271454,-0.00994236208498478,0.0,0.0,0.0,0.0,0.0017481805989518762,-0.00021503312746062875,-0.0006822409923188388,1.000783920288086,0.0,0.0,0.0,28.76340675354004,7.104251861572266,-0.9168316721916199,-5206.234375,0
1957.4470000000001,-0.0014839023351669312,0.021812891587615013,-0.00990304909646511,0.0,0.0,0.0,0.0,0.0019468751270323992,0.005546965636312962,0.0014734305441379547,1.0016229152679443,0.0,0.0,0.0,28.734310150146484,7.095554351806641,-0.9196086525917053,-5200.96728515625,0
1967.325999999999,-0.0015031934017315507,0.02179834246635437,-0.009914529509842396,0.0,0.0,0.0,0.0,0.005028100684285164,0.0009699832880869508,0.00038870013668201864,0.9991074204444885,0.0,0.0,0.0,28.764352798461914,7.088729381561279,-0.9252681732177734,-5206.40478515625,0
1977.217999999999,-0.0015200492925941944,0.021743780001997948,-0.009873934090137482,0.0,0.0,0.0,0.0,-0.0019233862403780222,-0.000507426680997014,0.0034033386036753654,1.0010546445846558,0.0,0.0,0.0,28.735013961791992,7.07643985748291,-0.9294698238372803,-5201.0947265625,0
1987.1000000000004,-0.0015231519937515259,0.021750904619693756,-0.00990961492061615,0.0,0.0,0.0,0.0,0.0012135376455262303,-0.00045861181570217013,0.002298233797773719,0.9995459318161011,0.0,0.0,0.0,28.76292610168457,7.077666282653809,-0.9349619150161743,-5206.14697265625,0
1996.994999999999,-0.0015417910180985928,0.021693825721740723,-0.009869345463812351,0.0,0.0,0.0,0.0,0.0024756500497460365,-0.004722561687231064,0.00023347009846474975,0.9979405999183655,0.0,0.0,0.0,28.734127044677734,7.069493293762207,-0.9348131418228149,-5200.93408203125,0
2006.869999999999,-0.001504798186942935,0.02180783450603485,-0.00995808094739914,0.0,0.0,0.0,0.0,-0.000732527463696897,0.00033414101926609874,-0.0004952035960741341,0.9974539875984192,0.0,0.0,0.0,28.760108947753906,7.076408863067627,-0.9221473932266235,-5205.63671875,0
2016.7639999999992,-0.0015227828407660127,0.021753866225481033,-0.009918924421072006,0.0,0.0,0.0,0.0,-0.00012705371773336083,0.0005363592645153403,-0.000995027832686901,0.9987751245498657,0.0,0.0,0.0,28.730541229248047,7.069000720977783,-0.9140035510063171,-5200.28515625,0
2026.6399999999994,-0.0014955312944948673,0.021856024861335754,-0.00998350977897644,0.0,0.0,0.0,0.0,-0.000371973350411281,-0.0011989084305241704,0.0018349678721278906,1.0004733800888062,0.0,0.0,0.0,28.7557430267334,7.0852556228637695,-0.9157462120056152,-5204.84716796875,0
2036.539999999999,-0.0015136516885831952,0.021804435178637505,-0.009945057332515717,0.0,0.0,0.0,0.0,-0.0028902629856020212,-0.0030026547610759735,0.000686905812472105,1.0003435611724854,0.0,0.0,0.0,28.727863311767578,7.081207275390625,-0.9061546325683594,-5199.80029296875,0
2046.4120000000003,-0.0014905330026522279,0.02191787026822567,-0.01004941388964653,0.0,0.0,0.0,0.0,0.0017875495832413435,-0.0005106112221255898,-0.003575392998754978,0.9994445443153381,0.0,0.0,0.0,28.75480842590332,7.0980401039123535,-0.8983113765716553,-5204.677734375,0
2056.313,-0.0015076003037393093,0.021868452429771423,-0.010010559111833572,0.0,0.0,0.0,0.0,-0.0003310966130811721,0.002578731393441558,0.002310029696673155,1.001393437385559,0.0,0.0,0.0,28.72623062133789,7.091094017028809,-0.8946013450622559,-5199.5048828125,0
2066.1839999999993,-0.0014841299271211028,0.021882787346839905,-0.010020158253610134,0.0,0.0,0.0,0.0,-0.002843173686414957,-0.0033601357135921717,-0.004097631201148033,0.9994069933891296,0.0,0.0,0.0,28.756378173828125,7.085841655731201,-0.8924608826637268,-5204.96142578125,0
2076.0789999999997,-0.0014997856924310327,0.021833060309290886,-0.009979785420000553,0.0,0.0,0.0,0.0,0.0013603902189061046,0.0017465506680309772,0.0014329147525131702,1.0014933347702026,0.0,0.0,0.0,28.727306365966797,7.080458641052246,-0.8999758958816528,-5199.69970703125,0
2085.9579999999987,-0.0014579598791897297,0.021910669282078743,-0.010049986653029919,0.0,0.0,0.0,0.0,-0.00016833233530633152,-0.0006931647076271474,0.0008230548119172454,1.0009448528289795,0.0,0.0,0.0,28.75763511657715,7.0767927169799805,-0.8882638812065125,-5205.18896484375,0
2095.8590000000004,-0.001470015151426196,0.021861029788851738,-0.010007682256400585,0.0,0.0,0.0,0.0,-0.0014880341477692127,-5.100965154269943e-06,-3.577257302822545e-05,0.998921275138855,0.0,0.0,0.0,28.72999382019043,7.0766754150390625,-0.87989342212677,-5200.18603515625,0
2105.735999999999,-0.0014608048368245363,0.0219426192343235,-0.010065329261124134,0.0,0.0,0.0,0.0,-0.0017805699026212096,-0.0006432087393477559,-0.0022343096788972616,0.9968991279602051,0.0,0.0,0.0,28.7591552734375,7.089865684509277,-0.8816563487052917,-5205.46484375,0
2115.633,-0.0014738865429535508,0.021894192323088646,-0.010023430921137333,0.0,0.0,0.0,0.0,0.001093155238777399,0.007218456827104092,-0.0031491024419665337,0.9988396167755127,0.0,0.0,0.0,28.73090171813965,7.0895609855651855,-0.8836943507194519,-5200.3505859375,0
2125.499,-0.001502977218478918,0.021956361830234528,-0.010023985058069229,0.0,0.0,0.0,0.0,-0.0024340609088540077,-0.0009660814539529383,0.00011498844105517492,0.9986768364906311,0.0,0.0,0.0,28.754722595214844,7.119576454162598,-0.8970723748207092,-5204.662109375,0
2135.392,-0.001520519726909697,0.02191070280969143,-0.009983955882489681,0.0,0.0,0.0,0.0,0.0011561879655346274,-0.0016372603131458163,0.0035701021552085876,0.997886061668396,0.0,0.0,0.0,28.72708511352539,7.1108078956604,-0.903684139251709,-5199.65966796875,0
2145.2749999999996,-0.0014695740537717938,0.022015174850821495,-0.010082178749144077,0.0,0.0,0.0,0.0,0.0023276000283658504,0.0031015765853226185,0.0034665020648390055,1.0007095336914062,0.0,0.0,0.0,28.749555587768555,7.108205795288086,-0.8777452111244202,-5203.72705078125,0
2155.17,-0.0014859947841614485,0.02197105996310711,-0.010044164955615997,0.0,0.0,0.0,0.0,-0.0020959791727364063,0.0013578316429629922,0.0007604611455462873,1.000495195388794,0.0,0.0,0.0,28.72142219543457,7.104342460632324,-0.891072690486908,-5198.634765625,0
