timestamp,stateEstimate.x,stateEstimate.y,stateEstimate.z,controller.cmd_thrust,controller.cmd_roll,controller.cmd_pitch,controller.cmd_yaw,controller.r_roll,controller.r_pitch,controller.r_yaw,controller.accelz,controller.actuatorThrust,controller.roll,controller.pitch,controller.yaw,controller.rollRate,controller.pitchRate,controller.yawRate,controller.ctr_yaw
0.0,-6.100235987105407e-05,-9.965022036340088e-05,-0.0001461266219848767,0.0,0.0,0.0,0.0,0.0005949995247647166,0.005441185552626848,-0.001874617300927639,0.9998860359191895,0.0,0.0,0.0,0.2987530529499054,2.273000717163086,4.889510631561279,-54.07490158081055,0
9.915999999999258,-0.00012735446216538548,-0.00016460096230730414,-0.00018113508122041821,0.0,0.0,0.0,0.0,0.0020071312319487333,0.0005233201663941145,-0.0006998766330070794,0.9975425601005554,0.0,0.0,0.0,0.2996434271335602,2.2689833641052246,4.87043571472168,-54.236053466796875,0
19.820999999999913,-8.73725293786265e-05,-0.00017076740914490074,-0.00011707968224072829,0.0,0.0,0.0,0.0,0.002108002081513405,-0.00012187083484604955,-0.0043919384479522705,0.9996321201324463,0.0,0.0,0.0,0.2991611957550049,2.2636466026306152,4.855781555175781,-54.148773193359375,0
29.74200000000019,-0.00014123857545200735,-0.0001988454459933564,-0.0001472037984058261,0.0,0.0,0.0,0.0,7.163247937569395e-05,0.0042252610437572,-0.0007893662550486624,1.001178503036499,0.0,0.0,0.0,0.29878392815589905,2.2607920169830322,4.855405807495117,-54.08048629760742,0
39.64500000000044,-0.00011371747677912936,-0.00019229309691581875,-7.933739834697917e-05,0.0,0.0,0.0,0.0,-0.002442366210743785,0.003228353336453438,0.0006441914010792971,1.000098705291748,0.0,0.0,0.0,0.29832470417022705,2.262085437774658,4.845777988433838,-53.99736022949219,0
49.56999999999971,-0.00014433576143346727,-0.00019410096865613014,-0.0001266722392756492,0.0,0.0,0.0,0.0,0.0017783672083169222,0.002346689347177744,-0.0019718955736607313,1.0005741119384766,0.0,0.0,0.0,0.299182653427124,2.2605485916137695,4.840798377990723,-54.15266036987305,0
59.46899999999914,-0.00018511268717702478,-0.00015442997391801327,-7.112284220056608e-05,0.0,0.0,0.0,0.0,0.0008958899416029453,-6.362802378134802e-05,0.001923007657751441,0.9990922808647156,0.0,0.0,0.0,0.2983715534210205,2.2620952129364014,4.825551986694336,-54.00584411621094,0
69.39199999999983,-0.00021889229537919164,-0.0001490632857894525,-0.00011802592052845284,0.0,0.0,0.0,0.0,-0.0006807327154092491,0.0006982633494772017,-6.807564932387322e-05,0.9977810382843018,0.0,0.0,0.0,0.3063971698284149,2.262202501296997,4.8249688148498535,-55.458499908447266,0
79.30099999999948,-0.00014886165445204824,-0.00014989600458648056,-3.342447234899737e-05,0.0,0.0,0.0,0.0,0.00048016439541243017,0.0008196556591428816,-0.0011804566020146012,0.9983860850334167,0.0,0.0,0.0,0.30522289872169495,2.2617387771606445,4.817996025085449,-55.245948791503906,0
89.22699999999895,-0.00018589128740131855,-0.00014365978131536394,-7.628564344486222e-05,0.0,0.0,0.0,0.0,0.0025623308029025793,-0.0007905676029622555,-0.0005044611170887947,1.000293493270874,0.0,0.0,0.0,0.31526511907577515,2.2624428272247314,4.8252763748168945,-57.06361389160156,0
99.11700000000019,-0.00020065375429112464,-0.0001408883836120367,-2.7338473955751397e-05,0.0,0.0,0.0,0.0,-0.00025260771508328617,-0.00027277515619061887,-0.00447580823674798,0.9994154572486877,0.0,0.0,0.0,0.3154832422733307,2.2557425498962402,4.8202900886535645,-57.10308837890625,0
109.04099999999926,-0.0001917329936986789,-0.00012504275946412235,-0.00012961967149749398,0.0,0.0,0.0,0.0,0.003201290499418974,-0.0012961007887497544,-0.0017514647915959358,0.9986938834190369,0.0,0.0,0.0,0.3135906457901001,2.2560508251190186,4.814774990081787,-56.760528564453125,0
118.9429999999993,-0.00017293568816967309,-0.00016642741684336215,-9.279833466280252e-05,0.0,0.0,0.0,0.0,-0.0011696647852659225,0.0012977436417713761,-0.0015759384259581566,1.0004671812057495,0.0,0.0,0.0,0.31364619731903076,2.2452220916748047,4.8038434982299805,-56.77058410644531,0
128.86899999999878,-0.0001659934059716761,-0.00014427352289203554,-0.00019188343139830977,0.0,0.0,0.0,0.0,-0.0005949469050392509,0.0034832684323191643,-0.0027137373108416796,1.0018659830093384,0.0,0.0,0.0,0.31207895278930664,2.2452991008758545,4.8050031661987305,-56.486915588378906,0
138.76800000000003,-0.00011205305781913921,-0.0001278772542718798,-0.00011801467189798132,0.0,0.0,0.0,0.0,0.0003651143633760512,0.0005859928787685931,0.002206569304689765,1.0000234842300415,0.0,0.0,0.0,0.3114868402481079,2.247250556945801,4.799837112426758,-56.37973403930664,0
148.6880000000001,-0.00011336318857502192,-8.349308336619288e-05,-0.00018804281717166305,0.0,0.0,0.0,0.0,-0.00514786783605814,0.0008755965973250568,-0.003250907640904188,1.000225305557251,0.0,0.0,0.0,0.3113636076450348,2.241595983505249,4.791749954223633,-56.3574333190918,0
158.59299999999894,-8.795435860520229e-05,-7.134770567063242e-05,-0.00012949627125635743,0.0,0.0,0.0,0.0,0.00022100504429545254,-0.004244261421263218,0.002629488240927458,0.998989462852478,0.0,0.0,0.0,0.30982282757759094,2.2408607006073,4.781497478485107,-56.07854461669922,0
168.52099999999882,-9.54735660343431e-05,-3.1924384529702365e-05,-0.0001937952038133517,0.0,0.0,0.0,0.0,0.0006582982023246586,-0.0011379934148862958,-0.00291832466609776,0.9976698160171509,0.0,0.0,0.0,0.31621041893959045,2.2533657550811768,4.789673805236816,-57.234718322753906,0
178.42100000000028,-9.981147013604641e-05,-3.873350942740217e-05,-0.0001575900096213445,0.0,0.0,0.0,0.0,0.000453784829005599,0.004793156404048204,0.0022754294332116842,1.0011615753173828,0.0,0.0,0.0,0.314200758934021,2.2521772384643555,4.777205467224121,-56.87096405029297,0
188.34100000000035,-9.211714495904744e-05,-2.87222155748168e-06,-0.00024884374579414725,0.0,0.0,0.0,0.0,-0.001446313108317554,-0.00524182990193367,0.0018130631651729345,1.0020917654037476,0.0,0.0,0.0,0.31477686762809753,2.2515718936920166,4.771711349487305,-56.97523880004883,0
198.23899999999958,-8.629302465124056e-05,-8.875444109435193e-06,-0.00021094069234095514,0.0,0.0,0.0,0.0,0.002683934522792697,-0.002080395119264722,-0.0010401702020317316,0.9980394244194031,0.0,0.0,0.0,0.31516045331954956,2.24577260017395,4.76542854309082,-57.04467010498047,0
208.17100000000028,-9.522243635728955e-05,3.7347519992181333e-06,-0.0002928295871242881,0.0,0.0,0.0,0.0,-0.003111331257969141,0.0020365940872579813,-0.0038849879056215286,1.0006797313690186,0.0,0.0,0.0,0.30889132618904114,2.2525367736816406,4.777210235595703,-55.909942626953125,0
218.0640000000003,-9.533705451758578e-05,-1.3074728713036166e-06,-0.0002589587529655546,0.0,0.0,0.0,0.0,-0.0017778727924451232,0.0009200770873576403,0.002754946006461978,1.000615119934082,0.0,0.0,0.0,0.30814698338508606,2.254469394683838,4.7676286697387695,-55.77521896362305,0
227.98599999999897,-0.0001501574006397277,-1.1726917364285327e-05,-0.0002978958946187049,0.0,0.0,0.0,0.0,6.226044206414372e-05,0.005079137627035379,-0.0027175075374543667,1.0004502534866333,0.0,0.0,0.0,0.3088323771953583,2.258892297744751,4.766483783721924,-55.89927291870117,0
346.9300000000003,-0.0001594698551343754,-4.055985846207477e-05,-0.00010306983313057572,0.0,0.0,0.0,0.0,0.0018212671857327223,0.004424938000738621,0.003767233807593584,1.0008488893508911,0.0,0.0,0.0,0.31868183612823486,2.250554323196411,4.688778400421143,-57.682044982910156,0
356.8339999999989,-0.00015470995276700705,-0.00011237522994633764,-7.197239028755575e-05,0.0,0.0,0.0,0.0,-0.0013236920349299908,-0.0009830310009419918,0.0010456907330080867,1.0003899335861206,0.0,0.0,0.0,0.31861189007759094,2.2454373836517334,4.675974369049072,-57.66938400268555,0
366.7510000000002,-0.00014915522478986531,-5.928356767981313e-05,-0.00014942465350031853,0.0,0.0,0.0,0.0,0.0005932645290158689,-0.0012181221973150969,-3.265328996349126e-05,0.9992956519126892,0.0,0.0,0.0,0.313130259513855,2.2560341358184814,4.697670936584473,-56.67720031738281,0
376.65799999999945,-9.840300481300801e-05,-0.00010406479123048484,-9.069646330317482e-05,0.0,0.0,0.0,0.0,-0.001893850276246667,0.004947072360664606,0.0001677647087490186,0.9995507597923279,0.0,0.0,0.0,0.31235766410827637,2.254856586456299,4.6906561851501465,-56.537357330322266,0
386.5739999999987,-0.00014896241191308945,-0.0001171725889435038,-0.0001282587181776762,0.0,0.0,0.0,0.0,0.001507048262283206,0.00022914816509000957,0.002335918601602316,0.9993631839752197,0.0,0.0,0.0,0.3194676339626312,2.261575222015381,4.694766521453857,-57.824275970458984,0
396.4830000000002,-0.00011407486454118043,-9.8753887868952e-05,-4.4360102037899196e-05,0.0,0.0,0.0,0.0,-0.0006425357423722744,-0.0019120683427900076,0.0012571440311148763,1.0012035369873047,0.0,0.0,0.0,0.32088086009025574,2.2541306018829346,4.697289943695068,-58.080074310302734,0
406.39799999999923,-0.00015111938409972936,-5.588645944953896e-05,-7.02853430993855e-05,0.0,0.0,0.0,0.0,-0.0005629130755551159,0.0018776055658236146,0.0005439768428914249,0.9993304014205933,0.0,0.0,0.0,0.32216310501098633,2.2501001358032227,4.691473484039307,-58.312164306640625,0
416.3069999999989,-0.00011198499851161614,-8.369932766072452e-05,-6.176141596370144e-06,0.0,0.0,0.0,0.0,-0.001357444329187274,0.005858160555362701,0.003761003725230694,1.0004432201385498,0.0,0.0,0.0,0.3210766613483429,2.2472550868988037,4.681427955627441,-58.115516662597656,0
426.22899999999936,-0.00011472546611912549,-2.871271499316208e-05,-6.944253254914656e-05,0.0,0.0,0.0,0.0,-0.0010676910169422626,-0.002045578556135297,0.0008410431910306215,0.9988281726837158,0.0,0.0,0.0,0.3201282322406769,2.247861385345459,4.676248073577881,-57.943843841552734,0
436.1309999999994,-0.00012973193952348083,-0.00010127046698471531,-5.287257590680383e-05,0.0,0.0,0.0,0.0,-0.0016880086623132229,0.0018494048854336143,-0.004630083218216896,0.9983237385749817,0.0,0.0,0.0,0.3194461166858673,2.246866464614868,4.670441627502441,-57.82038116455078,0
446.0550000000003,-0.00014023225230630487,-5.2529136155499145e-05,-0.00011595147225307301,0.0,0.0,0.0,0.0,0.0018960880115628242,-0.0013058222830295563,0.0024521073792129755,0.9996656179428101,0.0,0.0,0.0,0.3182969391345978,2.253218412399292,4.661865711212158,-57.61238098144531,0
455.95600000000013,-0.0001364435302093625,-0.00011726234515663236,-9.443658927921206e-05,0.0,0.0,0.0,0.0,8.518064714735374e-05,0.0035771287512034178,-0.001341304276138544,1.000139594078064,0.0,0.0,0.0,0.3176994025707245,2.2503373622894287,4.653743743896484,-57.50422668457031,0
465.8760000000002,-0.00016988189599942416,-7.484928210033104e-05,-0.0001354864361928776,0.0,0.0,0.0,0.0,0.0013458887115120888,-0.0009032280649989843,-0.0009351917542517185,0.9989220499992371,0.0,0.0,0.0,0.318052738904953,2.2484114170074463,4.649988174438477,-57.56818389892578,0
475.78899999999885,-0.00016182549006771296,-9.172681893687695e-05,-9.212740405928344e-05,0.0,0.0,0.0,0.0,0.001429330324754119,0.0005563510931096971,0.00015446370525751263,0.9999877214431763,0.0,0.0,0.0,0.3174028694629669,2.244022846221924,4.64271879196167,-57.45055389404297,0
485.71199999999953,-0.00019902522035408765,-5.39487118658144e-05,-0.0001308411592617631,0.0,0.0,0.0,0.0,-0.0024440845008939505,-0.0017704953206703067,-0.000708708306774497,1.0011050701141357,0.0,0.0,0.0,0.32587897777557373,2.252239227294922,4.637174606323242,-58.984745025634766,0
495.60499999999956,-0.00011355715105310082,-0.00013659671822097152,-8.268182136816904e-05,0.0,0.0,0.0,0.0,-0.0018167841481044888,0.004552335944026709,0.0025294495280832052,0.9992856383323669,0.0,0.0,0.0,0.3253454267978668,2.2616591453552246,4.6471099853515625,-58.88816833496094,0
505.52999999999884,-0.0001447688991902396,-9.691106242826208e-05,-0.00012042955495417118,0.0,0.0,0.0,0.0,0.001634816755540669,-0.0025831570383161306,0.0009745893185026944,0.9997861385345459,0.0,0.0,0.0,0.3258497416973114,2.2660036087036133,4.634711265563965,-58.97945022583008,0
515.4309999999987,-0.00010550015576882288,-0.00013625637802761048,-7.443469075951725e-05,0.0,0.0,0.0,0.0,0.003004461759701371,0.0077585275284945965,0.0021683669183403254,1.0003401041030884,0.0,0.0,0.0,0.3260744512081146,2.2600181102752686,4.625732898712158,-59.02012634277344,0
525.351999999999,-0.00010708414629334584,-7.391116378130391e-05,-0.0001426606613676995,0.0,0.0,0.0,0.0,0.003919740207493305,0.0038123319391161203,0.0009044393664225936,1.0005379915237427,0.0,0.0,0.0,0.32646313309669495,2.257657527923584,4.610185146331787,-59.09047317504883,0
535.2529999999988,-0.00012616701133083552,-6.958779704291373e-05,-0.0001066013501258567,0.0,0.0,0.0,0.0,-0.0008958107209764421,0.0010424816282466054,-0.001407327363267541,0.9992289543151855,0.0,0.0,0.0,0.3259502649307251,2.2537381649017334,4.588562965393066,-58.99764633178711,0
545.1779999999999,-0.00013976469927001745,-2.6658177375793457e-05,-0.00016940038767643273,0.0,0.0,0.0,0.0,-0.003551582572981715,-0.0012036440894007683,0.003108240896835923,0.9978086352348328,0.0,0.0,0.0,0.3252781331539154,2.251539707183838,4.572863578796387,-58.8759880065918,0
555.0849999999991,-5.347235128283501e-05,-7.976639608386904e-05,-0.00011562668078113347,0.0,0.0,0.0,0.0,0.0031040075700730085,0.0014153382508084178,-0.005292512010782957,0.9984090328216553,0.0,0.0,0.0,0.32468968629837036,2.2538318634033203,4.581705093383789,-58.76947784423828,0
564.9979999999996,-6.811748608015478e-05,-5.145191607880406e-05,-0.00018012158398050815,0.0,0.0,0.0,0.0,0.002399246674031019,0.000799891073256731,-0.0011006661225110292,0.998103678226471,0.0,0.0,0.0,0.3167893886566162,2.260542631149292,4.597535610198975,-57.339508056640625,0
574.902,-2.842978574335575e-05,-0.00010057425970444456,-0.00015018034901004285,0.0,0.0,0.0,0.0,0.0014902938855811954,0.0006333740893751383,0.003310243599116802,0.9989809393882751,0.0,0.0,0.0,0.31651774048805237,2.2608354091644287,4.583049297332764,-57.290340423583984,0
584.8259999999991,-0.00010167650907533243,-0.00013678788673132658,-0.00017593844677321613,0.0,0.0,0.0,0.0,-0.000822685135062784,-0.00172130623832345,0.0005796230980195105,0.9978766441345215,0.0,0.0,0.0,0.3242839574813843,2.253330945968628,4.5784406661987305,-58.696041107177734,0
594.7259999999987,-0.00011815213656518608,-0.00014421863306779414,-0.00014930767065379769,0.0,0.0,0.0,0.0,-0.0008795030880719423,0.0011244654888287187,0.002325857523828745,0.9977463483810425,0.0,0.0,0.0,0.3252412974834442,2.2544665336608887,4.582592010498047,-58.869319915771484,0
604.652,-0.00012490220251493156,-7.356551213888451e-05,-0.00022345177421811968,0.0,0.0,0.0,0.0,0.0011675329878926277,0.0008332802099175751,0.00037603627424687147,0.9970940351486206,0.0,0.0,0.0,0.32490313053131104,2.2555091381073,4.575273036956787,-58.808109283447266,0
614.5529999999999,-0.00012386684829834849,-5.841422171215527e-05,-0.0001849325344664976,0.0,0.0,0.0,0.0,-1.6537240298930556e-05,0.002205218654125929,-0.0027071875520050526,1.0014740228652954,0.0,0.0,0.0,0.32345911860466003,2.255826234817505,4.564370632171631,-58.54674530029297,0
624.4779999999992,-0.0002030797622865066,-4.6198376367101446e-05,-0.00020853090973105282,0.0,0.0,0.0,0.0,-0.001124375849030912,-0.00028604219551198184,-0.0007595681236125529,1.000538945198059,0.0,0.0,0.0,0.32349714636802673,2.2538790702819824,4.549518585205078,-58.553627014160156,0
634.3819999999996,-0.00016997272905427963,-4.912520307698287e-05,-0.00015804915165062994,0.0,0.0,0.0,0.0,-0.0013393718982115388,0.0028237183578312397,0.0006768084713257849,1.00081467628479,0.0,0.0,0.0,0.3229684829711914,2.259450674057007,4.550447940826416,-58.45793533325195,0
644.3009999999995,-0.0001912374427774921,-2.4037877665250562e-05,-0.00023865545517764986,0.0,0.0,0.0,0.0,-0.0014653726248070598,0.0033737479243427515,-0.0004071058356203139,0.9982903003692627,0.0,0.0,0.0,0.3142922520637512,2.26792311668396,4.541858673095703,-56.88752365112305,0
654.2060000000001,-0.00015357459778897464,-3.7967336538713425e-05,-0.00019252933270763606,0.0,0.0,0.0,0.0,0.0005413917824625969,0.0021223463118076324,0.0016330082435160875,0.9981674551963806,0.0,0.0,0.0,0.31361350417137146,2.2630279064178467,4.524560451507568,-56.76466751098633,0
664.1270000000004,-0.0002207473444286734,-2.4822451450745575e-05,-0.00021699644275940955,0.0,0.0,0.0,0.0,0.0011197227286174893,-0.0019666494335979223,0.0002850572927854955,0.9982584714889526,0.0,0.0,0.0,0.32021650671958923,2.263550043106079,4.518204212188721,-57.95982360839844,0
674.0229999999992,-0.0001821199111873284,-3.863525125780143e-05,-0.00016916915774345398,0.0,0.0,0.0,0.0,-0.0007209620671346784,0.004025850910693407,-0.002136507537215948,0.9989901781082153,0.0,0.0,0.0,0.32067549228668213,2.265444278717041,4.5177764892578125,-58.04290008544922,0
683.9429999999993,-0.00023670578957535326,-1.753580363583751e-05,-0.000209568373975344,0.0,0.0,0.0,0.0,-0.0011270673712715507,0.004420904908329248,-0.0035155590157955885,1.000866413116455,0.0,0.0,0.0,0.319433331489563,2.2699105739593506,4.513681411743164,-57.81806564331055,0
693.8509999999987,-0.0001481559593230486,-8.901720138965175e-05,-0.00016689712356310338,0.0,0.0,0.0,0.0,-0.0001742769090924412,-0.0013258339604362845,-0.0019666063599288464,0.9998336434364319,0.0,0.0,0.0,0.3170817494392395,2.2722010612487793,4.48858642578125,-57.39242172241211,0
703.7739999999994,-0.0001664438605075702,-4.409419125295244e-05,-0.00023756017617415637,0.0,0.0,0.0,0.0,0.0015665162354707718,-0.0010938557097688317,0.000270124088274315,0.9990221858024597,0.0,0.0,0.0,0.31031838059425354,2.286590576171875,4.507512092590332,-56.16824722290039,0
713.6719999999987,-0.0001480103237554431,-4.1000621422426775e-05,-0.0001910470746224746,0.0,0.0,0.0,0.0,-0.0016292311483994126,0.0017642357852309942,0.0013016528682783246,0.9994693994522095,0.0,0.0,0.0,0.309977650642395,2.2875702381134033,4.505181312561035,-56.10657501220703,0
723.6039999999994,-0.00017910556925926358,-6.730921541020507e-06,-0.00025434591225348413,0.0,0.0,0.0,0.0,-0.0018139696912840009,-0.0006024582544341683,0.0007424552459269762,0.9995662569999695,0.0,0.0,0.0,0.3153720200061798,2.2917397022247314,4.508120059967041,-57.08296203613281,0
733.4969999999994,-8.924592839321122e-05,-2.971759568026755e-05,-0.00019002758199349046,0.0,0.0,0.0,0.0,0.000643435399979353,-0.0003010213258676231,-0.003053010208532214,0.9989766478538513,0.0,0.0,0.0,0.31448981165885925,2.294982671737671,4.50517463684082,-56.92328643798828,0
743.4219999999987,-0.00012521434109658003,-2.2412712496588938e-05,-0.0002520297421142459,0.0,0.0,0.0,0.0,-0.0005030134343542159,0.00035365173243917525,0.0015793211059644818,1.0007668733596802,0.0,0.0,0.0,0.3051992356777191,2.296320915222168,4.511518478393555,-55.241668701171875,0
753.3209999999999,-0.00011860794620588422,-2.334370401513297e-05,-0.0002134941896656528,0.0,0.0,0.0,0.0,0.0014537670649588108,0.0027352729812264442,-0.0002649499801918864,1.003259301185608,0.0,0.0,0.0,0.3060140609741211,2.2910780906677246,4.5104522705078125,-55.38915252685547,0
763.241,-0.00020506439614109695,-6.93209221935831e-05,-0.00023444966063834727,0.0,0.0,0.0,0.0,0.0009350355248898268,0.0037374962121248245,0.0001730264484649524,1.0008028745651245,0.0,0.0,0.0,0.31247636675834656,2.2841784954071045,4.499973297119141,-56.55884552001953,0
773.1459999999988,-0.00016893532301764935,-8.0803845776245e-05,-0.00018055076361633837,0.0,0.0,0.0,0.0,0.0013391635147854686,-0.0011788810370489955,-0.002113042864948511,0.9986234307289124,0.0,0.0,0.0,0.3122295141220093,2.278684616088867,4.490515232086182,-56.514163970947266,0
783.0699999999997,-0.00024687920813448727,-0.00011051806359319016,-0.00019656663062050939,0.0,0.0,0.0,0.0,-0.0011069881729781628,0.002820904366672039,0.0045598517172038555,0.9987906217575073,0.0,0.0,0.0,0.3190743625164032,2.2752034664154053,4.487368106842041,-57.75309371948242,0
792.9699999999993,-0.00014089980686549097,-0.00014307931996881962,-0.00011645759514067322,0.0,0.0,0.0,0.0,0.0019721633289009333,-0.0005832306342199445,0.0009259110665880144,1.001967430114746,0.0,0.0,0.0,0.31988316774368286,2.2707273960113525,4.475403785705566,-57.89949035644531,0
802.8989999999994,-0.00018497584096621722,-0.00013495932216756046,-0.00015705058467574418,0.0,0.0,0.0,0.0,0.00314951129257679,-0.0006147936801426113,0.00121260154992342,1.0010247230529785,0.0,0.0,0.0,0.32686087489128113,2.275135040283203,4.479061603546143,-59.162471771240234,0
812.7939999999999,-0.00017594793462194502,-0.00015596914454363286,-0.00011014399933628738,0.0,0.0,0.0,0.0,0.001813217531889677,0.0036845975555479527,-0.0028880396857857704,0.9968634843826294,0.0,0.0,0.0,0.3274327516555786,2.2678589820861816,4.476050853729248,-59.2659797668457,0
822.723,-0.00021521610324271023,-0.00014977461250964552,-0.00015930332301650196,0.0,0.0,0.0,0.0,-0.004053779412060976,-0.003416436491534114,-0.0005364969256334007,0.9987196922302246,0.0,0.0,0.0,0.3332541286945343,2.2610769271850586,4.47413444519043,-60.31966018676758,0
832.619999999999,-0.00019141974917147309,-0.0001744800974847749,-0.00010974807082675397,0.0,0.0,0.0,0.0,0.0013330060755833983,-0.0008068098686635494,-0.00011152316437801346,0.9977046251296997,0.0,0.0,0.0,0.332236647605896,2.262742757797241,4.482072353363037,-60.135494232177734,0
842.539999999999,-0.00022218770754989237,-0.00014216723502613604,-0.0001633227220736444,0.0,0.0,0.0,0.0,-0.0010912406723946333,-0.002875510137528181,0.0010766817722469568,0.997644305229187,0.0,0.0,0.0,0.3385387361049652,2.2719311714172363,4.49373722076416,-61.27618408203125,0
852.4539999999997,-0.00014032800390850753,-0.00016749172937124968,-9.175075683742762e-05,0.0,0.0,0.0,0.0,0.0018229727866128087,-0.000535184983164072,-0.004595066886395216,1.0015604496002197,0.0,0.0,0.0,0.337236613035202,2.2746472358703613,4.491402626037598,-61.040496826171875,0
862.3670000000002,-0.00013193338236305863,-9.461209265282378e-05,-0.00017661231686361134,0.0,0.0,0.0,0.0,-0.0014945149887353182,-0.003808128647506237,0.00047853021533228457,1.0002212524414062,0.0,0.0,0.0,0.3269294500350952,2.2884984016418457,4.508836269378662,-59.17488098144531,0
872.2690000000002,-0.00010239711264148355,-6.948753434699029e-05,-0.00010646325972629711,0.0,0.0,0.0,0.0,0.0003257695643696934,0.0012257249327376485,0.0008469009771943092,0.999070942401886,0.0,0.0,0.0,0.3255678713321686,2.2898426055908203,4.505897045135498,-58.928436279296875,0
882.1869999999999,-0.00014034242485649884,-9.975630382541567e-05,-0.00018009902851190418,0.0,0.0,0.0,0.0,-0.0004564971022773534,-0.0018739961087703705,0.002776953624561429,0.9994675517082214,0.0,0.0,0.0,0.3178340792655945,2.2828903198242188,4.5070319175720215,-57.52860641479492,0
892.0910000000003,-0.00010560419468674809,-9.778032108442858e-05,-0.00011230972449993715,0.0,0.0,0.0,0.0,0.0024803110864013433,-0.003165656700730324,1.0427136658108793e-05,1.0011152029037476,0.0,0.0,0.0,0.31839892268180847,2.28035569190979,4.517163276672363,-57.630836486816406,0
902.0169999999998,-0.00015918487042654306,-5.634686749544926e-05,-0.00014632921374868602,0.0,0.0,0.0,0.0,0.0004175688372924924,0.0012055181432515383,-0.002117364900186658,1.0005098581314087,0.0,0.0,0.0,0.31746673583984375,2.277428388595581,4.51668119430542,-57.46211242675781,0
911.914999999999,-0.00021181748888920993,-6.334906356642023e-05,-0.00011767890100600198,0.0,0.0,0.0,0.0,-0.0024778025690466166,-0.0022238262463361025,-0.0030931683722883463,0.9990834593772888,0.0,0.0,0.0,0.31759393215179443,2.2701659202575684,4.506396770477295,-57.48513412475586,0
921.8349999999991,-0.00030031747883185744,-0.00010396946163382381,-0.00015526781498920172,0.0,0.0,0.0,0.0,-0.0031785862520337105,-0.0007249462069012225,-0.0008423540275543928,0.9999892115592957,0.0,0.0,0.0,0.3239934742450714,2.2674903869628906,4.510552406311035,-58.64346694946289,0
931.7399999999998,-0.00027531737578101456,-0.00012444844469428062,-9.650308493291959e-05,0.0,0.0,0.0,0.0,-0.0009873828385025263,-0.0012433446245267987,0.0016950169811025262,0.9984897971153259,0.0,0.0,0.0,0.3221728205680847,2.27280592918396,4.512770175933838,-58.31391906738281,0
941.6659999999993,-0.0003176684258505702,-7.599656964885071e-05,-0.00014382721565198153,0.0,0.0,0.0,0.0,0.00415203208103776,-0.0003574308648239821,0.00023581866116728634,0.9985159039497375,0.0,0.0,0.0,0.32830893993377686,2.292196035385132,4.521803379058838,-59.4245719909668,0
951.5649999999987,-0.0002755408058874309,-0.00011764574446715415,-8.773361332714558e-05,0.0,0.0,0.0,0.0,0.005580234341323376,0.0023700902238488197,-0.00030790656455792487,1.0000752210617065,0.0,0.0,0.0,0.3277908265590668,2.2860846519470215,4.518949031829834,-59.330787658691406,0
961.4879999999994,-0.0002847534778993577,-7.249292684718966e-05,-0.00017834160826168954,0.0,0.0,0.0,0.0,0.0016978707863017917,0.002434995025396347,-0.0022179782390594482,1.0013774633407593,0.0,0.0,0.0,0.3183594346046448,2.286067247390747,4.521034240722656,-57.623687744140625,0
971.3979999999992,-0.00019943492952734232,-0.00015726988203823566,-0.00012838425755035132,0.0,0.0,0.0,0.0,-0.000432581698987633,0.002014645142480731,0.0029046153649687767,1.0006893873214722,0.0,0.0,0.0,0.31716683506965637,2.280364513397217,4.512821197509766,-57.4078254699707,0
981.3140000000003,-0.00020705623319372535,-9.767339361133054e-05,-0.000207739562029019,0.0,0.0,0.0,0.0,0.005189941264688969,0.003369638230651617,-0.0003826599277090281,0.9984099864959717,0.0,0.0,0.0,0.3107531666755676,2.2938058376312256,4.522021770477295,-56.2469367980957,0
991.2129999999997,-0.0001391484693158418,-0.00016024419164750725,-0.00015812645142432302,0.0,0.0,0.0,0.0,-0.003288288600742817,-0.003927785903215408,0.0035590517800301313,0.9968001246452332,0.0,0.0,0.0,0.3101930320262909,2.2848610877990723,4.509651184082031,-56.14555740356445,0
1001.1409999999996,-0.00015784264542162418,-0.00011158025881741196,-0.00023073879128787667,0.0,0.0,0.0,0.0,0.0021637470927089453,0.0004610497271642089,0.0007141149253584445,0.9974389672279358,0.0,0.0,0.0,0.3029991686344147,2.299278736114502,4.521732807159424,-54.843448638916016,0
1011.0380000000005,-0.00012844387674704194,-0.00012897036504000425,-0.00018293441098649055,0.0,0.0,0.0,0.0,-0.000992903602309525,0.0024651626590639353,0.0024572890251874924,0.9997883439064026,0.0,0.0,0.0,0.3034520447254181,2.2935068607330322,4.515310287475586,-54.92542266845703,0
1020.9609999999993,-0.0001991292810998857,-0.00010921085049631074,-0.00020174204837530851,0.0,0.0,0.0,0.0,0.0030779512599110603,0.0018000673735514283,-0.0032126582227647305,1.0013360977172852,0.0,0.0,0.0,0.3121308982372284,2.298346519470215,4.508260726928711,-56.496315002441406,0
1030.8629999999994,-0.00021040509454905987,-0.00014344682858791202,-0.00017869161092676222,0.0,0.0,0.0,0.0,-0.00023651561059523374,0.0033097025007009506,-0.0012092433171346784,1.0003336668014526,0.0,0.0,0.0,0.3110613524913788,2.2887399196624756,4.496434211730957,-56.3027229309082,0
1040.780999999999,-0.0002756427857093513,-0.00016398892330471426,-0.00022871201508678496,0.0,0.0,0.0,0.0,0.0044050076976418495,0.0016010492108762264,0.0020643228199332952,0.9984594583511353,0.0,0.0,0.0,0.30456411838531494,2.2897911071777344,4.494832515716553,-55.12671661376953,0
1050.687,-0.0002035157522186637,-0.00016849795065354556,-0.00014693543198518455,0.0,0.0,0.0,0.0,-0.00035963396658189595,-0.0038440884090960026,0.0017853358294814825,1.0003660917282104,0.0,0.0,0.0,0.3044488728046417,2.281916379928589,4.483394622802734,-55.10585403442383,0
1060.6039999999994,-0.00026559928664937615,-0.0001708187919575721,-0.00019224980496801436,0.0,0.0,0.0,0.0,-0.0030072766821831465,0.0020169983617961407,2.9194461603765376e-05,1.000033974647522,0.0,0.0,0.0,0.3050090968608856,2.282689332962036,4.482942581176758,-55.20725631713867,0
1070.5110000000004,-0.0002030126197496429,-0.000150841471622698,-9.941898315446451e-05,0.0,0.0,0.0,0.0,-0.0011302997590973973,0.001896352507174015,-0.00023815776512492448,0.9997544288635254,0.0,0.0,0.0,0.30537331104278564,2.2876553535461426,4.474714279174805,-55.27317810058594,0
1080.4229999999989,-0.0002236261498183012,-8.437594078714028e-05,-0.00016442581545561552,0.0,0.0,0.0,0.0,0.0030032251961529255,2.1469095372594893e-05,-0.0012160843471065164,1.0004005432128906,0.0,0.0,0.0,0.3131577670574188,2.297506809234619,4.478137493133545,-56.68217849731445,0
1090.3349999999991,-0.00016971910372376442,-0.00012546048674266785,-0.00010700826533138752,0.0,0.0,0.0,0.0,-0.0008246340439654887,0.004048706963658333,-0.004745882004499435,1.0004688501358032,0.0,0.0,0.0,0.3133818805217743,2.2944579124450684,4.471162796020508,-56.72274398803711,0
1100.2520000000004,-0.0002092084614560008,-0.00014148034097161144,-0.0001817691809264943,0.0,0.0,0.0,0.0,0.0006272580358199775,0.001634981599636376,0.0017747050151228905,0.9997177720069885,0.0,0.0,0.0,0.31311991810798645,2.2942142486572266,4.4594292640686035,-56.67532730102539,0
1110.1620000000003,-0.00022546530817635357,-0.00014989350165706128,-0.00014123810979072005,0.0,0.0,0.0,0.0,-0.001741029554978013,-0.005165510810911655,0.003594575449824333,0.9997648596763611,0.0,0.0,0.0,0.3142538368701935,2.287790298461914,4.44789981842041,-56.88056945800781,0
1120.0730000000003,-0.00025388551875948906,-0.0001489649439463392,-0.00022918287140782923,0.0,0.0,0.0,0.0,0.0014646449126303196,0.00560015020892024,-0.0016412683762609959,1.0001299381256104,0.0,0.0,0.0,0.30699923634529114,2.2928600311279297,4.462917804718018,-55.56747055053711,0
1129.9869999999992,-0.0001921986840898171,-0.00017353572184219956,-0.00016207987209782004,0.0,0.0,0.0,0.0,-0.000837883329950273,0.0022123551461845636,0.003293827176094055,1.0006641149520874,0.0,0.0,0.0,0.306688517332077,2.28787899017334,4.449227809906006,-55.51123046875,0
1139.905999999999,-0.0002601640298962593,-0.00018261544755659997,-0.00019847559451591223,0.0,0.0,0.0,0.0,0.0008804996032267809,-0.0021032625809311867,0.0007597286603413522,1.000657320022583,0.0,0.0,0.0,0.31516894698143005,2.290374994277954,4.449230194091797,-57.046207427978516,0
1149.807999999999,-0.000267408526269719,-0.00014642393216490746,-0.00012921728193759918,0.0,0.0,0.0,0.0,0.00029596182866953313,0.001168037997558713,0.001010107807815075,1.0020164251327515,0.0,0.0,0.0,0.31453755497932434,2.2835936546325684,4.449427604675293,-56.931922912597656,0
1159.732,-0.000276082573691383,-8.302571950480342e-05,-0.00020648603094741702,0.0,0.0,0.0,0.0,-0.0024503448512405157,-0.002300925087183714,0.0015781410038471222,1.001625895500183,0.0,0.0,0.0,0.3070930540561676,2.293884515762329,4.450981616973877,-55.58445739746094,0
1169.6419999999998,-0.00016831548418849707,-0.00014399300562217832,-0.00013224242138676345,0.0,0.0,0.0,0.0,0.0012575301807373762,0.0033348887227475643,-0.0022770606447011232,1.0012892484664917,0.0,0.0,0.0,0.30685147643089294,2.2931551933288574,4.452722072601318,-55.54072952270508,0
1179.5640000000003,-0.00018693957827053964,-9.133050480159e-05,-0.00019497824541758746,0.0,0.0,0.0,0.0,0.0020642904564738274,-0.0037799295969307423,0.0038160248659551144,0.9992554187774658,0.0,0.0,0.0,0.305510938167572,2.2894604206085205,4.442904949188232,-55.29808807373047,0
1189.4619999999995,-0.00022196558711584657,-6.689270958304405e-05,-0.00014524129801429808,0.0,0.0,0.0,0.0,-0.0025139222852885723,0.0007142380927689373,-0.0010230840416625142,1.0013644695281982,0.0,0.0,0.0,0.3063240647315979,2.2843785285949707,4.443584442138672,-55.44526290893555,0
1199.3779999999988,-0.0002506739692762494,-2.519944609957747e-05,-0.00020886186393909156,0.0,0.0,0.0,0.0,-0.0017695738933980465,-0.0006104340427555144,0.0031586543191224337,0.9996026754379272,0.0,0.0,0.0,0.30535608530044556,2.287949800491333,4.435600757598877,-55.27006149291992,0
1209.2889999999989,-0.0002459601382724941,-2.859081723727286e-05,-0.00015422020805999637,0.0,0.0,0.0,0.0,0.0011906999861821532,-0.0016706096939742565,0.0038468465209007263,0.9985960125923157,0.0,0.0,0.0,0.30635225772857666,2.284236431121826,4.433512210845947,-55.45036697387695,0
1219.2160000000003,-0.00033120851730927825,-2.930503796960693e-05,-0.00016602061805315316,0.0,0.0,0.0,0.0,-0.0020071195904165506,-0.0030991036910563707,-0.0012911254307255149,1.0001249313354492,0.0,0.0,0.0,0.30695006251335144,2.2783308029174805,4.429009914398193,-55.558570861816406,0
1229.1219999999994,-0.00020148020121268928,-0.0001264577149413526,-9.472006058786064e-05,0.0,0.0,0.0,0.0,0.0028800119180232286,0.00038335841963998973,-0.00013474632578436285,0.9989726543426514,0.0,0.0,0.0,0.30707308650016785,2.2653932571411133,4.461557865142822,-55.58083724975586,0
1239.0460000000003,-0.0002200273738708347,-6.05016975896433e-05,-0.0001622975105419755,0.0,0.0,0.0,0.0,-0.0005853110342286527,0.0005934210494160652,0.001254764385521412,0.9992024302482605,0.0,0.0,0.0,0.3073590099811554,2.256631374359131,4.455948829650879,-55.63259506225586,0
1248.9429999999993,-0.00022899922623764724,-0.00010811309766722843,-0.00013361647143028677,0.0,0.0,0.0,0.0,-0.0024573353584855795,-0.002929630922153592,-0.001062931725755334,1.0008186101913452,0.0,0.0,0.0,0.30136892199516296,2.2494969367980957,4.458543300628662,-54.548370361328125,0
1258.8629999999994,-0.00030275958124548197,-0.00012596022861544043,-0.0001743875618558377,0.0,0.0,0.0,0.0,-0.0012326575815677643,0.003613981418311596,-0.005706707015633583,1.0000122785568237,0.0,0.0,0.0,0.30825021862983704,2.2520692348480225,4.469412803649902,-55.793907165527344,0
1268.762999999999,-0.00027573585975915194,-0.00012543097545858473,-0.00010274359374307096,0.0,0.0,0.0,0.0,0.002160112839192152,0.005569164641201496,-0.0012113493867218494,0.999784529209137,0.0,0.0,0.0,0.30602601170539856,2.256915807723999,4.4621968269348145,-55.39131546020508,0
1278.6800000000003,-0.00029094837373122573,-6.18731282884255e-05,-0.00017971858324017376,0.0,0.0,0.0,0.0,0.00022684645955450833,-0.002915608696639538,-0.00023085114662535489,1.0008699893951416,0.0,0.0,0.0,0.2989787459373474,2.2639598846435547,4.459523677825928,-54.11574935913086,0
1288.5820000000003,-0.00020554295042529702,-0.00013283912267070264,-0.00011728623940143734,0.0,0.0,0.0,0.0,-0.0030223142821341753,-0.0025896711740642786,0.00422596326097846,1.0011646747589111,0.0,0.0,0.0,0.2988719046115875,2.2612783908843994,4.457362174987793,-54.09640884399414,0
1298.5059999999994,-0.00027889161719940603,-0.0001412242854712531,-0.0001492798764957115,0.0,0.0,0.0,0.0,-0.0030399844981729984,2.29538982239319e-05,0.002552314195781946,1.0008718967437744,0.0,0.0,0.0,0.30974921584129333,2.266049385070801,4.460411548614502,-56.065223693847656,0
1308.4099999999999,-0.0002904535795096308,-0.0001239953126059845,-8.029436867218465e-05,0.0,0.0,0.0,0.0,7.538345380453393e-05,0.0005778599297627807,0.002375211101025343,1.000125527381897,0.0,0.0,0.0,0.3099391460418701,2.2673919200897217,4.45442533493042,-56.0995979309082,0
1318.3239999999987,-0.0003485392080619931,-0.0001245444145752117,-0.0001353433181066066,0.0,0.0,0.0,0.0,-0.002109344583004713,-0.0023966573644429445,0.004318714141845703,0.9991971850395203,0.0,0.0,0.0,0.31675493717193604,2.2685937881469727,4.457103729248047,-57.33327102661133,0
1328.2279999999992,-0.0003181718639098108,-0.0001393962011206895,-5.986177711747587e-05,0.0,0.0,0.0,0.0,0.0009579945472069085,0.0002254750143038109,-0.0005733708385378122,0.9992870092391968,0.0,0.0,0.0,0.31775161623954773,2.274279832839966,4.456072807312012,-57.513671875,0
1338.1540000000005,-0.000337764824507758,-0.00011922902194783092,-0.00015891196380835027,0.0,0.0,0.0,0.0,-0.0023788148537278175,0.00033424049615859985,0.002627776702865958,1.00008225440979,0.0,0.0,0.0,0.3176574110984802,2.2711684703826904,4.45241117477417,-57.49662780761719,0
1348.0589999999993,-0.00028956972528249025,-0.00018105737399309874,-0.00010291230864822865,0.0,0.0,0.0,0.0,-0.002104506129398942,-0.0026758727617561817,-0.0017698279116302729,0.9983460307121277,0.0,0.0,0.0,0.31821855902671814,2.2687392234802246,4.446371078491211,-57.59819412231445,0
1357.9740000000002,-0.0002873717457987368,-0.00010234912042506039,-0.0002045595902018249,0.0,0.0,0.0,0.0,0.0005023066187277436,-6.794962973799556e-05,-0.0008647757349535823,1.0003280639648438,0.0,0.0,0.0,0.3105858266353607,2.289865016937256,4.466766357421875,-56.216651916503906,0
1367.8770000000004,-0.00021174215362407267,-0.00014922085392754525,-0.00013545877300202847,0.0,0.0,0.0,0.0,-0.0015843010041862726,-0.0005322155193425715,0.0014192791422829032,0.9998433589935303,0.0,0.0,0.0,0.31083592772483826,2.2921624183654785,4.465639591217041,-56.26192092895508,0
1377.8059999999987,-0.000237061467487365,-0.00010140818631043658,-0.0002104815939674154,0.0,0.0,0.0,0.0,-0.001710571232251823,-0.0001491967705078423,0.0006371475174091756,0.9977798461914062,0.0,0.0,0.0,0.3108101487159729,2.288804054260254,4.463741779327393,-56.25725173950195,0
1387.7079999999987,-0.00018197495955973864,-0.00013013002171646804,-0.00014418456703424454,0.0,0.0,0.0,0.0,0.0005814710748381913,-0.0006476824055425823,0.0028324872255325317,0.9985705018043518,0.0,0.0,0.0,0.3104895055294037,2.2920660972595215,4.4631218910217285,-56.199222564697266,0
1397.637999999999,-0.00021828370518051088,-9.080148447537795e-05,-0.00020728637173306197,0.0,0.0,0.0,0.0,-0.0017217807471752167,0.0024560485035181046,0.0005762104992754757,0.9993135333061218,0.0,0.0,0.0,0.31060951948165894,2.2865962982177734,4.464695930480957,-56.220943450927734,0
1407.5259999999998,-0.00017188064521178603,-0.00011607230408117175,-0.00014647151692770422,0.0,0.0,0.0,0.0,0.0030077865812927485,-0.00042140166624449193,0.0009054580004885793,0.999854564666748,0.0,0.0,0.0,0.3100590109825134,2.2845542430877686,4.452131748199463,-56.121299743652344,0
1417.4470000000001,-0.00021078700956422836,-7.887912215664983e-05,-0.00021239170746412128,0.0,0.0,0.0,0.0,0.0018470900831744075,-0.0005118657136335969,0.0037784904707223177,1.0007838010787964,0.0,0.0,0.0,0.310126394033432,2.27439284324646,4.447403907775879,-56.13349533081055,0
1427.3500000000004,-0.00023545889416709542,-7.656267553102225e-05,-0.00016929778212215751,0.0,0.0,0.0,0.0,-0.0004574748163577169,-0.0008991590584628284,-0.0008454472408629954,1.0002418756484985,0.0,0.0,0.0,0.3100370764732361,2.2680933475494385,4.441831588745117,-56.11732482910156,0
1437.271999999999,-0.0002688210806809366,-3.825386374955997e-05,-0.0002458519593346864,0.0,0.0,0.0,0.0,0.003258763113990426,0.0034316207747906446,0.0011151889339089394,0.9982274174690247,0.0,0.0,0.0,0.3082566559314728,2.267786741256714,4.439894199371338,-55.79507064819336,0
1447.1749999999993,-0.00019706354942172766,-5.804131069453433e-05,-0.00017079825920518488,0.0,0.0,0.0,0.0,-0.00021568576630670577,0.005107143893837929,0.00018223021470475942,0.9990419149398804,0.0,0.0,0.0,0.307844877243042,2.255204677581787,4.424556732177734,-55.72053146362305,0
1457.098,-0.0002506729506421834,-5.0735456170514226e-05,-0.00023487280122935772,0.0,0.0,0.0,0.0,0.00017530944023746997,-0.004970761016011238,0.0030273236334323883,0.9998149275779724,0.0,0.0,0.0,0.30842071771621704,2.251732587814331,4.40700101852417,-55.82476806640625,0
1467.0059999999994,-0.0001684898161329329,-0.0001324635959463194,-0.00018525401537772268,0.0,0.0,0.0,0.0,0.0007674174848943949,-0.0021324458066374063,-0.0023190807551145554,0.9992361664772034,0.0,0.0,0.0,0.30935439467430115,2.2510428428649902,4.414391040802002,-55.99375534057617,0
1476.9279999999999,-0.00021340895909816027,-8.677729056216776e-05,-0.00024315544578712434,0.0,0.0,0.0,0.0,-0.0001672016951488331,-0.0008238579612225294,-0.0002736790629569441,1.000646948814392,0.0,0.0,0.0,0.30773428082466125,2.24717378616333,4.41745662689209,-55.70051193237305,0
1486.824999999999,-0.00016219558892771602,-0.00010754425602499396,-0.00017777225002646446,0.0,0.0,0.0,0.0,-0.001072121667675674,-0.0023846644908189774,0.0002136481343768537,1.0019618272781372,0.0,0.0,0.0,0.3076135218143463,2.246297836303711,4.4169840812683105,-55.678653717041016,0
1496.7520000000004,-0.00020534900249913335,-8.347188122570515e-05,-0.00024227649555541575,0.0,0.0,0.0,0.0,-0.005106146447360516,0.00649223430082202,0.001583963050507009,1.0027488470077515,0.0,0.0,0.0,0.2980848550796509,2.2568955421447754,4.426884174346924,-53.953948974609375,0
1506.6499999999996,-0.0002297367318533361,-6.81886012898758e-05,-0.00019074526790063828,0.0,0.0,0.0,0.0,0.0012170607224106789,-0.001609051483683288,0.0014552813954651356,1.0016173124313354,0.0,0.0,0.0,0.2980804741382599,2.2616679668426514,4.40961217880249,-53.95315933227539,0
1516.565999999999,-0.00028239376842975616,-9.044095349963754e-05,-0.00026998555404134095,0.0,0.0,0.0,0.0,0.0008735706214793026,0.0012939373264089227,-0.0009192189900204539,1.0016276836395264,0.0,0.0,0.0,0.29102009534835815,2.255722761154175,4.423243999481201,-52.67521667480469,0
1526.4699999999993,-0.0002601288724690676,-8.034585334826261e-05,-0.00019671901827678084,0.0,0.0,0.0,0.0,0.0034750208724290133,0.0019056822638958693,-0.003220742102712393,1.0008691549301147,0.0,0.0,0.0,0.29081466794013977,2.255861520767212,4.418355941772461,-52.63803482055664,0
1536.3959999999988,-0.00034476647851988673,-9.787668386707082e-05,-0.0002294700825586915,0.0,0.0,0.0,0.0,-0.001234777388162911,-0.00046251187450252473,0.0019223967101424932,1.0003937482833862,0.0,0.0,0.0,0.29748424887657166,2.247981309890747,4.418635368347168,-53.845237731933594,0
1546.3019999999997,-0.0003171881544403732,-9.885380131890997e-05,-0.00015088051441125572,0.0,0.0,0.0,0.0,-0.002342104446142912,0.0018753950716927648,-0.0008804550743661821,0.9985817670822144,0.0,0.0,0.0,0.2976776659488678,2.2507481575012207,4.410937786102295,-53.8802490234375,0
1556.2160000000003,-0.0003652021405287087,-0.00011256155994487926,-0.00023337620950769633,0.0,0.0,0.0,0.0,-0.0014036325737833977,-0.0024238387122750282,-0.002030791714787483,0.9994828104972839,0.0,0.0,0.0,0.28933006525039673,2.2532804012298584,4.418372631072998,-52.369319915771484,0
1566.125,-0.00031013271654956043,-0.00011556367098819464,-0.00014369575364980847,0.0,0.0,0.0,0.0,0.0012266280828043818,-0.009693569503724575,0.00017011602176353335,1.0009630918502808,0.0,0.0,0.0,0.28851690888404846,2.2542569637298584,4.417754650115967,-52.222137451171875,0
1576.0460000000003,-0.00038370961556211114,-0.00012190862616989762,-0.00018994086713064462,0.0,0.0,0.0,0.0,0.0001249925117008388,0.005117848049849272,0.00024398880486842245,0.9989949464797974,0.0,0.0,0.0,0.2891378402709961,2.2565865516662598,4.4355034828186035,-52.33452606201172,0
1585.949999999999,-0.00026523711858317256,-0.0001377760636387393,-7.236729288706556e-05,0.0,0.0,0.0,0.0,0.002565670758485794,-0.0008158927666954696,-0.002887319540604949,0.9999276399612427,0.0,0.0,0.0,0.2905900478363037,2.2574687004089355,4.459268569946289,-52.597373962402344,0
1595.8670000000002,-0.0002779852075036615,-8.176475967047736e-05,-0.00016710809723008424,0.0,0.0,0.0,0.0,0.0024885607417672873,0.00012947320647072047,0.0007283983286470175,0.99910968542099,0.0,0.0,0.0,0.2812775671482086,2.2642829418182373,4.474567413330078,-50.91179656982422,0
1605.7889999999989,-0.00028393554384820163,-8.847471326589584e-05,-0.00010424418724142015,0.0,0.0,0.0,0.0,0.003782125888392329,-0.0022177412174642086,-0.0005502550047822297,1.0006909370422363,0.0,0.0,0.0,0.2819522023200989,2.2591850757598877,4.467869758605957,-51.033905029296875,0
1615.6989999999987,-0.0003070002421736717,-4.152471956331283e-05,-0.00019352883100509644,0.0,0.0,0.0,0.0,-0.001370197394862771,-6.260821828618646e-05,0.0016042656498029828,1.0015974044799805,0.0,0.0,0.0,0.27479130029678345,2.2621684074401855,4.485774040222168,-49.737770080566406,0
1625.6149999999998,-0.00029466915293596685,-6.376377132255584e-05,-0.00013303861487656832,0.0,0.0,0.0,0.0,0.0009524374036118388,0.0011458424851298332,0.0003568436950445175,0.998885452747345,0.0,0.0,0.0,0.27499330043792725,2.2626004219055176,4.483962059020996,-49.77433395385742,0
1635.5249999999996,-0.00032320921309292316,-1.156796315626707e-05,-0.00021700245270039886,0.0,0.0,0.0,0.0,-0.0002667585213202983,-0.003764047985896468,0.0008317208848893642,1.0009456872940063,0.0,0.0,0.0,0.2755527198314667,2.260406494140625,4.482717514038086,-49.875587463378906,0
1645.4439999999995,-0.00027539313305169344,-5.862559919478372e-05,-0.00015369290485978127,0.0,0.0,0.0,0.0,-0.002077155513688922,0.001053188811056316,-0.004567089956253767,1.0008320808410645,0.0,0.0,0.0,0.27647244930267334,2.259634017944336,4.483051776885986,-50.04206466674805,0
1655.3459999999995,-0.0003058293950743973,-1.3577548088505864e-05,-0.00023524221614934504,0.0,0.0,0.0,0.0,-0.001550845568999648,0.003948602359741926,4.603634442901239e-05,0.999748945236206,0.0,0.0,0.0,0.27614066004753113,2.253107786178589,4.471341133117676,-49.98201370239258,0
1665.2559999999994,-0.00019372717360965908,-5.696505104424432e-05,-0.00013995547487866133,0.0,0.0,0.0,0.0,-0.001342814532108605,-0.00043955573346465826,-0.0008536135428585112,0.9991065263748169,0.0,0.0,0.0,0.27753734588623047,2.2471866607666016,4.4962544441223145,-50.23480987548828,0
1675.1759999999995,-0.000209006859222427,-1.8233040464110672e-05,-0.0002345112879993394,0.0,0.0,0.0,0.0,-6.850175122963265e-05,0.0029392524156719446,0.000749184750020504,0.9979678988456726,0.0,0.0,0.0,0.27604106068611145,2.2421836853027344,4.494492530822754,-49.96398162841797,0
1685.0810000000001,-0.0001382010377710685,-0.00010954686149489135,-0.00019104051170870662,0.0,0.0,0.0,0.0,-0.0020395847968757153,0.002419366268441081,-0.0014628275530412793,1.0000412464141846,0.0,0.0,0.0,0.2764260768890381,2.2387471199035645,4.486067295074463,-50.033668518066406,0
1694.9809999999998,-0.00018681873916648328,-7.607562292832881e-05,-0.00023818857152946293,0.0,0.0,0.0,0.0,0.00033324831747449934,0.00037949628313072026,0.0007101558148860931,0.9999526143074036,0.0,0.0,0.0,0.2847677767276764,2.2464072704315186,4.4914655685424805,-51.54353332519531,0
1704.9139999999989,-0.00013585350825451314,-0.0001634089567232877,-0.0002027674054261297,0.0,0.0,0.0,0.0,-0.0022245256695896387,-0.0014459289377555251,0.004485866986215115,1.001955509185791,0.0,0.0,0.0,0.28466516733169556,2.2448742389678955,4.4873433113098145,-51.52496337890625,0
1714.8199999999997,-0.000167852223967202,-0.00012027343473164365,-0.00026466030976735055,0.0,0.0,0.0,0.0,-0.00011743552749976516,0.000845329777803272,0.0022914609871804714,0.9993599653244019,0.0,0.0,0.0,0.2835049629211426,2.245420455932617,4.487524032592773,-51.314964294433594,0
1724.7309999999998,-0.00013014297292102128,-0.00018429633928462863,-0.00022485981753561646,0.0,0.0,0.0,0.0,-0.0034387342166155577,-0.0010620052926242352,0.0008481054101139307,0.9965176582336426,0.0,0.0,0.0,0.28251591324806213,2.236542224884033,4.475207328796387,-51.13594055175781,0
1734.6299999999992,-0.00022272454225458205,-0.00020527836750261486,-0.00023694032279308885,0.0,0.0,0.0,0.0,0.0018788089510053396,-0.0006044586189091206,0.0031799334101378918,0.9994103312492371,0.0,0.0,0.0,0.291416198015213,2.238750696182251,4.466525077819824,-52.74691390991211,0
1744.5569999999989,-0.00019374550902284682,-0.00020822230726480484,-0.0001677616819506511,0.0,0.0,0.0,0.0,-0.0018205528613179922,0.0018933810060843825,-0.0016639522509649396,1.000407099723816,0.0,0.0,0.0,0.29171979427337646,2.234457015991211,4.460267543792725,-52.80186462402344,0
1754.4660000000003,-0.00026429840363562107,-0.0001931444276124239,-0.00019344290194567293,0.0,0.0,0.0,0.0,-0.00041242936276830733,-0.002667258959263563,0.0034599918872117996,1.0003998279571533,0.0,0.0,0.0,0.29901257157325745,2.2373838424682617,4.4593186378479,-54.12186813354492,0
1764.3729999999996,-0.0002885551657527685,-0.00015627153334207833,-0.00012452260125428438,0.0,0.0,0.0,0.0,0.0009223130764439702,0.006207836791872978,-0.001896343776024878,0.999394953250885,0.0,0.0,0.0,0.29949790239334106,2.233538866043091,4.461977005004883,-54.209716796875,0
1774.2839999999997,-0.0003525836218614131,-0.00017523854330647737,-0.00018047298362944275,0.0,0.0,0.0,0.0,0.0005299515905790031,0.0010806616628542542,0.0006304857088252902,0.9997119307518005,0.0,0.0,0.0,0.2992756962776184,2.230388641357422,4.450104236602783,-54.169498443603516,0
1784.2070000000003,-0.00033128622453659773,-0.00017352131544612348,-0.00010486721294000745,0.0,0.0,0.0,0.0,-0.0013616651995107532,0.00232165539637208,-0.003029066137969494,1.000988483428955,0.0,0.0,0.0,0.2994288206100464,2.227571487426758,4.436296463012695,-54.19721221923828,0
1794.1029999999992,-0.0003720746608451009,-0.00015588937094435096,-0.0001784198684617877,0.0,0.0,0.0,0.0,-0.0016197728691622615,-0.003666937118396163,-0.002930130809545517,1.0018160343170166,0.0,0.0,0.0,0.29835575819015503,2.228973150253296,4.430626392364502,-54.00298309326172,0
1804.0200000000004,-0.0003313709166832268,-0.00016295134264510125,-9.677465277491137e-05,0.0,0.0,0.0,0.0,-0.0005670329555869102,0.007647164631634951,-0.0025834410917013884,0.9995341897010803,0.0,0.0,0.0,0.2973017692565918,2.2300398349761963,4.429831027984619,-53.81221008300781,0
1813.9319999999989,-0.00036842183908447623,-9.524037886876613e-05,-0.0001488995476393029,0.0,0.0,0.0,0.0,0.002039137529209256,0.0002128875203197822,0.0010325332405045629,0.9997286796569824,0.0,0.0,0.0,0.3061560392379761,2.2492682933807373,4.427287578582764,-55.41485595703125,0
1823.8509999999987,-0.00032119679963216186,-0.0001240371639141813,-7.363514305325225e-05,0.0,0.0,0.0,0.0,-0.004090948961675167,-0.00013443581701721996,-0.0004683602601289749,1.0003688335418701,0.0,0.0,0.0,0.30648645758628845,2.2410218715667725,4.421432018280029,-55.47465896606445,0
1833.7619999999988,-0.0003654505708254874,-6.604569352930412e-05,-0.00011694921704474837,0.0,0.0,0.0,0.0,0.000719233532436192,0.00042893894715234637,0.001652272418141365,0.9986973404884338,0.0,0.0,0.0,0.30574628710746765,2.244631767272949,4.422895431518555,-55.34068298339844,0
1843.6729999999989,-0.00031407875940203667,-0.00011598918354138732,-4.998662552679889e-05,0.0,0.0,0.0,0.0,0.005643084645271301,0.005657413508743048,0.0016566843260079622,0.9992970824241638,0.0,0.0,0.0,0.3055883049964905,2.246737480163574,4.419338226318359,-55.31209182739258,0
1853.5739999999987,-0.00031483900966122746,-5.199046790949069e-05,-0.0001508239802205935,0.0,0.0,0.0,0.0,0.0017175446264445782,-0.00418343348428607,0.003279291559010744,0.9998053908348083,0.0,0.0,0.0,0.3057882785797119,2.234182119369507,4.4111456871032715,-55.34828567504883,0
1863.5119999999988,-0.00028053883579559624,-9.920651064021513e-05,-9.690981823951006e-05,0.0,0.0,0.0,0.0,-0.0032405806705355644,-0.004042887128889561,-0.00104226334951818,0.9998135566711426,0.0,0.0,0.0,0.3061063587665558,2.2339284420013428,4.423168659210205,-55.405860900878906,0
1873.3959999999988,-0.00033824576530605555,-6.481590389739722e-05,-0.00013528316048905253,0.0,0.0,0.0,0.0,-0.0016544560203328729,0.0018621496856212616,0.002057919278740883,0.9985964894294739,0.0,0.0,0.0,0.31380167603492737,2.2391395568847656,4.4301228523254395,-56.798728942871094,0
1883.325999999999,-0.00029593566432595253,-9.676991612650454e-05,-6.91847235430032e-05,0.0,0.0,0.0,0.0,0.0032313845586031675,0.001047884812578559,-0.003120619570836425,0.9973180890083313,0.0,0.0,0.0,0.31369808316230774,2.2371139526367188,4.424939155578613,-56.779972076416016,0
1893.2209999999995,-0.00030740644433535635,-4.194382927380502e-05,-0.0001627446326892823,0.0,0.0,0.0,0.0,-0.0009625517996028066,-0.0009807173628360033,0.0022159572690725327,0.99952632188797,0.0,0.0,0.0,0.3194417655467987,2.244734287261963,4.436070919036865,-57.8195915222168,0
1903.146999999999,-0.00020590319763869047,-0.0001482231600675732,-0.00011409950820961967,0.0,0.0,0.0,0.0,0.003105147974565625,0.00048085313756018877,-0.0009941288735717535,0.9992510676383972,0.0,0.0,0.0,0.3194437623023987,2.2432403564453125,4.431301116943359,-57.8199577331543,0
1913.045,-0.00022405199706554413,-8.537748362869024e-05,-0.00019303204317111522,0.0,0.0,0.0,0.0,-0.0018448242917656898,-0.0028536971658468246,0.0007623636047355831,0.9992229342460632,0.0,0.0,0.0,0.31871628761291504,2.2342963218688965,4.421299457550049,-57.68828201293945,0
1922.9660000000003,-0.00016403733752667904,-0.00014452880714088678,-0.00014416742487810552,0.0,0.0,0.0,0.0,-0.0008949291659519076,-0.000872570788487792,0.00031084814690984786,0.999657928943634,0.0,0.0,0.0,0.31936174631118774,2.228444814682007,4.425864219665527,-57.805110931396484,0
1932.8729999999996,-0.00019168909057043493,-9.762092668097466e-05,-0.00021764532721135765,0.0,0.0,0.0,0.0,-0.0005295252776704729,0.00017430423758924007,0.0017336891032755375,1.0007593631744385,0.0,0.0,0.0,0.3133035898208618,2.238556385040283,4.440510272979736,-56.70857620239258,0
1942.798999999999,-0.00015284327673725784,-0.00012595742009580135,-0.00016599336231593043,0.0,0.0,0.0,0.0,-0.0029426647815853357,-0.001387023483403027,0.0011931596091017127,0.9998754858970642,0.0,0.0,0.0,0.3135232627391815,2.236375331878662,4.436553478240967,-56.74833297729492,0
1952.700999999999,-0.00018652154540177435,-8.898266241885722e-05,-0.00023856537882238626,0.0,0.0,0.0,0.0,0.0006534564308822155,0.0031338934786617756,0.0019916181918233633,0.9993325471878052,0.0,0.0,0.0,0.3045197129249573,2.253851890563965,4.442538738250732,-55.11867141723633,0
1962.6170000000002,-0.00018921971786767244,-0.00013699449482373893,-0.00021693139569833875,0.0,0.0,0.0,0.0,-0.0011157355038449168,-0.004157513380050659,0.0032755678985267878,1.0000200271606445,0.0,0.0,0.0,0.30596381425857544,2.250913143157959,4.438543319702148,-55.38005828857422,0
1972.5190000000002,-0.00024197317543439567,-0.00015366228763014078,-0.0002953048388008028,0.0,0.0,0.0,0.0,0.001386727555654943,-0.003922020085155964,0.0022324463352560997,0.9982476830482483,0.0,0.0,0.0,0.29882028698921204,2.253234624862671,4.447099685668945,-54.08707046508789,0
1982.4470000000001,-0.00017508793098386377,-0.00017161224968731403,-0.0002266380615765229,0.0,0.0,0.0,0.0,-0.003096179571002722,-0.0030438904650509357,0.0010887258686125278,0.9992465972900391,0.0,0.0,0.0,0.2988000512123108,2.2514233589172363,4.447348117828369,-54.08340835571289,0
1992.342999999999,-0.0002101696445606649,-0.00011414966138545424,-0.00028972997097298503,0.0,0.0,0.0,0.0,-0.0008558994741179049,0.00482145743444562,0.0011796080507338047,0.9998542666435242,0.0,0.0,0.0,0.2988702356815338,2.2549917697906494,4.45130729675293,-54.09610366821289,0
2002.2649999999994,-0.0001541255769552663,-0.00015835140948183835,-0.00023798645997885615,0.0,0.0,0.0,0.0,-0.0011799735948443413,-0.002181634306907654,-0.003232868853956461,0.9983786344528198,0.0,0.0,0.0,0.2988901138305664,2.2513506412506104,4.442147254943848,-54.09970474243164,0
2012.1669999999995,-0.00019605153647717088,-0.00012049202632624656,-0.00030029533081687987,0.0,0.0,0.0,0.0,-0.0004062581283506006,-0.0004108596476726234,-0.0009495675913058221,0.9993623495101929,0.0,0.0,0.0,0.29086431860923767,2.265559196472168,4.454074859619141,-52.64702224731445,0
2022.092999999999,-0.0001501189253758639,-0.0001485139218857512,-0.0002480632974766195,0.0,0.0,0.0,0.0,-0.0019853608682751656,-0.0019686147570610046,-0.005143257789313793,1.000315546989441,0.0,0.0,0.0,0.2905620336532593,2.2587456703186035,4.450129508972168,-52.59230422973633,0
2031.9930000000004,-0.00025113963056355715,-0.0001726164628053084,-0.00025642820401117206,0.0,0.0,0.0,0.0,-0.001172548858448863,0.001980894012376666,-0.003418190171942115,1.0007860660552979,0.0,0.0,0.0,0.29072046279907227,2.2549703121185303,4.447677135467529,-52.6209831237793,0
2041.9130000000005,-0.00020772955031134188,-0.00012560951290652156,-0.00018884564633481205,0.0,0.0,0.0,0.0,0.0009738498483784497,0.007722107693552971,0.001995355123654008,1.0014647245407104,0.0,0.0,0.0,0.2894589304924011,2.2577455043792725,4.443149566650391,-52.39264678955078,0
2051.815999999999,-0.00030798849184066057,-0.00014785464736633003,-0.00019015776342712343,0.0,0.0,0.0,0.0,0.001887870253995061,0.0037473610136657953,-0.0036088209599256516,1.0000449419021606,0.0,0.0,0.0,0.28960174322128296,2.2485334873199463,4.433348655700684,-52.418487548828125,0
2061.741,-0.00028737683896906674,-0.00011621470184763893,-0.00013700028648599982,0.0,0.0,0.0,0.0,0.0017529025208204985,0.0035412332508713007,-0.0018021352589130402,0.9998408555984497,0.0,0.0,0.0,0.2891780734062195,2.2451229095458984,4.423261642456055,-52.34181213378906,0
2071.642,-0.00039015780203044415,-0.00013417088484857231,-0.00013245036825537682,0.0,0.0,0.0,0.0,0.0002447673468850553,0.00011567310139071196,-0.000409657193813473,1.0016107559204102,0.0,0.0,0.0,0.2889511287212372,2.240570306777954,4.411345481872559,-52.30072784423828,0
2081.562,-0.0002902221167460084,-0.0001481409271946177,-7.557602657470852e-05,0.0,0.0,0.0,0.0,0.0032468719873577356,-0.0010578690562397242,0.006200259551405907,0.9997861385345459,0.0,0.0,0.0,0.2831672430038452,2.2325518131256104,4.455394744873047,-51.25383377075195,0
2091.467999999999,-0.00030104766483418643,-0.0001453693985240534,-3.358108733664267e-05,0.0,0.0,0.0,0.0,-0.0003185621462762356,0.003558144671842456,-0.0029555191285908222,0.998386800289154,0.0,0.0,0.0,0.28347182273864746,2.2270915508270264,4.448729991912842,-51.308963775634766,0
2101.388999999999,-0.000394875300116837,-0.00016526947729289532,-2.0286690414650366e-05,0.0,0.0,0.0,0.0,-0.0018655499443411827,-0.0012072831159457564,-0.001723904861137271,0.9987024664878845,0.0,0.0,0.0,0.28315621614456177,2.222320318222046,4.438981056213379,-51.251834869384766,0
2111.2909999999993,-0.0003545933577697724,-0.00016485703235957772,4.210710903862491e-05,0.0,0.0,0.0,0.0,0.0006648538983426988,0.0008457514923065901,-0.002577707404270768,1.000657558441162,0.0,0.0,0.0,0.28022295236587524,2.2257637977600098,4.498803615570068,-50.72091293334961,0
2121.214,-0.00044400038314051926,-0.00018694378377404064,5.8017940318677574e-05,0.0,0.0,0.0,0.0,0.0012880538124591112,-0.0017975870287045836,0.0012014213716611266,0.9993075728416443,0.0,0.0,0.0,0.2800818979740143,2.2213447093963623,4.499122142791748,-50.69538116455078,0
2131.117,-0.0004139567317906767,-0.00020191745716147125,0.00012367349700070918,0.0,0.0,0.0,0.0,-0.000832470366731286,0.0010207627201452851,-0.003066950011998415,0.9981455206871033,0.0,0.0,0.0,0.27831318974494934,2.217815637588501,4.5641069412231445,-50.375240325927734,0
2141.039999999999,-0.0004955081967636943,-0.00022562559752259403,0.0001436616585124284,0.0,0.0,0.0,0.0,-0.0025042775087058544,0.0009322034893557429,-0.0002934475487563759,0.9992883801460266,0.0,0.0,0.0,0.27697280049324036,2.2181313037872314,4.555057048797607,-50.132625579833984,0
2150.9390000000003,-0.0004419614269863814,-0.0002962587750516832,0.00020522715931292623,0.0,0.0,0.0,0.0,-0.0030763016548007727,0.0016697465907782316,0.0016414769925177097,0.9981510043144226,0.0,0.0,0.0,0.28147467970848083,2.190035820007324,4.635878562927246,-50.947479248046875,0
2160.8639999999996,-0.000513912586029619,-0.0003293894696980715,0.0002269732503918931,0.0,0.0,0.0,0.0,4.848669050261378e-05,-0.0005869617452844977,0.00042638331069611013,0.9977288246154785,0.0,0.0,0.0,0.28057461977005005,2.192965269088745,4.626428127288818,-50.78456497192383,0
2170.763999999999,-0.0005899720708839595,-0.00036333617754280567,0.0002468419261276722,0.0,0.0,0.0,0.0,0.0014261257601901889,-0.0023806430399417877,0.003637111745774746,0.9985247254371643,0.0,0.0,0.0,0.27927541732788086,2.1922225952148438,4.625582218170166,-50.549400329589844,0
2180.687,-0.0006705662235617638,-0.0003972493577748537,0.00026491080643609166,0.0,0.0,0.0,0.0,0.0014097129460424185,-0.0010880106128752232,-0.0025165705010294914,0.9980506300926208,0.0,0.0,0.0,0.2796389162540436,2.1928324699401855,4.620865345001221,-50.615203857421875,0
2190.5869999999995,-0.0005831919843330979,-0.00043521507177501917,0.00035601260606199503,0.0,0.0,0.0,0.0,-0.00014717146405018866,-0.003011411288753152,0.0027657311875373125,0.99983149766922,0.0,0.0,0.0,0.27526167035102844,2.1886489391326904,4.705743312835693,-49.822906494140625,0
2200.5059999999994,-0.0006545022479258478,-0.00047301710583269596,0.0003775572404265404,0.0,0.0,0.0,0.0,-0.004049292299896479,0.0007227733731269836,-0.004915030673146248,1.0000064373016357,0.0,0.0,0.0,0.27455785870552063,2.1865830421447754,4.704916954040527,-49.69551467895508,0
2210.411,-0.0005955733940936625,-0.0004678916884586215,0.00047715436085127294,0.0,0.0,0.0,0.0,-0.0019629793241620064,0.002131871646270156,-0.004344305954873562,1.0010027885437012,0.0,0.0,0.0,0.2757307291030884,2.2006239891052246,4.769477844238281,-49.90781021118164,0
