timestamp,stateEstimate.x,stateEstimate.y,stateEstimate.z,controller.cmd_thrust,controller.cmd_roll,controller.cmd_pitch,controller.cmd_yaw,controller.r_roll,controller.r_pitch,controller.r_yaw,controller.accelz,controller.actuatorThrust,controller.roll,controller.pitch,controller.yaw,controller.rollRate,controller.pitchRate,controller.yawRate,controller.ctr_yaw
0.0,-0.001962021691724658,-0.02114189974963665,0.0004197779926471412,0.0,0.0,0.0,0.0,0.003510282142087817,-0.0005262629711069167,-6.273421604419127e-05,0.9991136789321899,0.0,0.0,0.0,1.174851655960083,2.3774709701538086,5.1728620529174805,-212.6504669189453,0
9.920000000000073,-0.0019757605623453856,-0.021123632788658142,0.0003809301124420017,0.0,0.0,0.0,0.0,-0.00220473762601614,0.006499858573079109,0.00025590680888853967,1.0003318786621094,0.0,0.0,0.0,1.1735159158706665,2.3717379570007324,5.1697611808776855,-212.40872192382812,0
19.825000000000728,-0.0020124490838497877,-0.021139422431588173,0.0003730015887413174,0.0,0.0,0.0,0.0,0.000124589292681776,-0.002553500235080719,-0.001524183084256947,0.9976944923400879,0.0,0.0,0.0,1.1718499660491943,2.3766181468963623,5.152278423309326,-212.10716247558594,0
29.74699999999939,-0.002035729819908738,-0.02110694907605648,0.00034763760049827397,0.0,0.0,0.0,0.0,-0.0013142492389306426,-0.0009228183189406991,0.0004091327718924731,1.001163125038147,0.0,0.0,0.0,1.1699413061141968,2.3760383129119873,5.157405853271484,-211.76170349121094,0
39.652000000000044,-0.0020732595585286617,-0.021120378747582436,0.00033698201877996325,0.0,0.0,0.0,0.0,0.0024635072331875563,0.0003589882398955524,0.0020335123408585787,0.9993080496788025,0.0,0.0,0.0,1.1689821481704712,2.3759522438049316,5.154452323913574,-211.5880889892578,0
49.568999999999505,-0.0020899581722915173,-0.02113644778728485,0.00026911910390481353,0.0,0.0,0.0,0.0,-0.0018112194957211614,0.0024466721806675196,-0.0007055261521600187,1.0000214576721191,0.0,0.0,0.0,1.1680219173431396,2.3719022274017334,5.141765117645264,-211.41429138183594,0
59.472999999999956,-0.002128371736034751,-0.021148914471268654,0.00025468430249020457,0.0,0.0,0.0,0.0,-0.0012179528130218387,2.201935240009334e-05,0.0004135447961743921,0.998191237449646,0.0,0.0,0.0,1.1660219430923462,2.3721296787261963,5.126589775085449,-211.0522918701172,0
69.39500000000044,-0.0021313633769750595,-0.0210872869938612,0.0001738523133099079,0.0,0.0,0.0,0.0,5.418964792625047e-05,-0.003446521470323205,-0.0021162640769034624,0.9975254535675049,0.0,0.0,0.0,1.1646591424942017,2.373115062713623,5.119240760803223,-210.80563354492188,0
79.29399999999987,-0.0021682956721633673,-0.02109510824084282,0.00015188715769909322,0.0,0.0,0.0,0.0,-0.0032847358379513025,-0.0021715343464165926,-0.00022765308676753193,0.998221755027771,0.0,0.0,0.0,1.163041114807129,2.3687846660614014,5.120849132537842,-210.5127410888672,0
89.22099999999955,-0.0021496606059372425,-0.02102678269147873,1.9523438822943717e-05,0.0,0.0,0.0,0.0,0.002238245913758874,0.0033117204438894987,0.0023029043804854155,1.0001115798950195,0.0,0.0,0.0,1.1716448068618774,2.394927978515625,5.150050163269043,-212.07003784179688,0
99.12199999999939,-0.002184000564739108,-0.021029306575655937,-1.3482720532920212e-05,0.0,0.0,0.0,0.0,-0.00403442932292819,0.00040785709279589355,-0.000270421733148396,0.9977751970291138,0.0,0.0,0.0,1.1712708473205566,2.3873419761657715,5.139289379119873,-212.00234985351562,0
109.04199999999946,-0.0022073567379266024,-0.020999539643526077,-6.384795415215194e-05,0.0,0.0,0.0,0.0,0.001996442675590515,0.002303086454048753,4.615203943103552e-05,0.9974966049194336,0.0,0.0,0.0,1.1761771440505981,2.4023783206939697,5.145529270172119,-212.89041137695312,0
118.9439999999995,-0.0017817933112382889,-0.02109132893383503,0.00032650254433974624,0.0,0.0,0.0,0.0,0.0016439409228041768,0.0009806129382923245,-0.000138553194119595,0.9988242983818054,0.0,0.0,0.0,1.1692065000534058,2.383316993713379,5.239670276641846,-211.62869262695312,0
128.8719999999994,-0.001785884378477931,-0.021128930151462555,0.0002633769472595304,0.0,0.0,0.0,0.0,0.0013528636191040277,-0.0022448310628533363,-0.0011830013245344162,0.9991684556007385,0.0,0.0,0.0,1.168302059173584,2.3803508281707764,5.227663040161133,-211.46499633789062,0
138.76599999999962,-0.0017982573481276631,-0.021135440096259117,0.00024238077457994223,0.0,0.0,0.0,0.0,0.001330393715761602,0.0009044093894772232,6.639870116487145e-05,0.9996345043182373,0.0,0.0,0.0,1.166895866394043,2.375619649887085,5.220802307128906,-211.21046447753906,0
148.69200000000092,-0.0018112403340637684,-0.02116505615413189,0.0002045696455752477,0.0,0.0,0.0,0.0,-0.0009479087311774492,-0.005897851195186377,0.0019951043650507927,1.0026092529296875,0.0,0.0,0.0,1.1652082204818726,2.3744237422943115,5.21095085144043,-210.90501403808594,0
158.59000000000015,-0.0018272852757945657,-0.02117500640451908,0.00018305207777302712,0.0,0.0,0.0,0.0,-0.003349469043314457,-0.0009298631921410561,-0.0009420262067578733,1.000971794128418,0.0,0.0,0.0,1.1647568941116333,2.375591278076172,5.217645645141602,-210.8233184814453,0
168.51100000000042,-0.0018549402011558414,-0.02115746960043907,0.00020969992328900844,0.0,0.0,0.0,0.0,-0.0007865657098591328,0.0013042191276326776,-0.0002054759970633313,1.0000684261322021,0.0,0.0,0.0,1.1745834350585938,2.3833696842193604,5.208660125732422,-212.60194396972656,0
178.41599999999926,-0.0018731015734374523,-0.02116696909070015,0.00019408644584473222,0.0,0.0,0.0,0.0,-0.0025072861462831497,0.0003228549612686038,-0.001876857946626842,0.9992203712463379,0.0,0.0,0.0,1.1729867458343506,2.3814949989318848,5.196376323699951,-212.3129425048828,0
188.33899999999994,-0.001883479068055749,-0.02116912230849266,0.0001579581294208765,0.0,0.0,0.0,0.0,-0.0003547203086782247,-0.0010234516812488437,0.0009146738448180258,0.997367799282074,0.0,0.0,0.0,1.1704375743865967,2.3795158863067627,5.191154956817627,-211.8515167236328,0
198.23999999999978,-0.0019039672333747149,-0.021179605275392532,0.0001393367419950664,0.0,0.0,0.0,0.0,0.0003220172075089067,-0.0026281126774847507,-0.0001821615151129663,0.9999385476112366,0.0,0.0,0.0,1.1687934398651123,2.3737778663635254,5.185002326965332,-211.55392456054688,0
208.15999999999985,-0.0019222028786316514,-0.021181421354413033,0.00011222553439438343,0.0,0.0,0.0,0.0,-0.0018620849587023258,-0.0011945549631491303,-0.00020593032240867615,1.000151515007019,0.0,0.0,0.0,1.1681777238845825,2.3743832111358643,5.184112548828125,-211.44247436523438,0
218.0630000000001,-0.0019458981696516275,-0.021194279193878174,9.192695142701268e-05,0.0,0.0,0.0,0.0,-0.0006107870722189546,0.003786601359024644,-0.000701705866958946,0.9993123412132263,0.0,0.0,0.0,1.1667823791503906,2.3746814727783203,5.179905414581299,-211.18992614746094,0
227.9930000000004,-0.001963692717254162,-0.021182246506214142,5.9063531807623804e-05,0.0,0.0,0.0,0.0,1.6466216038679704e-05,-0.0019681788980960846,-0.0019786059856414795,0.9984723329544067,0.0,0.0,0.0,1.1658424139022827,2.3709158897399902,5.163916110992432,-211.01980590820312,0
237.88700000000063,-0.001991014461964369,-0.021195877343416214,3.732634650077671e-05,0.0,0.0,0.0,0.0,0.0005420566303655505,-0.002776057692244649,-0.0006814016378484666,1.00163733959198,0.0,0.0,0.0,1.1642416715621948,2.3648388385772705,5.162962913513184,-210.7300567626953,0
247.8070000000007,-0.002028960967436433,-0.021193262189626694,4.764390178024769e-05,0.0,0.0,0.0,0.0,0.0014786776155233383,-0.000750064617022872,0.0010056659812107682,1.000264048576355,0.0,0.0,0.0,1.1702604293823242,2.3709590435028076,5.164906024932861,-211.8194580078125,0
257.71399999999994,-0.002058278536424041,-0.0212087444961071,2.918843529187143e-05,0.0,0.0,0.0,0.0,-0.0034766062162816525,-0.0013993955217301846,0.0005175112164579332,0.9986120462417603,0.0,0.0,0.0,1.1698983907699585,2.367820978164673,5.161986827850342,-211.75393676757812,0
267.6350000000002,-0.002088355366140604,-0.021208353340625763,1.8503280443837866e-05,0.0,0.0,0.0,0.0,-0.0006795612862333655,0.0019134309841319919,-0.00031307971221394837,0.9987029433250427,0.0,0.0,0.0,1.1691378355026245,2.371583938598633,5.1600117683410645,-211.6162872314453,0
277.53600000000006,-0.002118052914738655,-0.021223632618784904,-5.58709871256724e-07,0.0,0.0,0.0,0.0,-0.0011457843938842416,0.0014932358171790838,0.0016654019709676504,1.0000872611999512,0.0,0.0,0.0,1.1681917905807495,2.369662046432495,5.158156871795654,-211.44505310058594,0
287.4549999999999,-0.0021451341453939676,-0.02120491862297058,-1.606239311513491e-05,0.0,0.0,0.0,0.0,0.0018393242498859763,0.004202771466225386,-0.0022767747286707163,1.0007392168045044,0.0,0.0,0.0,1.1763184070587158,2.37860369682312,5.150910377502441,-212.9159698486328,0
297.3649999999998,-0.002178059658035636,-0.021219804883003235,-3.489033042569645e-05,0.0,0.0,0.0,0.0,-0.0026901736855506897,-0.000701711920555681,0.005373283755034208,1.0004382133483887,0.0,0.0,0.0,1.174226999282837,2.3694510459899902,5.136634826660156,-212.5374298095703,0
307.28299999999945,-0.0022063215728849173,-0.02119905687868595,-4.869001713814214e-05,0.0,0.0,0.0,0.0,0.0014112928183749318,-0.0008449398446828127,-0.0005104534211568534,1.0016642808914185,0.0,0.0,0.0,1.1818710565567017,2.3851189613342285,5.133878707885742,-213.9210205078125,0
317.1830000000009,-0.001841011573560536,-0.021199997514486313,0.00038574301288463175,0.0,0.0,0.0,0.0,-0.0006114981370046735,-0.005049977917224169,-0.0002760293718893081,0.9998283982276917,0.0,0.0,0.0,1.172968864440918,2.3915939331054688,5.20484733581543,-212.3096923828125,0
327.10399999999936,-0.001836918294429779,-0.021162116900086403,0.00038744445191696286,0.0,0.0,0.0,0.0,-0.0015729209408164024,-0.0018498814897611737,-0.00029569005710072815,0.9981521368026733,0.0,0.0,0.0,1.1720740795135498,2.3905508518218994,5.207423210144043,-212.14773559570312,0
337.009,-0.0018561803735792637,-0.021174846217036247,0.0003914828412234783,0.0,0.0,0.0,0.0,0.0009376328089274466,0.0018009655177593231,0.0033842497505247593,1.0012152194976807,0.0,0.0,0.0,1.1710906028747559,2.388587236404419,5.200569152832031,-211.9697265625,0
346.9300000000003,-0.0018633559811860323,-0.02114630863070488,0.00039468760951422155,0.0,0.0,0.0,0.0,0.0005211028619669378,0.0017475179629400373,0.0008413706673309207,0.9984802603721619,0.0,0.0,0.0,1.1719039678573608,2.3860809803009033,5.201408863067627,-212.11695861816406,0
356.83599999999933,-0.001883179065771401,-0.021159935742616653,0.00039807191933505237,0.0,0.0,0.0,0.0,0.0006114537827670574,-0.0035737762227654457,-0.0006273344624787569,0.9977341890335083,0.0,0.0,0.0,1.1695654392242432,2.3844096660614014,5.192822456359863,-211.6936798095703,0
366.7530000000006,-0.0018942340975627303,-0.02118712291121483,0.00036593477125279605,0.0,0.0,0.0,0.0,0.000387491105357185,-0.0018876477843150496,-0.0007240059785544872,0.9999476671218872,0.0,0.0,0.0,1.177436351776123,2.375838041305542,5.190240859985352,-213.11831665039062,0
376.65899999999965,-0.0018717726925387979,-0.02109532244503498,0.0004866330127697438,0.0,0.0,0.0,0.0,-0.0011275208089500666,-0.001143240719102323,-0.00225252122618258,1.0026206970214844,0.0,0.0,0.0,1.167282223701477,2.392867088317871,5.192843437194824,-211.28041076660156,0
386.58799999999974,-0.001875880640000105,-0.02108822762966156,0.0004714338865596801,0.0,0.0,0.0,0.0,-0.0028541344217956066,0.0006516375578939915,7.578344957437366e-05,1.0010128021240234,0.0,0.0,0.0,1.1649305820465088,2.3916585445404053,5.18833065032959,-210.85475158691406,0
396.48699999999917,-0.0018991356482729316,-0.021099135279655457,0.00047839482431299984,0.0,0.0,0.0,0.0,0.0014894303167238832,0.0012848293408751488,-0.00011675825953716412,0.9999770522117615,0.0,0.0,0.0,1.1635925769805908,2.393951892852783,5.175186634063721,-210.61257934570312,0
406.40099999999984,-0.0019104396924376488,-0.021143028512597084,0.00044097023783251643,0.0,0.0,0.0,0.0,0.001354882842861116,0.0026121533010154963,0.000365155196050182,0.9999111294746399,0.0,0.0,0.0,1.1697300672531128,2.390094041824341,5.165066719055176,-211.7234649658203,0
416.3130000000001,-0.001842175843194127,-0.021084677428007126,0.0005731805576942861,0.0,0.0,0.0,0.0,-0.0010679796105250716,0.0024289051070809364,0.0028488379903137684,1.0002012252807617,0.0,0.0,0.0,1.160844326019287,2.396301507949829,5.163700580596924,-210.11512756347656,0
426.22899999999936,-0.001839779200963676,-0.021086769178509712,0.0005472347838804126,0.0,0.0,0.0,0.0,0.0015504115726798773,0.00244006235152483,-0.0013513427693396807,1.0007416009902954,0.0,0.0,0.0,1.1603143215179443,2.3972461223602295,5.1598076820373535,-210.01918029785156,0
436.1360000000004,-0.001863177865743637,-0.021098872646689415,0.0005582419689744711,0.0,0.0,0.0,0.0,-0.0004546315467450768,0.0016096493927761912,0.004239683039486408,0.9999863505363464,0.0,0.0,0.0,1.1583057641983032,2.3887939453125,5.146151065826416,-209.6556396484375,0
446.0499999999993,-0.0018619734328240156,-0.021093113347887993,0.0005312307039275765,0.0,0.0,0.0,0.0,0.0026584803126752377,0.00033031689235940576,-0.0032960749231278896,0.9993517994880676,0.0,0.0,0.0,1.1653558015823364,2.3920629024505615,5.139839172363281,-210.9317169189453,0
455.96199999999953,-0.0018861719872802496,-0.021105792373418808,0.0005398174398578703,0.0,0.0,0.0,0.0,-0.0011861126404255629,0.002138579962775111,-0.0036733027081936598,0.9994100332260132,0.0,0.0,0.0,1.1638848781585693,2.3872907161712646,5.1417694091796875,-210.66546630859375,0
465.8760000000002,-0.0018934295512735844,-0.021136868745088577,0.0004982763784937561,0.0,0.0,0.0,0.0,-0.0026726590003818274,0.005212878342717886,0.0006773822824470699,0.999220073223114,0.0,0.0,0.0,1.1622103452682495,2.3906431198120117,5.130589962005615,-210.36239624023438,0
485.6959999999999,-0.0019276695093140006,-0.02116917446255684,0.00045278933248482645,0.0,0.0,0.0,0.0,0.002423712983727455,-0.0005207050126045942,-0.002122132107615471,0.9987369775772095,0.0,0.0,0.0,1.1709165573120117,2.385819435119629,5.128122806549072,-211.93821716308594,0
495.6080000000002,-0.0019570686854422092,-0.021183742210268974,0.00045335161848925054,0.0,0.0,0.0,0.0,0.0002080820413539186,-0.0014122063294053078,-0.0010523410746827722,0.9976620674133301,0.0,0.0,0.0,1.1686090230941772,2.3812389373779297,5.118606090545654,-211.52056884765625,0
505.52399999999943,-0.0019430810352787375,-0.021121567115187645,0.00035296293208375573,0.0,0.0,0.0,0.0,0.0006750367465429008,-0.0007371511892415583,0.0023038231302052736,1.0001591444015503,0.0,0.0,0.0,1.1771503686904907,2.399878978729248,5.139915943145752,-213.06654357910156,0
515.4320000000007,-0.001972334226593375,-0.021132152527570724,0.0003439628635533154,0.0,0.0,0.0,0.0,0.0011481185210868716,0.003568809013813734,-0.004437939263880253,0.999789834022522,0.0,0.0,0.0,1.1761736869812012,2.3942060470581055,5.136785507202148,-212.88975524902344,0
525.3420000000006,-0.001976671628654003,-0.021128645166754723,0.0002649801317602396,0.0,0.0,0.0,0.0,0.0005594631074927747,0.0014736182056367397,-0.0007960646762512624,1.0005559921264648,0.0,0.0,0.0,1.1800055503845215,2.396340847015381,5.142359256744385,-213.58335876464844,0
535.2569999999996,-0.002006616210564971,-0.0211386326700449,0.0002513039216864854,0.0,0.0,0.0,0.0,0.0015275849727913737,-0.004641374573111534,-5.71451528230682e-05,0.9994457960128784,0.0,0.0,0.0,1.1785426139831543,2.400973320007324,5.13721227645874,-213.3185577392578,0
545.1659999999993,-0.0020071014296263456,-0.021089527755975723,0.00018001263379119337,0.0,0.0,0.0,0.0,-0.002983716782182455,-0.0026921313256025314,-0.0013678991235792637,0.9977109432220459,0.0,0.0,0.0,1.1898752450942993,2.414919853210449,5.1608381271362305,-215.3697967529297,0
555.0830000000005,-0.0020364911761134863,-0.021096892654895782,0.00016134246834553778,0.0,0.0,0.0,0.0,0.0032406398095190525,-0.0025967336259782314,-0.0013260783161967993,1.0010014772415161,0.0,0.0,0.0,1.1888731718063354,2.4145586490631104,5.156007289886475,-215.18841552734375,0
564.9860000000008,-0.0020481678657233715,-0.021109094843268394,8.819919457891956e-05,0.0,0.0,0.0,0.0,-0.002718268195167184,0.0030637786258012056,-0.0012626922689378262,0.9996468424797058,0.0,0.0,0.0,1.188719630241394,2.4084272384643555,5.150904178619385,-215.16062927246094,0
574.9169999999995,-0.0020789597183465958,-0.021114155650138855,6.570129335159436e-05,0.0,0.0,0.0,0.0,0.0007770763477310538,-0.004424395505338907,0.002219266491010785,0.9987267255783081,0.0,0.0,0.0,1.1871049404144287,2.4127721786499023,5.148103713989258,-214.8683624267578,0
584.8150000000005,-0.0021141122560948133,-0.021059613674879074,7.801477477187291e-05,0.0,0.0,0.0,0.0,-0.002136619295924902,0.0002424747362965718,-0.002630867063999176,0.9994134902954102,0.0,0.0,0.0,1.1955143213272095,2.428401231765747,5.150611400604248,-216.39047241210938,0
594.7309999999998,-0.002146598417311907,-0.021059850230813026,5.646207864629105e-05,0.0,0.0,0.0,0.0,-0.0007444338989444077,0.0037122920621186495,-0.0008597395499236882,1.0002950429916382,0.0,0.0,0.0,1.1940735578536987,2.4300451278686523,5.148003578186035,-216.12969970703125,0
604.6409999999996,-0.0021829642355442047,-0.021066714078187943,3.3612624974921346e-05,0.0,0.0,0.0,0.0,-0.00030119778239168227,-0.0002670768881216645,0.00377263268455863,1.0015734434127808,0.0,0.0,0.0,1.1979045867919922,2.42832612991333,5.142088890075684,-216.82310485839844,0
614.5529999999999,-0.002218523295596242,-0.021069245412945747,1.2611853890120983e-05,0.0,0.0,0.0,0.0,-0.0005252186674624681,0.00010895873128902167,-0.000855584628880024,0.9995111227035522,0.0,0.0,0.0,1.1964863538742065,2.424560546875,5.1361870765686035,-216.56642150878906,0
624.4699999999993,-0.002231706166639924,-0.021062297746539116,-5.233895353740081e-05,0.0,0.0,0.0,0.0,-0.0026064664125442505,0.0005740240449085832,-0.0035979975946247578,1.0016330480575562,0.0,0.0,0.0,1.19468355178833,2.4202773571014404,5.140582084655762,-216.2401123046875,0
634.3790000000008,-0.0022686379961669445,-0.021066052839159966,-7.493039447581396e-05,0.0,0.0,0.0,0.0,0.00021185519290156662,-0.0020878876093775034,0.007105500437319279,0.9997032284736633,0.0,0.0,0.0,1.192716360092163,2.4237148761749268,5.133234977722168,-215.884033203125,0
644.2819999999992,-0.002313511446118355,-0.021058769896626472,-8.348806295543909e-05,0.0,0.0,0.0,0.0,-0.0015694256871938705,-0.0024452221114188433,-0.0003062442992813885,0.9998219609260559,0.0,0.0,0.0,1.198804497718811,2.4204063415527344,5.129335403442383,-216.98599243164062,0
654.2019999999993,-0.001892002997919917,-0.0210823193192482,0.0003908932558260858,0.0,0.0,0.0,0.0,0.00018972854013554752,-0.0007031320128589869,-0.0007340637966990471,1.0003376007080078,0.0,0.0,0.0,1.1898123025894165,2.4290757179260254,5.2108917236328125,-215.3583984375,0
664.1080000000002,-0.0019219769164919853,-0.021136270835995674,0.0003665938274934888,0.0,0.0,0.0,0.0,-0.0008285550284199417,0.004566718824207783,-0.00186960119754076,0.9995995163917542,0.0,0.0,0.0,1.1884039640426636,2.4336938858032227,5.214206695556641,-215.10348510742188,0
674.027,-0.0019497704925015569,-0.021145259961485863,0.0003667547134682536,0.0,0.0,0.0,0.0,-0.0010922488290816545,-0.0035308857914060354,0.0005135395913384855,0.9978711009025574,0.0,0.0,0.0,1.1853787899017334,2.4307126998901367,5.197006702423096,-214.55592346191406,0
683.9359999999997,-0.001947180600836873,-0.021138861775398254,0.00029952064505778253,0.0,0.0,0.0,0.0,0.0030163489282131195,0.0004868627875111997,-0.0008469104068353772,0.996813952922821,0.0,0.0,0.0,1.184465765953064,2.4313106536865234,5.201601028442383,-214.39065551757812,0
693.8580000000002,-0.001975337276235223,-0.021148117259144783,0.00029247807106003165,0.0,0.0,0.0,0.0,-0.000812091282568872,-0.0017754114232957363,-0.0031460137106478214,1.0007694959640503,0.0,0.0,0.0,1.183648943901062,2.428982973098755,5.204328536987305,-214.24282836914062,0
703.7559999999994,-0.0020017530769109726,-0.021166594699025154,0.00027122709434479475,0.0,0.0,0.0,0.0,0.0022346111945807934,-0.0024713261518627405,0.000643801293335855,1.0035079717636108,0.0,0.0,0.0,1.188992977142334,2.4260940551757812,5.19943904876709,-215.21009826660156,0
713.6740000000009,-0.002032466698437929,-0.02117864228785038,0.00026298713055439293,0.0,0.0,0.0,0.0,0.0007790509844198823,-0.0003785044245887548,-0.0013434903230518103,1.0028554201126099,0.0,0.0,0.0,1.1869734525680542,2.4236927032470703,5.205541610717773,-214.8445587158203,0
723.5810000000001,-0.0020637514535337687,-0.021190857514739037,0.00025797841954045,0.0,0.0,0.0,0.0,-0.0017612295923754573,-0.0047162058763206005,-0.002488133730366826,1.0008180141448975,0.0,0.0,0.0,1.1861646175384521,2.423517942428589,5.2062201499938965,-214.69815063476562,0
733.5,-0.002095993375405669,-0.02120376005768776,0.0002554451930336654,0.0,0.0,0.0,0.0,0.0006634484743699431,-0.003042004769667983,0.0030723880045115948,0.9998480677604675,0.0,0.0,0.0,1.1847926378250122,2.4252960681915283,5.2049784660339355,-214.44981384277344,0
743.4030000000002,-0.0021307594142854214,-0.021218007430434227,0.00025369622744619846,0.0,0.0,0.0,0.0,-0.0013625764986500144,0.0011687466176226735,-0.0015523906331509352,0.9984989762306213,0.0,0.0,0.0,1.1845245361328125,2.421107053756714,5.193958759307861,-214.40130615234375,0
753.3230000000003,-0.0021685175597667694,-0.02123366855084896,0.00025122560327872634,0.0,0.0,0.0,0.0,-0.0009153287392109632,-0.00023690312809776515,0.0005973021034151316,0.9983302354812622,0.0,0.0,0.0,1.1824307441711426,2.4188311100006104,5.184579372406006,-214.02232360839844,0
763.2270000000008,-0.0022080542985349894,-0.02124951407313347,0.0002475976652931422,0.0,0.0,0.0,0.0,0.0017120691481977701,0.0006955649587325752,-0.0009721802780404687,0.9971716403961182,0.0,0.0,0.0,1.1809415817260742,2.416325330734253,5.183312892913818,-213.75277709960938,0
773.1560000000009,-0.0022483398206532,-0.02126520872116089,0.00024208807735703886,0.0,0.0,0.0,0.0,0.0018173925345763564,0.001509705325588584,0.0005004890845157206,0.9967542886734009,0.0,0.0,0.0,1.1791192293167114,2.41123628616333,5.174727916717529,-213.4229278564453,0
783.0529999999999,-0.002289148047566414,-0.021282313391566277,0.00023358961334452033,0.0,0.0,0.0,0.0,0.00011859923688462004,-0.0032295496203005314,-0.0005554906092584133,0.998767077922821,0.0,0.0,0.0,1.1782125234603882,2.40407657623291,5.161818981170654,-213.25881958007812,0
792.9740000000002,-0.002330443123355508,-0.021301424130797386,0.00022256601369008422,0.0,0.0,0.0,0.0,0.004306341987103224,0.0004686159663833678,-0.0025068875402212143,1.0009464025497437,0.0,0.0,0.0,1.177641749382019,2.4068334102630615,5.16609525680542,-213.15550231933594,0
802.875,-0.002372558694332838,-0.021321633830666542,0.00021097389981150627,0.0,0.0,0.0,0.0,0.0027381121180951595,-0.003963111434131861,0.001371310674585402,1.0012766122817993,0.0,0.0,0.0,1.1760493516921997,2.3979082107543945,5.1599016189575195,-212.8672637939453,0
812.7970000000005,-0.002415785100311041,-0.021342579275369644,0.00019996051560156047,0.0,0.0,0.0,0.0,-0.0017541572451591492,0.0016645333962514997,0.0010408052476122975,1.0022813081741333,0.0,0.0,0.0,1.1761868000030518,2.3940420150756836,5.1720428466796875,-212.89215087890625,0
822.7109999999993,-0.0024604960344731808,-0.02136480249464512,0.0001905585522763431,0.0,0.0,0.0,0.0,-0.0020851201843470335,-0.001981905894353986,0.0042937262915074825,0.9981810450553894,0.0,0.0,0.0,1.1743686199188232,2.3943541049957275,5.166894435882568,-212.5630645751953,0
832.6190000000006,-0.0025070132687687874,-0.0213885810226202,0.00018220636411570013,0.0,0.0,0.0,0.0,0.002226235345005989,0.001250733039341867,-0.00087721087038517,1.0026295185089111,0.0,0.0,0.0,1.1731300354003906,2.3989105224609375,5.173820972442627,-212.3388671875,0
842.5339999999997,-0.002555246464908123,-0.021413393318653107,0.00017443759134039283,0.0,0.0,0.0,0.0,0.0012818692484870553,0.004377460107207298,3.759746323339641e-05,1.0026485919952393,0.0,0.0,0.0,1.1710395812988281,2.392697811126709,5.1649909019470215,-211.9604949951172,0
852.4459999999999,-0.0026050060987472534,-0.021437469869852066,0.00016892660642042756,0.0,0.0,0.0,0.0,0.0001714383251965046,-0.0029530953615903854,-0.00010407196532469243,1.0008002519607544,0.0,0.0,0.0,1.1702162027359009,2.391357660293579,5.157440185546875,-211.81146240234375,0
862.348,-0.0020248473156243563,-0.021373145282268524,0.0009178657783195376,0.0,0.0,0.0,0.0,-0.0005344277014955878,-0.004768615588545799,-0.0003206243272870779,1.0001720190048218,0.0,0.0,0.0,1.1572505235671997,2.418665885925293,5.272585868835449,-209.4646453857422,0
872.268,-0.002051339717581868,-0.021390188485383987,0.0009462400921620429,0.0,0.0,0.0,0.0,-1.8645313275555964e-06,-0.002144011901691556,-0.001437225379049778,1.0010122060775757,0.0,0.0,0.0,1.1573106050491333,2.41648530960083,5.268385410308838,-209.47552490234375,0
882.1720000000005,-0.0019764357712119818,-0.021364105865359306,0.0011199642904102802,0.0,0.0,0.0,0.0,-0.0008710725815035403,-0.004779356997460127,-0.00016993215831462294,1.0003236532211304,0.0,0.0,0.0,1.146898865699768,2.4244353771209717,5.295612812042236,-207.59097290039062,0
892.0959999999995,-0.0020001770462840796,-0.02137843891978264,0.0011560600250959396,0.0,0.0,0.0,0.0,-0.001857665367424488,-0.002709744032472372,0.006633584853261709,0.9986091256141663,0.0,0.0,0.0,1.1443885564804077,2.42521333694458,5.295125961303711,-207.13661193847656,0
901.9979999999996,-0.0020005665719509125,-0.021371973678469658,0.0012324005365371704,0.0,0.0,0.0,0.0,0.0017511557089164853,0.0007610010798089206,0.0028769231867045164,0.9994893670082092,0.0,0.0,0.0,1.1365385055541992,2.436403274536133,5.30595064163208,-205.71572875976562,0
911.9159999999993,-0.0020211907103657722,-0.021383963525295258,0.0012699502985924482,0.0,0.0,0.0,0.0,0.0024997475557029247,0.00025995337637141347,-0.0014579154085367918,1.0000035762786865,0.0,0.0,0.0,1.135480523109436,2.43586802482605,5.30664587020874,-205.52423095703125,0
921.8250000000007,-0.0020031325984746218,-0.021380649879574776,0.001348904799669981,0.0,0.0,0.0,0.0,-0.0024053382221609354,0.001214214600622654,-0.0010197972878813744,0.9995212554931641,0.0,0.0,0.0,1.126391887664795,2.4354891777038574,5.307436466217041,-203.87918090820312,0
931.7450000000008,-0.0020221152808517218,-0.021391311660408974,0.0013887782115489244,0.0,0.0,0.0,0.0,-0.0031845388002693653,0.0007451351266354322,-0.002477934816852212,1.001299262046814,0.0,0.0,0.0,1.1253999471664429,2.4397826194763184,5.3016815185546875,-203.6996307373047,0
941.6440000000002,-0.002042477484792471,-0.021404242143034935,0.0014290413819253445,0.0,0.0,0.0,0.0,0.00023401212820317596,0.0008565533789806068,-0.000992109184153378,1.0002048015594482,0.0,0.0,0.0,1.1247731447219849,2.4406065940856934,5.301737308502197,-203.58616638183594,0
951.5640000000003,-0.0020646110642701387,-0.021419193595647812,0.0014700561296194792,0.0,0.0,0.0,0.0,0.002742833225056529,-0.0025484554935246706,0.002167228376492858,1.0015058517456055,0.0,0.0,0.0,1.1239017248153687,2.4399538040161133,5.299533843994141,-203.42843627929688,0
961.4699999999993,-0.0020878082141280174,-0.021435609087347984,0.0015119574964046478,0.0,0.0,0.0,0.0,0.001294713350944221,-0.003150797914713621,0.0021737320348620415,1.00009286403656,0.0,0.0,0.0,1.1245540380477905,2.434767723083496,5.30507755279541,-203.5465087890625,0
971.3899999999994,-0.002112254500389099,-0.021454036235809326,0.0015548160299658775,0.0,0.0,0.0,0.0,-0.0009723904076963663,0.004327383358031511,-0.0037543673533946276,1.0010032653808594,0.0,0.0,0.0,1.1245540380477905,2.434576988220215,5.302546501159668,-203.5465087890625,0
981.2919999999995,-0.0021388744935393333,-0.021474551409482956,0.0015982636250555515,0.0,0.0,0.0,0.0,-0.0019050744595006108,0.003326512174680829,-0.0020823280792683363,1.0001505613327026,0.0,0.0,0.0,1.1224606037139893,2.432832717895508,5.291534423828125,-203.1676025390625,0
991.2129999999997,-0.0021678104531019926,-0.021496456116437912,0.0016423738561570644,0.0,0.0,0.0,0.0,0.0008898304076865315,-0.00019982107914984226,-0.001028604106977582,0.9989426732063293,0.0,0.0,0.0,1.121153473854065,2.4340853691101074,5.278195858001709,-202.93101501464844,0
1001.1229999999996,-0.0021986893843859434,-0.02151891030371189,0.001686547533608973,0.0,0.0,0.0,0.0,0.0038264202885329723,-0.0014548534527420998,0.0026234390679746866,0.9986480474472046,0.0,0.0,0.0,1.1200363636016846,2.4276888370513916,5.266080379486084,-202.7288055419922,0
1011.0509999999995,-0.002234023530036211,-0.02154448814690113,0.0017343705985695124,0.0,0.0,0.0,0.0,-0.0015133580891415477,-0.0023662468884140253,0.00038377195596694946,0.9990216493606567,0.0,0.0,0.0,1.1196318864822388,2.4173824787139893,5.266133785247803,-202.6555938720703,0
1020.9429999999993,-0.0022665727883577347,-0.021568410098552704,0.0017769334372133017,0.0,0.0,0.0,0.0,-0.003118996974080801,-0.0017860333900898695,0.002101239515468478,0.9976495504379272,0.0,0.0,0.0,1.11879563331604,2.417804479598999,5.2645463943481445,-202.5042266845703,0
1030.8600000000006,-0.0022995872423052788,-0.021593142300844193,0.0018181120976805687,0.0,0.0,0.0,0.0,-0.002148607512935996,0.0013581205857917666,0.0038787508383393288,0.9994940757751465,0.0,0.0,0.0,1.118485450744629,2.417084217071533,5.266462802886963,-202.44808959960938,0
1040.777,-0.0023337772581726313,-0.021619755774736404,0.001858151750639081,0.0,0.0,0.0,0.0,0.002770708641037345,0.004889501258730888,0.0033895093947649,0.9987341165542603,0.0,0.0,0.0,1.1176226139068604,2.4147024154663086,5.258134365081787,-202.29190063476562,0
1050.6800000000003,-0.0023695447016507387,-0.02164827473461628,0.0018975960556417704,0.0,0.0,0.0,0.0,0.001337383990176022,-0.0013995185727253556,2.453051092743408e-05,0.9983323812484741,0.0,0.0,0.0,1.1169075965881348,2.406111240386963,5.237792015075684,-202.16250610351562,0
1060.5959999999995,-0.002358062658458948,-0.021637538447976112,0.0019819936715066433,0.0,0.0,0.0,0.0,-0.0013857957674190402,0.0019894016440957785,0.0002472210908308625,1.000278115272522,0.0,0.0,0.0,1.110252022743225,2.4082705974578857,5.246170520782471,-200.95782470703125,0
1070.509,-0.002393163973465562,-0.02166677638888359,0.002022707834839821,0.0,0.0,0.0,0.0,0.0029775965958833694,-0.000659856537822634,0.006088284309953451,1.0013641119003296,0.0,0.0,0.0,1.1097900867462158,2.4058163166046143,5.234946250915527,-200.87420654296875,0
1080.4130000000005,-0.0024298622738569975,-0.02169676125049591,0.0020640133880078793,0.0,0.0,0.0,0.0,0.0008383083040826023,0.0014304983196780086,0.0028616259805858135,1.002003788948059,0.0,0.0,0.0,1.110381841659546,2.397716522216797,5.232847690582275,-200.98133850097656,0
1090.3289999999997,-0.0024682467337697744,-0.021727927029132843,0.00210701790638268,0.0,0.0,0.0,0.0,0.0017261430621147156,0.004456257447600365,-0.0055106086656451225,1.0001866817474365,0.0,0.0,0.0,1.1087313890457153,2.397394895553589,5.2248735427856445,-200.68258666992188,0
1100.2489999999998,-0.0024769289884716272,-0.02180965058505535,0.0021492107771337032,0.0,0.0,0.0,0.0,0.0005517525714822114,0.0021981499157845974,0.0020011174492537975,0.9983614087104797,0.0,0.0,0.0,1.0953153371810913,2.378387451171875,5.221652984619141,-198.2542724609375,0
1110.1509999999998,-0.002513602375984192,-0.021845923736691475,0.0021934746764600277,0.0,0.0,0.0,0.0,-0.0015131104737520218,-0.0008363914093934,-0.0010348400101065636,1.000778317451477,0.0,0.0,0.0,1.0947493314743042,2.374276876449585,5.206098556518555,-198.15179443359375,0
1120.062,-0.0025301086716353893,-0.02189723588526249,0.0022492995485663414,0.0,0.0,0.0,0.0,-0.0001856609305832535,-0.0027538638096302748,0.0023878440260887146,1.0010435581207275,0.0,0.0,0.0,1.083133339881897,2.3649942874908447,5.210334777832031,-196.04928588867188,0
1129.9740000000002,-0.002567774849012494,-0.021935807541012764,0.002294466830790043,0.0,0.0,0.0,0.0,0.00041519638034515083,-0.0005981615395285189,-0.0013864940265193582,1.0010755062103271,0.0,0.0,0.0,1.082100749015808,2.364990234375,5.209925174713135,-195.8623809814453,0
1139.8919999999998,-0.002540137618780136,-0.021959375590085983,0.002369940048083663,0.0,0.0,0.0,0.0,-1.3847657100996003e-05,-0.0006989756366237998,0.0033046880271285772,1.0000237226486206,0.0,0.0,0.0,1.0736531019210815,2.3648064136505127,5.225673198699951,-194.33335876464844,0
1149.8060000000005,-0.0025733327493071556,-0.02200024388730526,0.002419609809294343,0.0,0.0,0.0,0.0,-0.0023870153818279505,-0.002252025995403528,-0.0005682458868250251,1.001849889755249,0.0,0.0,0.0,1.0739974975585938,2.3573763370513916,5.217289447784424,-194.39569091796875,0
1159.7199999999993,-0.002570286625996232,-0.022024234756827354,0.002488655038177967,0.0,0.0,0.0,0.0,-0.0039735413156449795,-0.0014049819437786937,-0.0036296937614679337,1.0018730163574219,0.0,0.0,0.0,1.0724341869354248,2.3591620922088623,5.216526031494141,-194.1127166748047,0
1169.6229999999996,-0.002602660097181797,-0.022068263962864876,0.002542847767472267,0.0,0.0,0.0,0.0,0.0026878213975578547,0.006896929815411568,-0.0035957025829702616,1.0008999109268188,0.0,0.0,0.0,1.0712735652923584,2.3659234046936035,5.220404624938965,-193.90264892578125,0
1179.536,-0.0026360652409493923,-0.022113367915153503,0.0025987676344811916,0.0,0.0,0.0,0.0,0.00018230281420983374,-0.004216443281620741,0.0009918089490383863,0.9988027215003967,0.0,0.0,0.0,1.0700746774673462,2.3582496643066406,5.201126575469971,-193.68563842773438,0
1189.4490000000005,-0.00267033651471138,-0.022159075364470482,0.0026550262700766325,0.0,0.0,0.0,0.0,-0.004456907510757446,-0.00402106111869216,6.0322312492644414e-05,0.9997625946998596,0.0,0.0,0.0,1.0691125392913818,2.3569252490997314,5.20028829574585,-193.51150512695312,0
1199.3619999999992,-0.00270509859547019,-0.02220584824681282,0.002710518427193165,0.0,0.0,0.0,0.0,-0.0021177507005631924,0.003781505860388279,0.0012205811217427254,1.0006076097488403,0.0,0.0,0.0,1.06643807888031,2.3549857139587402,5.199070453643799,-193.02740478515625,0
1209.2810000000009,-0.002740178257226944,-0.022253751754760742,0.0027656969614326954,0.0,0.0,0.0,0.0,-0.0025296774692833424,0.0010465590748935938,0.0015504754846915603,1.00154447555542,0.0,0.0,0.0,1.0657058954238892,2.353267192840576,5.195488452911377,-192.8948974609375,0
1219.1859999999997,-0.002776186680421233,-0.022302834317088127,0.002821809146553278,0.0,0.0,0.0,0.0,-0.0022602416574954987,-0.0017008937429636717,0.00061448710039258,1.000329852104187,0.0,0.0,0.0,1.0647414922714233,2.352001190185547,5.187319755554199,-192.7203369140625,0
1229.0990000000002,-0.002813798375427723,-0.02235342748463154,0.002879021456465125,0.0,0.0,0.0,0.0,0.0004990892484784126,0.004066366236656904,-0.0008718044846318662,0.9988469481468201,0.0,0.0,0.0,1.0636446475982666,2.351428270339966,5.184980392456055,-192.5218048095703,0
1239.0100000000002,-0.0028528633993119,-0.022405795753002167,0.002936159260571003,0.0,0.0,0.0,0.0,0.0014925934374332428,-0.0033337401691824198,-0.0008551637292839587,0.999617338180542,0.0,0.0,0.0,1.0627198219299316,2.3524844646453857,5.180130958557129,-192.35438537597656,0
1248.9220000000005,-0.00289233960211277,-0.022459520027041435,0.002992713823914528,0.0,0.0,0.0,0.0,-6.779963587177917e-05,-0.0031581770163029432,-0.00018990160606335849,1.0006372928619385,0.0,0.0,0.0,1.0618199110031128,2.3488707542419434,5.17435884475708,-192.19151306152344,0
1258.8369999999995,-0.002932060742750764,-0.022514352574944496,0.003049359889701009,0.0,0.0,0.0,0.0,-0.00021060585277155042,-0.0005273837596178055,-0.005318331997841597,0.99798184633255,0.0,0.0,0.0,1.060867190361023,2.3392865657806396,5.1779866218566895,-192.01907348632812,0
1268.7510000000002,-0.002973525319248438,-0.02257031574845314,0.003105655312538147,0.0,0.0,0.0,0.0,-0.0024377284571528435,-0.002701071323826909,0.002448192797601223,0.9986845254898071,0.0,0.0,0.0,1.0596383810043335,2.337458610534668,5.174993991851807,-191.79666137695312,0
1278.6630000000005,-0.0029052281752228737,-0.022358477115631104,0.003189289243891835,0.0,0.0,0.0,0.0,0.0026390207931399345,-0.0006251754239201546,-0.0011543306754902005,1.0009568929672241,0.0,0.0,0.0,1.057303547859192,2.4039721488952637,5.1885199546813965,-191.37405395507812,0
1288.5750000000007,-0.0029467979911714792,-0.022403892129659653,0.00325235933996737,0.0,0.0,0.0,0.0,0.0004044604138471186,0.0006004365859553218,-0.00387212703935802,1.0014066696166992,0.0,0.0,0.0,1.056636929512024,2.3969433307647705,5.192109107971191,-191.2533721923828,0
1298.4899999999998,-0.0029899156652390957,-0.022450445219874382,0.0033166296780109406,0.0,0.0,0.0,0.0,-0.0009410273050889373,-0.003667281474918127,-0.0009379463153891265,1.0012531280517578,0.0,0.0,0.0,1.0548896789550781,2.393342971801758,5.188552379608154,-190.9371337890625,0
1308.4050000000007,-0.003033956279978156,-0.022497065365314484,0.0033824399579316378,0.0,0.0,0.0,0.0,-0.0051887850277125835,0.0004901516367681324,-0.0028396877460181713,1.0007902383804321,0.0,0.0,0.0,1.0539427995681763,2.3986363410949707,5.1899638175964355,-190.76573181152344,0
1318.3220000000001,-0.0030786735005676746,-0.02254331111907959,0.0034495138097554445,0.0,0.0,0.0,0.0,-0.001431005890481174,0.0018521405290812254,9.240393410436809e-05,0.9984576106071472,0.0,0.0,0.0,1.05302095413208,2.4065804481506348,5.190156936645508,-190.59889221191406,0
1328.2360000000008,-0.0031245043501257896,-0.02258952334523201,0.0035167632158845663,0.0,0.0,0.0,0.0,-0.0024138581939041615,0.0011626235209405422,-0.0010401469189673662,0.9998099207878113,0.0,0.0,0.0,1.0525918006896973,2.4082257747650146,5.184630393981934,-190.52122497558594,0
1338.1399999999994,-0.00298362597823143,-0.022443275898694992,0.003583625890314579,0.0,0.0,0.0,0.0,0.001826824969612062,-0.001732043456286192,8.99448714335449e-05,0.9973627924919128,0.0,0.0,0.0,1.0506008863449097,2.4436445236206055,5.218489646911621,-190.16085815429688,0
1348.0499999999993,-0.003024136647582054,-0.022482087835669518,0.003655350534245372,0.0,0.0,0.0,0.0,-0.0016881232149899006,-1.2910254554299172e-06,-0.00242994655855,0.9981785416603088,0.0,0.0,0.0,1.049367904663086,2.4445762634277344,5.224862098693848,-189.9376678466797,0
1357.9599999999991,-0.0030664606019854546,-0.022521452978253365,0.0037254509516060352,0.0,0.0,0.0,0.0,0.0009585893712937832,-0.0003700449306052178,0.001226763823069632,0.9968090057373047,0.0,0.0,0.0,1.0480958223342896,2.4447970390319824,5.216533660888672,-189.70742797851562,0
1367.8680000000004,-0.0031111054122447968,-0.02256234548985958,0.003793680341914296,0.0,0.0,0.0,0.0,-0.001044473727233708,-0.0037669676821678877,-0.0009983874624595046,0.999443531036377,0.0,0.0,0.0,1.0471551418304443,2.4404726028442383,5.2157416343688965,-189.53717041015625,0
1377.7790000000005,-0.003157152561470866,-0.022604836151003838,0.0038601928390562534,0.0,0.0,0.0,0.0,0.0014900363748893142,-0.002406714716926217,0.001136884791776538,0.9998983144760132,0.0,0.0,0.0,1.0463365316390991,2.4357051849365234,5.217845916748047,-189.38897705078125,0
1387.701000000001,-0.003203278873115778,-0.022648103535175323,0.003926135133951902,0.0,0.0,0.0,0.0,0.00019065861124545336,0.003042184514924884,-0.002056608209386468,1.0006521940231323,0.0,0.0,0.0,1.0448918342590332,2.432295322418213,5.212935924530029,-189.1274871826172,0
1397.6000000000004,-0.003107051830738783,-0.02256390079855919,0.003961856011301279,0.0,0.0,0.0,0.0,0.0008263905765488744,0.0036895752418786287,-0.0019381509628146887,0.9995042681694031,0.0,0.0,0.0,1.0421499013900757,2.4369564056396484,5.209723949432373,-188.6312255859375,0
1407.5159999999996,-0.0031491892877966166,-0.022603748366236687,0.004032636992633343,0.0,0.0,0.0,0.0,0.0036441381089389324,0.001907747471705079,0.0032884611282497644,1.000255823135376,0.0,0.0,0.0,1.0401756763458252,2.4323008060455322,5.200107097625732,-188.27386474609375,0
1417.4300000000003,-0.0031934049911797047,-0.022643491625785828,0.004103659652173519,0.0,0.0,0.0,0.0,0.00010466926323715597,-0.00047909552813507617,0.00010647493763826787,0.9986023306846619,0.0,0.0,0.0,1.0398492813110352,2.425408363342285,5.194435119628906,-188.21478271484375,0
1427.3439999999991,-0.003204791573807597,-0.022646939381957054,0.004160407930612564,0.0,0.0,0.0,0.0,0.001215241733007133,-0.0047989096492528915,-0.002524741692468524,0.9994975924491882,0.0,0.0,0.0,1.0384702682495117,2.424401044845581,5.190376281738281,-187.96517944335938,0
1437.2489999999998,-0.0032502259127795696,-0.022686395794153214,0.004231565166264772,0.0,0.0,0.0,0.0,0.0009024391183629632,0.003034288762137294,0.0008759952033869922,0.9978299140930176,0.0,0.0,0.0,1.0373272895812988,2.418616771697998,5.19691801071167,-187.75831604003906,0
1447.1640000000007,-0.003263534279540181,-0.02269725687801838,0.004284391179680824,0.0,0.0,0.0,0.0,0.0007518708007410169,-0.004271819721907377,0.0003989172400906682,1.0000057220458984,0.0,0.0,0.0,1.0373642444610596,2.422247886657715,5.19145393371582,-187.76498413085938,0
1457.0730000000003,-0.0033111281227320433,-0.02273479662835598,0.004354014527052641,0.0,0.0,0.0,0.0,7.114313484635204e-05,-0.0024281737860292196,0.002264097100123763,0.9980663061141968,0.0,0.0,0.0,1.0362263917922974,2.4182751178741455,5.198218822479248,-187.5590362548828,0
1466.9879999999994,-0.0033604903146624565,-0.022771216928958893,0.004422683734446764,0.0,0.0,0.0,0.0,0.0008281203336082399,-0.005871370434761047,0.001293536857701838,1.001189947128296,0.0,0.0,0.0,1.0353835821151733,2.418149709701538,5.197956085205078,-187.406494140625,0
1476.8970000000008,-0.0034117954783141613,-0.02280612476170063,0.004491095896810293,0.0,0.0,0.0,0.0,-0.0030783163383603096,0.004775217268615961,0.0003926535719074309,0.9989932775497437,0.0,0.0,0.0,1.0347836017608643,2.4146504402160645,5.206118106842041,-187.2978973388672,0
1486.8109999999997,-0.003433333244174719,-0.022901594638824463,0.004570586606860161,0.0,0.0,0.0,0.0,-0.00012656234321184456,-0.0018262699013575912,-0.0008217300055548549,0.9982685446739197,0.0,0.0,0.0,1.0278902053833008,2.392813205718994,5.208064556121826,-186.0501708984375,0
1496.723,-0.003485605353489518,-0.02294037863612175,0.0046382383443415165,0.0,0.0,0.0,0.0,-0.0002815316547639668,0.0009325437713414431,0.001041760784573853,0.9994601607322693,0.0,0.0,0.0,1.0269322395324707,2.3906304836273193,5.209185600280762,-185.8767852783203,0
1506.6329999999998,-0.0034397311974316835,-0.02290339209139347,0.004655564669519663,0.0,0.0,0.0,0.0,-0.003334109205752611,-2.566083821875509e-05,0.00201032473705709,0.9997936487197876,0.0,0.0,0.0,1.025691032409668,2.393035650253296,5.203088760375977,-185.65211486816406,0
1516.545,-0.003490651724860072,-0.022940753027796745,0.004724519327282906,0.0,0.0,0.0,0.0,-0.0022602861281484365,-0.0011817977065220475,-0.002095719799399376,1.0003348588943481,0.0,0.0,0.0,1.0255190134048462,2.39274263381958,5.193113327026367,-185.6209716796875,0
1526.4619999999995,-0.003490425180643797,-0.022942770272493362,0.004756982903927565,0.0,0.0,0.0,0.0,-0.0012753126211464405,-0.0038000966887921095,-6.392234354279935e-05,1.0002610683441162,0.0,0.0,0.0,1.023803949356079,2.3930816650390625,5.193058490753174,-185.310546875,0
1536.3780000000006,-0.003542790887877345,-0.02298092283308506,0.004827238619327545,0.0,0.0,0.0,0.0,-0.0030777337960898876,0.005765111651271582,-0.0010246705496683717,0.9974725842475891,0.0,0.0,0.0,1.0240764617919922,2.3917179107666016,5.199449062347412,-185.35986328125,0
1546.286,-0.0035977403167635202,-0.02301935851573944,0.004896866623312235,0.0,0.0,0.0,0.0,-0.0024476011749356985,-0.002379760378971696,-0.001186530222184956,0.9989038109779358,0.0,0.0,0.0,1.0224804878234863,2.3932814598083496,5.180925369262695,-185.07101440429688,0
1556.2150000000001,-0.00365440989844501,-0.023058723658323288,0.0049649435095489025,0.0,0.0,0.0,0.0,0.0011511717457324266,-0.00021006303722970188,-3.0234661608119495e-05,1.0009303092956543,0.0,0.0,0.0,1.0209729671478271,2.3953402042388916,5.181894779205322,-184.7981414794922,0
1566.1049999999996,-0.0019319491693750024,-0.021017104387283325,0.000528587494045496,0.0,0.0,0.0,0.0,0.0009618877666071057,-0.0015065375482663512,0.0022829866502434015,1.0002466440200806,0.0,0.0,0.0,1.0318773984909058,2.4734857082366943,5.26223611831665,-186.7718505859375,0
1576.0190000000002,-0.0019600093364715576,-0.021023713052272797,0.0005229794187471271,0.0,0.0,0.0,0.0,0.0014535699738189578,-0.001363394083455205,-0.0012127035297453403,0.9995705485343933,0.0,0.0,0.0,1.0313432216644287,2.47052001953125,5.266863822937012,-186.6751708984375,0
1585.929,-0.001887206919491291,-0.0210877638310194,0.0006308116135187447,0.0,0.0,0.0,0.0,-0.0008310095290653408,0.0017304284265264869,-0.0025627310387790203,0.9996592402458191,0.0,0.0,0.0,1.045146107673645,2.458754301071167,5.26115608215332,-189.1735382080078,0
1595.8449999999993,-0.0019151503220200539,-0.021097155287861824,0.000630405149422586,0.0,0.0,0.0,0.0,-0.0026403572410345078,0.0003316952206660062,0.0034353495575487614,1.001085877418518,0.0,0.0,0.0,1.0439788103103638,2.4514641761779785,5.255466938018799,-188.9622344970703,0
1605.7530000000006,-0.0018434143858030438,-0.02111119031906128,0.0006496763089671731,0.0,0.0,0.0,0.0,-0.0014501024270430207,-0.0007608487503603101,-0.003083018586039543,1.0014996528625488,0.0,0.0,0.0,1.0442731380462646,2.449099540710449,5.2465972900390625,-189.01551818847656,0
1615.6689999999999,-0.001873184461146593,-0.021122915670275688,0.0006514309206977487,0.0,0.0,0.0,0.0,0.002337890909984708,0.0069601149298250675,-0.0012459609424695373,0.999999463558197,0.0,0.0,0.0,1.0415452718734741,2.448420524597168,5.24450159072876,-188.52175903320312,0
1625.5769999999993,-0.0018977515865117311,-0.021130573004484177,0.0006681042723357677,0.0,0.0,0.0,0.0,0.0019105421379208565,0.001103011891245842,0.004391748923808336,0.9986547231674194,0.0,0.0,0.0,1.0574415922164917,2.4406867027282715,5.224992275238037,-191.39903259277344,0
1635.4950000000008,-0.0019295946694910526,-0.021142765879631042,0.0006715244380757213,0.0,0.0,0.0,0.0,-0.00021923317399341613,-0.003586165141314268,0.00011092580098193139,0.9987658262252808,0.0,0.0,0.0,1.0575015544891357,2.4343552589416504,5.20982551574707,-191.40989685058594,0
1645.4050000000007,-0.001914074644446373,-0.02114536426961422,0.0005901468684896827,0.0,0.0,0.0,0.0,0.0009242739761248231,-0.004357305821031332,0.0023898936342447996,0.9979231357574463,0.0,0.0,0.0,1.0654810667037964,2.437251329421997,5.219724178314209,-192.85418701171875,0
1655.317000000001,-0.001950647565536201,-0.02115718089044094,0.000582307402510196,0.0,0.0,0.0,0.0,0.00021007111354265362,0.0010167082073166966,0.0020906743593513966,0.9985402226448059,0.0,0.0,0.0,1.0652529001235962,2.4302823543548584,5.232256889343262,-192.81289672851562,0
1665.2399999999998,-0.001946821459569037,-0.02114342898130417,0.0004988920409232378,0.0,0.0,0.0,0.0,0.0009158188477158546,-0.002166536869481206,-0.0021206471137702465,0.9996106624603271,0.0,0.0,0.0,1.0729795694351196,2.4383978843688965,5.246356010437012,-194.21144104003906,0
1675.1450000000004,-0.00198116316460073,-0.021151993423700333,0.00048157002311199903,0.0,0.0,0.0,0.0,0.001531608751975,0.002098281867802143,-0.0004817989538423717,1.001455545425415,0.0,0.0,0.0,1.0716253519058228,2.4408950805664062,5.2436933517456055,-193.96629333496094,0
1685.0640000000003,-0.0019733919762074947,-0.021132322028279305,0.0003575367445591837,0.0,0.0,0.0,0.0,-0.0004749156069010496,-0.003097210079431534,0.0014409025898203254,0.997616708278656,0.0,0.0,0.0,1.0701228380203247,2.433586359024048,5.228046894073486,-193.69435119628906,0
1694.9760000000006,-0.002010081894695759,-0.02113908901810646,0.0003307940496597439,0.0,0.0,0.0,0.0,-6.580492481589317e-05,0.0009485476184636354,-0.0022371814120560884,0.9988062977790833,0.0,0.0,0.0,1.0699740648269653,2.4292027950286865,5.2261481285095215,-193.6674346923828,0
1704.8770000000004,-0.0020176584366708994,-0.021130328997969627,0.00021674663003068417,0.0,0.0,0.0,0.0,0.0010275670792907476,-0.0016846982762217522,0.0012359897373244166,0.9974568486213684,0.0,0.0,0.0,1.080187439918518,2.438478946685791,5.230014801025391,-195.51608276367188,0
1714.7960000000003,-0.002055732300505042,-0.021135039627552032,0.00017940303951036185,0.0,0.0,0.0,0.0,-0.0012457499979063869,-0.002531142672523856,0.0036087145563215017,0.9998934268951416,0.0,0.0,0.0,1.0797927379608154,2.435624837875366,5.2270731925964355,-195.4446563720703,0
1724.7070000000003,-0.0020887211430817842,-0.02113170176744461,0.00012845285527873784,0.0,0.0,0.0,0.0,0.0012831552885472775,0.0005285849911160767,-0.0047193714417517185,1.001211404800415,0.0,0.0,0.0,1.088726282119751,2.441319704055786,5.225878715515137,-197.06163024902344,0
1734.616,-0.0021269384305924177,-0.021135535091161728,8.88832873897627e-05,0.0,0.0,0.0,0.0,-0.0025853149127215147,-0.002238218206912279,-0.0018654456362128258,1.0001609325408936,0.0,0.0,0.0,1.0863571166992188,2.4342939853668213,5.219094276428223,-196.63279724121094,0
1744.5220000000008,-0.002177691552788019,-0.021128082647919655,8.939845429267734e-05,0.0,0.0,0.0,0.0,-0.0019453790737316012,-0.0006551765836775303,-0.002330539980903268,0.9999822974205017,0.0,0.0,0.0,1.1003068685531616,2.436088800430298,5.209515571594238,-199.15771484375,0
1754.4359999999997,-0.0022198031656444073,-0.02113092690706253,5.45471120858565e-05,0.0,0.0,0.0,0.0,0.0015597528545185924,-0.0008233578992076218,-0.005864041391760111,1.0013153553009033,0.0,0.0,0.0,1.0990065336227417,2.4411873817443848,5.211276054382324,-198.92236328125,0
1764.3520000000008,-0.0022739404812455177,-0.02111619897186756,6.0237161960685626e-05,0.0,0.0,0.0,0.0,0.00012775360664818436,0.004089135676622391,-0.0003853502857964486,0.9993228912353516,0.0,0.0,0.0,1.1101622581481934,2.4450132846832275,5.198966979980469,-200.94158935546875,0
1774.2600000000002,-0.0023201091680675745,-0.02111874707043171,2.965913517982699e-05,0.0,0.0,0.0,0.0,-0.003035155823454261,-0.0016334806568920612,-0.00040795348468236625,0.9994612336158752,0.0,0.0,0.0,1.1088695526123047,2.4422619342803955,5.191376686096191,-200.70758056640625,0
1784.1749999999993,-0.00234728935174644,-0.021090105175971985,-3.3790693123592064e-05,0.0,0.0,0.0,0.0,-3.249025758123025e-05,-0.003394845873117447,0.0003793428768403828,0.9980835914611816,0.0,0.0,0.0,1.1153939962387085,2.45503568649292,5.2022600173950195,-201.88853454589844,0
1794.0959999999995,-0.0023943125270307064,-0.02109101228415966,-6.800466508138925e-05,0.0,0.0,0.0,0.0,-0.0019250836921855807,0.0014928174205124378,-0.001202489365823567,0.9973225593566895,0.0,0.0,0.0,1.1140700578689575,2.4527859687805176,5.21401309967041,-201.6488800048828,0
1804.018,-0.0024531332310289145,-0.02107139304280281,-7.020178600214422e-05,0.0,0.0,0.0,0.0,0.002273396821692586,-9.772620614967309e-06,-0.004638053011149168,0.9979912042617798,0.0,0.0,0.0,1.1222704648971558,2.459202289581299,5.20866584777832,-203.1331787109375,0
1813.9150000000009,-0.002506499644368887,-0.021072041243314743,-0.00010584137635305524,0.0,0.0,0.0,0.0,0.0026977744419127703,0.005369056947529316,0.0014765681698918343,0.9988564252853394,0.0,0.0,0.0,1.119754433631897,2.45361590385437,5.194705963134766,-202.6777801513672,0
1823.8279999999995,-0.0024969647638499737,-0.021033797413110733,-0.0002563750895205885,0.0,0.0,0.0,0.0,-0.0028627647552639246,-0.006470634136348963,0.004609738476574421,1.0000262260437012,0.0,0.0,0.0,1.1357723474502563,2.469470262527466,5.214907646179199,-205.5770721435547,0
1833.7309999999998,-0.0025487751699984074,-0.021030019968748093,-0.0003023025346919894,0.0,0.0,0.0,0.0,0.0010392556432634592,9.924345795297995e-05,-0.0018859573174268007,1.000536322593689,0.0,0.0,0.0,1.135860800743103,2.465970754623413,5.216015815734863,-205.5930633544922,0
1843.6630000000005,-0.002621104009449482,-0.021009458228945732,-0.0003031437809113413,0.0,0.0,0.0,0.0,-0.00039419668610207736,-0.004420972894877195,-0.0012121680192649364,0.9982984662055969,0.0,0.0,0.0,1.14438796043396,2.467176675796509,5.2036356925964355,-207.13650512695312,0
1853.5660000000007,-0.002679522382095456,-0.02100451849400997,-0.0003455705300439149,0.0,0.0,0.0,0.0,-0.004023265093564987,-0.004976326134055853,0.002502697054296732,0.9977909922599792,0.0,0.0,0.0,1.143368124961853,2.467336654663086,5.203890800476074,-206.951904296875,0
1863.4740000000002,-0.002722623059526086,-0.020973626524209976,-0.00040262637776322663,0.0,0.0,0.0,0.0,0.004497935064136982,0.004689904861152172,-0.00023208718630485237,0.9982896447181702,0.0,0.0,0.0,1.1533538103103638,2.4889748096466064,5.213959693908691,-208.7593231201172,0
1873.384,-0.0027827974408864975,-0.020966608077287674,-0.00044967769645154476,0.0,0.0,0.0,0.0,0.0007609439780935645,0.0021534233819693327,0.00048077027895487845,1.0003517866134644,0.0,0.0,0.0,1.1513235569000244,2.4832489490509033,5.2071852684021,-208.39186096191406,0
1883.304,-0.0028617207426577806,-0.020978081971406937,-0.0004922004882246256,0.0,0.0,0.0,0.0,-0.0006960764294490218,-0.003425618400797248,0.005726395174860954,1.000855803489685,0.0,0.0,0.0,1.1499104499816895,2.483764410018921,5.197922229766846,-208.13607788085938,0
1893.2060000000001,-0.0019304913002997637,-0.021208638325333595,0.0003571161942090839,0.0,0.0,0.0,0.0,0.0009421542636118829,0.0012191148707643151,-0.0005555354873649776,1.0004891157150269,0.0,0.0,0.0,1.1412912607192993,2.447704792022705,5.371899604797363,-206.5760040283203,0
1903.1299999999992,-0.0019809931982308626,-0.021248864009976387,0.0003748075105249882,0.0,0.0,0.0,0.0,-0.0001667412434471771,-0.010518320836126804,0.0017685259226709604,1.0011634826660156,0.0,0.0,0.0,1.1264209747314453,2.4393889904022217,5.357716083526611,-203.8844451904297,0
1913.0400000000009,-0.0020102057605981827,-0.021255595609545708,0.00036647150409407914,0.0,0.0,0.0,0.0,0.00036840990651398897,0.002367799635976553,0.004849339369684458,0.9994053244590759,0.0,0.0,0.0,1.1266933679580688,2.4366400241851807,5.378507137298584,-203.9337615966797,0
1922.9580000000005,-0.002055633580312133,-0.0212795902043581,0.0003899695002473891,0.0,0.0,0.0,0.0,-0.0018973826663568616,-0.0035002282820641994,0.00025459774769842625,0.998947024345398,0.0,0.0,0.0,1.136569857597351,2.428922414779663,5.360886096954346,-205.72140502929688,0
1932.8580000000002,-0.0018969096709042788,-0.021249473094940186,0.0005707548116333783,0.0,0.0,0.0,0.0,0.0011627337662503123,-0.002249098615720868,-0.0006873467355035245,1.000179409980774,0.0,0.0,0.0,1.1285924911499023,2.437340021133423,5.3815999031066895,-204.27748107910156,0
1942.7800000000007,-0.0019237144151702523,-0.021233193576335907,0.0005954673397354782,0.0,0.0,0.0,0.0,-0.0003067071666009724,-0.004631826654076576,0.0009446577751077712,0.9995948076248169,0.0,0.0,0.0,1.1277635097503662,2.439734935760498,5.384110927581787,-204.12744140625,0
1952.6820000000007,-0.0019473119173198938,-0.02124151773750782,0.0006008318159729242,0.0,0.0,0.0,0.0,0.0026382163632661104,-0.0006611038115806878,0.0015812903875485063,0.9979155659675598,0.0,0.0,0.0,1.1261835098266602,2.4392049312591553,5.395585060119629,-203.84146118164062,0
1962.5959999999995,-0.0019492771243676543,-0.021221641451120377,0.0005807047709822655,0.0,0.0,0.0,0.0,-0.0004867879906669259,-0.0009382928838022053,-0.0016776181291788816,0.9996157288551331,0.0,0.0,0.0,1.1320230960845947,2.442673444747925,5.401121139526367,-204.8984375,0
1972.5,-0.0019763349555432796,-0.021236049011349678,0.0005824979743920267,0.0,0.0,0.0,0.0,0.0018688050331547856,0.0059408084489405155,0.0022976244799792767,0.9986824989318848,0.0,0.0,0.0,1.130087971687317,2.4483087062835693,5.40452241897583,-204.5481719970703,0
1982.4249999999993,-0.0019658359233289957,-0.021181704476475716,0.0005300594493746758,0.0,0.0,0.0,0.0,-0.0013410309329628944,-0.002177328569814563,-0.005064598750323057,0.999150276184082,0.0,0.0,0.0,1.1301192045211792,2.4447903633117676,5.394101619720459,-204.55381774902344,0
1992.3250000000007,-0.0019898866303265095,-0.021193241700530052,0.0005260006873868406,0.0,0.0,0.0,0.0,-0.00027796856011264026,0.0017970665358006954,0.0011470331810414791,0.9999821782112122,0.0,0.0,0.0,1.1278941631317139,2.4398818016052246,5.393738746643066,-204.15109252929688,0
2002.2459999999992,-0.0019877986051142216,-0.021163810044527054,0.000458079477539286,0.0,0.0,0.0,0.0,-0.0014313124120235443,0.0023383796215057373,-0.003511454677209258,1.000933051109314,0.0,0.0,0.0,1.1355431079864502,2.4460835456848145,5.400784969329834,-205.5355682373047,0
2012.152,-0.0020147934556007385,-0.02117210254073143,0.00044930001604370773,0.0,0.0,0.0,0.0,-0.001209485693834722,0.002223714254796505,0.0031227669678628445,1.0005903244018555,0.0,0.0,0.0,1.1335030794143677,2.4422075748443604,5.388960361480713,-205.1663360595703,0
2022.0730000000003,-0.002023473149165511,-0.021162865683436394,0.0003854373935610056,0.0,0.0,0.0,0.0,-0.0015003925655037165,0.0009984488133341074,0.0001611092156963423,0.9985299706459045,0.0,0.0,0.0,1.1424798965454102,2.4482905864715576,5.397387981414795,-206.7911376953125,0
2031.973,-0.0020520766265690327,-0.021169394254684448,0.0003731489123310894,0.0,0.0,0.0,0.0,-0.0015024880412966013,0.00317171448841691,-0.0015139041934162378,0.9979340434074402,0.0,0.0,0.0,1.1414400339126587,2.443966865539551,5.397087574005127,-206.6029052734375,0
2041.893,-0.002043219981715083,-0.021090039983391762,0.0002700576442293823,0.0,0.0,0.0,0.0,0.0006882252637296915,-0.00172277947422117,0.0010637111263349652,0.9989525079727173,0.0,0.0,0.0,1.1507599353790283,2.4656882286071777,5.408004283905029,-208.2898406982422,0
2051.7970000000005,-0.002070372924208641,-0.02109232172369957,0.0002476910303812474,0.0,0.0,0.0,0.0,0.0009966716170310974,0.005989096127450466,-0.0015900724101811647,1.0020297765731812,0.0,0.0,0.0,1.150084376335144,2.4637415409088135,5.402451992034912,-208.16757202148438,0
2061.7289999999994,-0.00207237689755857,-0.02104712836444378,0.00016116029291879386,0.0,0.0,0.0,0.0,-9.314939961768687e-05,-0.006771797314286232,0.000785442884080112,1.0015498399734497,0.0,0.0,0.0,1.1595648527145386,2.4729549884796143,5.402170181274414,-209.883544921875,0
2071.6280000000006,-0.002101316349580884,-0.021045546978712082,0.00013583591498900205,0.0,0.0,0.0,0.0,-0.0020003083627671003,0.004336596000939608,0.00019838158914353698,1.000028133392334,0.0,0.0,0.0,1.1588908433914185,2.471487045288086,5.410427570343018,-209.76153564453125,0
2081.5519999999997,-0.0021107264328747988,-0.020997516810894012,6.875998951727524e-05,0.0,0.0,0.0,0.0,-0.0022050845436751842,-0.006975416559726,0.0013055364834144711,0.9997968673706055,0.0,0.0,0.0,1.169020175933838,2.485215902328491,5.414553165435791,-211.594970703125,0
2091.4519999999993,-0.0021394239738583565,-0.02099340409040451,4.157206421950832e-05,0.0,0.0,0.0,0.0,1.3183383998693898e-05,-0.0010518052149564028,-0.004241233691573143,1.0016928911209106,0.0,0.0,0.0,1.1688705682754517,2.482351779937744,5.427672863006592,-211.56790161132812,0
2101.3729999999996,-0.0021687231492251158,-0.020981134846806526,1.8158279999624938e-05,0.0,0.0,0.0,0.0,3.8731726817786694e-05,-0.00015601383347529918,0.0033804115373641253,1.00111722946167,0.0,0.0,0.0,1.173988699913025,2.483506202697754,5.429825782775879,-212.49429321289062,0
2111.2729999999992,-0.0021979818120598793,-0.02097645029425621,-6.797381502110511e-06,0.0,0.0,0.0,0.0,-0.00016653833154123276,-0.0017916903598234057,0.0009729719604365528,0.9992210268974304,0.0,0.0,0.0,1.1745803356170654,2.478386163711548,5.426465034484863,-212.6013946533203,0
2121.1890000000003,-0.0022349124774336815,-0.02099684812128544,-3.272596950409934e-05,0.0,0.0,0.0,0.0,-0.001564177218824625,0.002396974014118314,-0.004400177393108606,0.9983180165290833,0.0,0.0,0.0,1.183944582939148,2.466931104660034,5.417730331420898,-214.29632568359375,0
2131.0930000000008,-0.001842218916863203,-0.021038858219981194,0.0003779839025810361,0.0,0.0,0.0,0.0,-0.001103837857954204,0.0002922000421676785,-0.001448475057259202,1.0001636743545532,0.0,0.0,0.0,1.175113320350647,2.4621217250823975,5.505491256713867,-212.69784545898438,0
2141.018,-0.0018504011677578092,-0.021077536046504974,0.0003278880612924695,0.0,0.0,0.0,0.0,-9.418938861927018e-05,-0.003508663969114423,0.0003214149328414351,1.0004923343658447,0.0,0.0,0.0,1.1749932765960693,2.460491418838501,5.498590469360352,-212.6761016845703,0
2150.9169999999995,-0.0018649536650627851,-0.021079832687973976,0.0003205160901416093,0.0,0.0,0.0,0.0,0.0016250411281362176,0.00011754426668630913,-0.00017713019042275846,1.0004723072052002,0.0,0.0,0.0,1.1736198663711548,2.4605355262756348,5.502752780914307,-212.42752075195312,0
