timestamp,stateEstimate.x,stateEstimate.y,stateEstimate.z,controller.cmd_thrust,controller.cmd_roll,controller.cmd_pitch,controller.cmd_yaw,controller.r_roll,controller.r_pitch,controller.r_yaw,controller.accelz,controller.actuatorThrust,controller.roll,controller.pitch,controller.yaw,controller.rollRate,controller.pitchRate,controller.yawRate,controller.ctr_yaw
0.0,-0.0004817771550733596,-4.441454802872613e-05,-0.0003594953450374305,0.0,0.0,0.0,0.0,-0.0008519121911376715,-0.00021072673553135246,0.00010563660180196166,0.9996636509895325,0.0,0.0,0.0,0.3082638680934906,2.255140781402588,6.162749767303467,-55.7963752746582,0
9.905000000000655,-0.0005308365216478705,-8.38644482428208e-05,-0.0003846691979561001,0.0,0.0,0.0,0.0,0.0014496806543320417,-5.298606265569106e-05,-0.0029398861806839705,1.0013582706451416,0.0,0.0,0.0,0.3059104382991791,2.247230052947998,6.147325038909912,-55.370399475097656,0
19.814000000000306,-0.0005829582223668694,-0.00012539105955511332,-0.00040881059248931706,0.0,0.0,0.0,0.0,-0.0003978327731601894,-0.0036820722743868828,0.00029760561301372945,1.0011667013168335,0.0,0.0,0.0,0.30490052700042725,2.2387044429779053,6.141456127166748,-55.18760299682617,0
29.733000000000175,-0.0006371984491124749,-0.00016895344015210867,-0.00043152953730896115,0.0,0.0,0.0,0.0,0.0016585945850238204,-0.0022718170657753944,0.0016572599997743964,0.9996094107627869,0.0,0.0,0.0,0.30515363812446594,2.240138053894043,6.143943786621094,-55.23341369628906,0
39.652000000000044,-0.0006929066148586571,-0.00021459556592162699,-0.00045348348794505,0.0,0.0,0.0,0.0,0.0036602644249796867,0.00366760790348053,-0.006311627570539713,1.0009374618530273,0.0,0.0,0.0,0.3050558269023895,2.232473134994507,6.140672206878662,-55.2157096862793,0
49.5570000000007,-0.000755923509132117,-0.0002680254401639104,-0.00047685852041468024,0.0,0.0,0.0,0.0,0.003214251482859254,-4.427478415891528e-05,4.6398246922763065e-05,0.9997987151145935,0.0,0.0,0.0,0.30499574542045593,2.225951671600342,6.130156517028809,-55.204837799072266,0
59.475000000000364,-0.000755923509132117,-0.0002680254401639104,-0.00047685852041468024,0.0,0.0,0.0,0.0,-0.0008164984174072742,0.0007116610649973154,-0.000689480802975595,0.9995927810668945,0.0,0.0,0.0,0.30499574542045593,2.225951671600342,6.130156517028809,-55.204837799072266,0
69.38799999999901,-0.0008821138762868941,-0.0003716002684086561,-0.0005181477754376829,0.0,0.0,0.0,0.0,-0.0004569259472191334,-0.0034545089583843946,-0.001520114834420383,0.9994819760322571,0.0,0.0,0.0,0.3030942678451538,2.2196295261383057,6.115777492523193,-54.86066436767578,0
79.30199999999968,-0.0008821138762868941,-0.0003716002684086561,-0.0005181477754376829,0.0,0.0,0.0,0.0,0.001574762281961739,0.001071218866854906,0.0007608620217069983,0.9958540201187134,0.0,0.0,0.0,0.3030942678451538,2.2196295261383057,6.115777492523193,-54.86066436767578,0
89.21500000000015,-0.00095838971901685,-0.00043098159949295223,-0.0005420103552751243,0.0,0.0,0.0,0.0,0.0013924905797466636,0.0035243250895291567,0.0010760922450572252,0.9997173547744751,0.0,0.0,0.0,0.30299094319343567,2.214466094970703,6.1136064529418945,-54.84196853637695,0
99.1309999999994,-0.0010306208860129118,-0.0004872074641752988,-0.0005660220631398261,0.0,0.0,0.0,0.0,-0.0011697831796482205,-0.0005068794707767665,0.0006757641676813364,1.001183271408081,0.0,0.0,0.0,0.3026237189769745,2.2144734859466553,6.107840538024902,-54.77549743652344,0
109.03999999999905,-0.0011059268144890666,-0.000545281101949513,-0.0005905526923015714,0.0,0.0,0.0,0.0,-0.00385803310200572,-0.00034112200955860317,0.006473307963460684,0.9983927607536316,0.0,0.0,0.0,0.30299583077430725,2.2126734256744385,6.099425792694092,-54.84284973144531,0
118.95399999999972,-0.0011839126236736774,-0.0006045881891623139,-0.000614301476161927,0.0,0.0,0.0,0.0,0.002033208729699254,-0.0012450992362573743,-0.0013437807792797685,0.9984030723571777,0.0,0.0,0.0,0.30318719148635864,2.2096848487854004,6.092629432678223,-54.87748336791992,0
128.86099999999897,-0.0012637011241167784,-0.0006652561714872718,-0.0006387066096067429,0.0,0.0,0.0,0.0,-0.0011020525125786662,0.0015832835342735052,-0.0005752620636485517,0.9999521970748901,0.0,0.0,0.0,0.30392464995384216,2.2108118534088135,6.082631587982178,-55.010963439941406,0
138.78000000000065,-0.0013451058184728026,-0.0007279683486558497,-0.0006641647196374834,0.0,0.0,0.0,0.0,0.0040308269672095776,-0.001233101123943925,-0.0026393139269202948,1.0003576278686523,0.0,0.0,0.0,0.3037680685520172,2.2050650119781494,6.07269811630249,-54.982627868652344,0
148.67799999999988,-0.0014285091310739517,-0.0007925498066470027,-0.0006897930870763958,0.0,0.0,0.0,0.0,-0.001412591547705233,-0.0035906201228499413,0.0013436623848974705,1.0023376941680908,0.0,0.0,0.0,0.3036210238933563,2.20672607421875,6.069102764129639,-54.95600891113281,0
158.59699999999975,-0.0015143008204177022,-0.0008584035676904023,-0.0007145840208977461,0.0,0.0,0.0,0.0,0.001203077845275402,-0.0036811912432312965,-0.001068401848897338,1.0006126165390015,0.0,0.0,0.0,0.30444738268852234,2.195481538772583,6.0662360191345215,-55.1055793762207,0
168.5020000000004,-0.0006150913541205227,-0.00043052126420661807,0.0005731143755838275,0.0,0.0,0.0,0.0,-0.0023144367150962353,0.0014265583595260978,-0.001659707515500486,1.001249074935913,0.0,0.0,0.0,0.29707345366477966,2.3352270126342773,6.234007358551025,-53.7708854675293,0
178.42399999999907,-0.0006663833628408611,-0.0004710748326033354,0.0006028474308550358,0.0,0.0,0.0,0.0,-0.000841260829474777,-0.0021357075311243534,0.0024083054158836603,1.0028339624404907,0.0,0.0,0.0,0.29599350690841675,2.334094285964966,6.2200093269348145,-53.575416564941406,0
188.32699999999932,-0.0007197856903076172,-0.0005140885477885604,0.0006340356194414198,0.0,0.0,0.0,0.0,0.0010500878561288118,-0.0012854048982262611,-0.0006768786115571856,1.0024981498718262,0.0,0.0,0.0,0.29637885093688965,2.3372883796691895,6.219194412231445,-53.645164489746094,0
198.2520000000004,-0.0007757593411952257,-0.0005589444772340357,0.0006677162018604577,0.0,0.0,0.0,0.0,-0.0021732819732278585,0.0017021357780322433,1.8584936697152443e-05,1.0003150701522827,0.0,0.0,0.0,0.2950083017349243,2.3337976932525635,6.2065958976745605,-53.3970947265625,0
208.15699999999924,-0.0008344194502569735,-0.0006057041464373469,0.0007037429022602737,0.0,0.0,0.0,0.0,-0.0007296815747395158,0.0013743177987635136,0.004870015662163496,0.9992467164993286,0.0,0.0,0.0,0.29531773924827576,2.3293323516845703,6.20140266418457,-53.45309829711914,0
218.08100000000013,-0.0008960131672210991,-0.00065418123267591,0.00074066809611395,0.0,0.0,0.0,0.0,0.0008421490783803165,-0.00041778633021749556,0.003400257555767894,1.0002714395523071,0.0,0.0,0.0,0.29418134689331055,2.3247358798980713,6.187047958374023,-53.247406005859375,0
227.97699999999895,-0.0009611737914383411,-0.0007043813820928335,0.0007775644771754742,0.0,0.0,0.0,0.0,0.0017105222214013338,0.000597781443502754,0.001364510622806847,1.0008522272109985,0.0,0.0,0.0,0.29503846168518066,2.3197054862976074,6.178004741668701,-53.402549743652344,0
237.89699999999903,-0.0010292745428159833,-0.0007559307268820703,0.000814880128018558,0.0,0.0,0.0,0.0,-0.005307578947395086,0.0017942520789802074,-0.0014431073796004057,1.0004428625106812,0.0,0.0,0.0,0.2946999669075012,2.310354471206665,6.167487621307373,-53.34128189086914,0
247.80099999999948,-0.0010990460868924856,-0.0008088271133601665,0.0008531693019904196,0.0,0.0,0.0,0.0,-0.0006729195010848343,0.005013639573007822,-0.0004199697286821902,0.9999701380729675,0.0,0.0,0.0,0.2939828932285309,2.311277389526367,6.167011260986328,-53.21148681640625,0
257.72600000000057,-0.0011700628092512488,-0.0008639785228297114,0.000891968491487205,0.0,0.0,0.0,0.0,0.00019739774870686233,0.00142946420237422,-0.0036907459143549204,0.9990250468254089,0.0,0.0,0.0,0.2925011217594147,2.312469959259033,6.153170108795166,-52.94327926635742,0
267.6270000000004,-0.0012425133027136326,-0.0009215637110173702,0.0009306987631134689,0.0,0.0,0.0,0.0,0.0022523459047079086,0.004568856675177813,0.0016525419196113944,0.9981971383094788,0.0,0.0,0.0,0.2928670644760132,2.3089864253997803,6.134790897369385,-53.009525299072266,0
277.5470000000005,-0.0013171278405934572,-0.0009816893143579364,0.0009687841520644724,0.0,0.0,0.0,0.0,0.00019065746164415032,-0.001390906167216599,-0.0010730974609032273,0.9994118809700012,0.0,0.0,0.0,0.29262712597846985,2.3038039207458496,6.125948905944824,-52.96609115600586,0
287.4509999999991,-0.0013936267932876945,-0.0010439221514388919,0.0010057974141091108,0.0,0.0,0.0,0.0,-0.0006341526750475168,0.0050503648817539215,0.002247812692075968,0.9986003041267395,0.0,0.0,0.0,0.29257646203041077,2.298473596572876,6.12675666809082,-52.9569206237793,0
297.3860000000004,-0.001471419003792107,-0.0011075076181441545,0.0010419217869639397,0.0,0.0,0.0,0.0,0.0027084576431661844,0.002320059109479189,0.0009789200266823173,0.9976388216018677,0.0,0.0,0.0,0.29274722933769226,2.296638250350952,6.1169047355651855,-52.987831115722656,0
307.27900000000045,-0.0015507047064602375,-0.0011733254650607705,0.001076964777894318,0.0,0.0,0.0,0.0,0.0014551340136677027,0.00039571578963659704,0.0036788550205528736,0.9977378249168396,0.0,0.0,0.0,0.2924146354198456,2.292266607284546,6.100664138793945,-52.92762756347656,0
317.20600000000013,-0.0016309686470776796,-0.0012418804690241814,0.001110329758375883,0.0,0.0,0.0,0.0,0.0009056540438905358,-0.0011991122737526894,-0.0003717417421285063,0.9983473420143127,0.0,0.0,0.0,0.2924984097480774,2.285038709640503,6.097393035888672,-52.94279098510742,0
327.10599999999977,-0.001712303375825286,-0.0013124170945957303,0.0011419198708608747,0.0,0.0,0.0,0.0,0.0007889725966379046,0.0021449464838951826,-0.0025086209643632174,1.001915693283081,0.0,0.0,0.0,0.29311513900756836,2.2795052528381348,6.090970516204834,-53.054420471191406,0
337.02399999999943,-0.001795559306629002,-0.0013849076349288225,0.0011726322118192911,0.0,0.0,0.0,0.0,-0.004203411750495434,0.0028763320297002792,0.0028790950309485197,1.0001133680343628,0.0,0.0,0.0,0.29366475343704224,2.2757744789123535,6.088598728179932,-53.15390396118164,0
346.9329999999991,-0.0018817500676959753,-0.0014595560496672988,0.0012039884459227324,0.0,0.0,0.0,0.0,-0.00015854414959903806,0.0014209105866029859,0.0024460197892040014,0.9977255463600159,0.0,0.0,0.0,0.29457396268844604,2.276942253112793,6.075068473815918,-53.3184700012207,0
356.84599999999955,-0.001971188001334667,-0.0015357055235654116,0.0012355608632788062,0.0,0.0,0.0,0.0,-0.0030453146900981665,-0.0026673120446503162,0.0007940891082398593,0.9980639219284058,0.0,0.0,0.0,0.29554983973503113,2.2727091312408447,6.0688796043396,-53.495113372802734,0
366.7569999999996,-0.0021560590248554945,-0.0016939614433795214,0.0012942226603627205,0.0,0.0,0.0,0.0,0.0009132731356658041,0.0037526958622038364,-0.0007262517465278506,0.9989588856697083,0.0,0.0,0.0,0.29402074217796326,2.268131732940674,6.05244779586792,-53.21833801269531,0
376.6779999999999,-0.0021560590248554945,-0.0016939614433795214,0.0012942226603627205,0.0,0.0,0.0,0.0,4.566866118693724e-05,-0.002902296371757984,-2.0685463823610917e-05,0.9986363053321838,0.0,0.0,0.0,0.29402074217796326,2.268131732940674,6.05244779586792,-53.21833801269531,0
386.58100000000013,-0.0023484209086745977,-0.001863777288235724,0.0013481422793120146,0.0,0.0,0.0,0.0,-0.003723821137100458,-0.0014234113041311502,-0.0005377525230869651,0.9990267753601074,0.0,0.0,0.0,0.29388558864593506,2.2546770572662354,6.040946960449219,-53.193878173828125,0
396.4989999999998,-0.0023484209086745977,-0.001863777288235724,0.0013481422793120146,0.0,0.0,0.0,0.0,0.0009708235738798976,0.003554956754669547,-0.00214040232822299,0.9984102845191956,0.0,0.0,0.0,0.29388558864593506,2.2546770572662354,6.040946960449219,-53.193878173828125,0
406.40099999999984,-0.0024582098703831434,-0.0019613895565271378,0.0013765024486929178,0.0,0.0,0.0,0.0,0.0005118311382830143,0.000266086048213765,0.004525084979832172,0.9990408420562744,0.0,0.0,0.0,0.29322004318237305,2.2565786838531494,6.029244899749756,-53.07341003417969,0
416.33400000000074,-0.0025609948206692934,-0.0020528275053948164,0.00140113546513021,0.0,0.0,0.0,0.0,-0.001715358579531312,0.0015481828013435006,0.003207565750926733,0.99937903881073,0.0,0.0,0.0,0.29421624541282654,2.2465832233428955,6.022569179534912,-53.25372314453125,0
426.22500000000036,-0.0026669842191040516,-0.002145602134987712,0.0014250196982175112,0.0,0.0,0.0,0.0,-0.001227732514962554,-0.0005289880791679025,0.004321522545069456,0.9981792569160461,0.0,0.0,0.0,0.2947418987751007,2.244220733642578,6.01851224899292,-53.348873138427734,0
436.15099999999984,-0.002775871194899082,-0.0022395343985408545,0.0014484548009932041,0.0,0.0,0.0,0.0,-0.0008025735733099282,-0.0035279938019812107,0.0035090609453618526,0.999279797077179,0.0,0.0,0.0,0.29491686820983887,2.242090940475464,6.017975330352783,-53.38053894042969,0
446.0529999999999,-0.0028872473631054163,-0.002335662953555584,0.0014709935057908297,0.0,0.0,0.0,0.0,0.0010770659428089857,0.003457161132246256,-0.0012450104113668203,0.9989986419677734,0.0,0.0,0.0,0.2954328954219818,2.240219831466675,6.011673450469971,-53.47394561767578,0
455.98699999999917,-0.0030016510281711817,-0.0024338632356375456,0.0014927474549040198,0.0,0.0,0.0,0.0,-0.0009071307722479105,0.0007378818700090051,-0.0037841270677745342,0.9989577531814575,0.0,0.0,0.0,0.29703694581985474,2.241645574569702,6.01314640045166,-53.764278411865234,0
465.878999999999,-0.0031192766036838293,-0.002533141290768981,0.001513947150669992,0.0,0.0,0.0,0.0,5.99007798882667e-05,-0.0010650736512616277,-0.0016799611039459705,0.9992330074310303,0.0,0.0,0.0,0.29636403918266296,2.2384097576141357,5.999701499938965,-53.64247512817383,0
475.8029999999999,-0.0032392404973506927,-0.0026335346046835184,0.0015346570871770382,0.0,0.0,0.0,0.0,-0.0008613826939836144,0.004879375919699669,-4.6337991079781204e-05,0.9995933175086975,0.0,0.0,0.0,0.29572227597236633,2.2399544715881348,5.996056079864502,-53.52632141113281,0
485.7000000000007,-0.0033611939288675785,-0.0027356555219739676,0.0015549099771305919,0.0,0.0,0.0,0.0,0.002176837529987097,0.004153387621045113,-0.004773642867803574,0.9991926550865173,0.0,0.0,0.0,0.2956850528717041,2.240635633468628,5.990664958953857,-53.51958084106445,0
495.625,-0.00348635483533144,-0.002839774824678898,0.0015747507568448782,0.0,0.0,0.0,0.0,-0.0008464876445941627,-0.0006191721186041832,-0.0009256275370717049,1.0002950429916382,0.0,0.0,0.0,0.29483267664909363,2.235422134399414,5.97509765625,-53.36530685424805,0
505.52499999999964,-0.0036148936487734318,-0.0029457262717187405,0.0015942621976137161,0.0,0.0,0.0,0.0,-0.0011175173567607999,-0.005836034659296274,-0.0015096296556293964,0.9999260306358337,0.0,0.0,0.0,0.2943285405635834,2.2291433811187744,5.958460330963135,-53.274051666259766,0
515.4459999999999,-0.003745831549167633,-0.003053076099604368,0.0016138684004545212,0.0,0.0,0.0,0.0,0.0028122568037360907,0.0009373504435643554,-0.0035602932330220938,1.0000733137130737,0.0,0.0,0.0,0.29355159401893616,2.2255489826202393,5.953514575958252,-53.1334228515625,0
525.357,-0.003878661897033453,-0.0031622187234461308,0.001633735024370253,0.0,0.0,0.0,0.0,-0.0003566579835023731,-0.002877109916880727,-0.002739380579441786,1.0003317594528198,0.0,0.0,0.0,0.29268011450767517,2.2216544151306152,5.963268756866455,-52.975685119628906,0
535.2780000000002,-0.004013269208371639,-0.003273667534813285,0.001653624582104385,0.0,0.0,0.0,0.0,-0.001928037847392261,-0.0008830649312585592,0.0011916572693735361,1.0013065338134766,0.0,0.0,0.0,0.29105743765830994,2.219245433807373,5.951119899749756,-52.68198013305664,0
545.1749999999993,-0.004150335676968098,-0.003387277480214834,0.0016742353327572346,0.0,0.0,0.0,0.0,-0.001585393212735653,0.0005639293231070042,0.00046284275595098734,1.001694679260254,0.0,0.0,0.0,0.2914090156555176,2.2156918048858643,5.947067737579346,-52.74561309814453,0
555.1010000000006,-0.004291510675102472,-0.0035031456500291824,0.0016963204834610224,0.0,0.0,0.0,0.0,0.0007311642984859645,-0.001812376081943512,0.003068425226956606,0.9994187355041504,0.0,0.0,0.0,0.2918410003185272,2.220682382583618,5.944685459136963,-52.82379913330078,0
565.0,-0.004436679650098085,-0.0036217421293258667,0.0017197162378579378,0.0,0.0,0.0,0.0,0.0007598260999657214,0.0007938242051750422,-0.0005900401738472283,0.9988187551498413,0.0,0.0,0.0,0.2906937301158905,2.2181167602539062,5.942687034606934,-52.616146087646484,0
574.9259999999995,-0.004584368783980608,-0.0037432017270475626,0.0017430977895855904,0.0,0.0,0.0,0.0,0.0007426583906635642,-0.002171433297917247,-0.0006080313469283283,0.9993826746940613,0.0,0.0,0.0,0.2920704185962677,2.2101261615753174,5.929819583892822,-52.865325927734375,0
584.8269999999993,-0.004734870046377182,-0.0038674066308885813,0.0017654940020292997,0.0,0.0,0.0,0.0,0.002336295088753104,0.0017123543657362461,0.0038985349237918854,0.9994040131568909,0.0,0.0,0.0,0.2923490107059479,2.2036643028259277,5.9182257652282715,-52.91575241088867,0
594.7469999999994,-0.0021308280993252993,0.00037051664548926055,-0.0017233454855158925,0.0,0.0,0.0,0.0,0.0014782216167077422,0.0024799853563308716,0.0003438350686337799,0.9995970129966736,0.0,0.0,0.0,0.29513639211654663,2.6047916412353516,6.162999153137207,-53.42027282714844,0
604.6499999999996,-0.0022189340088516474,0.00036093121161684394,-0.0017639672150835395,0.0,0.0,0.0,0.0,-0.0015457962872460485,-0.0003586088423617184,-0.0031206144485622644,0.9990886449813843,0.0,0.0,0.0,0.2940197288990021,2.6024913787841797,6.148523330688477,-53.21815490722656,0
614.5750000000007,-0.002309281611815095,0.0003513104165904224,-0.0018049972131848335,0.0,0.0,0.0,0.0,0.0026005548425018787,-0.0003600998898036778,-0.00035160972038283944,1.0028867721557617,0.0,0.0,0.0,0.293195515871048,2.5956602096557617,6.137218475341797,-53.068973541259766,0
624.4750000000004,-0.0023537531960755587,0.0004546109994407743,-0.0018901163712143898,0.0,0.0,0.0,0.0,0.0030259322375059128,0.0002243138587800786,-0.001975312363356352,0.999618411064148,0.0,0.0,0.0,0.29247966408729553,2.5858724117279053,6.13060188293457,-52.93939971923828,0
634.3950000000004,-0.002444953890517354,0.0004472325090318918,-0.0019314837409183383,0.0,0.0,0.0,0.0,-0.00020227875211276114,0.0011704206699505448,0.0002019228122662753,0.9992409944534302,0.0,0.0,0.0,0.2911565601825714,2.5770394802093506,6.118777751922607,-52.699920654296875,0
644.3009999999995,-0.002471132902428508,0.0005333676235750318,-0.002018851460888982,0.0,0.0,0.0,0.0,0.003424266818910837,0.00044237778638489544,-0.000969434913713485,0.9992662668228149,0.0,0.0,0.0,0.290720671415329,2.5677483081817627,6.120903968811035,-52.62102127075195,0
654.226999999999,-0.0025638423394411802,0.000528421311173588,-0.002063347725197673,0.0,0.0,0.0,0.0,-0.0011605919571593404,-0.00037760939449071884,0.0006383526488207281,0.998620331287384,0.0,0.0,0.0,0.2898760437965393,2.56664776802063,6.102077484130859,-52.468143463134766,0
664.125,-0.0026404117234051228,0.000587053713388741,-0.002112393733114004,0.0,0.0,0.0,0.0,0.001877480186522007,0.0013069063425064087,-0.0023600836284458637,0.9989978671073914,0.0,0.0,0.0,0.2897387444972992,2.5669519901275635,6.106105327606201,-52.44329071044922,0
674.0450000000001,-0.0027351765893399715,0.0005824205582030118,-0.002159758238121867,0.0,0.0,0.0,0.0,-0.0013390672393143177,-0.001931249862536788,0.0019151030573993921,1.0003046989440918,0.0,0.0,0.0,0.2887502908706665,2.5614569187164307,6.1048197746276855,-52.264373779296875,0
683.9500000000007,-0.0027369793970137835,0.0006127519300207496,-0.002257636049762368,0.0,0.0,0.0,0.0,0.0017131019849330187,0.0005689531681127846,-0.0001592748158145696,1.0017545223236084,0.0,0.0,0.0,0.2891275882720947,2.5554635524749756,6.101629734039307,-52.33266830444336,0
693.8770000000004,-0.0002083909639623016,-9.589553519617766e-05,-4.417195304995403e-05,0.0,0.0,0.0,0.0,-0.0009556244476698339,-6.13704978604801e-05,-0.0005006894352845848,1.0010838508605957,0.0,0.0,0.0,0.28511297702789307,2.4842522144317627,6.341691970825195,-51.60601806640625,0
703.7759999999998,-0.00020332331769168377,-5.685309224645607e-05,-0.0001105395785998553,0.0,0.0,0.0,0.0,0.00047632597852498293,-0.0021813635248690844,-0.0026869033463299274,0.9985525012016296,0.0,0.0,0.0,0.28339773416519165,2.4759445190429688,6.335524082183838,-51.29555892944336,0
713.7039999999997,-0.00020332331769168377,-5.685309224645607e-05,-0.0001105395785998553,0.0,0.0,0.0,0.0,0.0009636718314141035,-0.0009705519769340754,-0.004261726513504982,0.9971504807472229,0.0,0.0,0.0,0.28339773416519165,2.4759445190429688,6.335524082183838,-51.29555892944336,0
723.6010000000006,-0.0002278140018461272,-5.011531902709976e-05,-0.00015952714602462947,0.0,0.0,0.0,0.0,0.004432522691786289,0.0032071799505501986,0.00580906355753541,0.9993672370910645,0.0,0.0,0.0,0.2813210189342499,2.4754257202148438,6.319692611694336,-50.9196662902832,0
733.5210000000006,-0.0002278140018461272,-5.011531902709976e-05,-0.00015952714602462947,0.0,0.0,0.0,0.0,-0.00037391140358522534,-0.00036715276655741036,0.002946015214547515,1.0005898475646973,0.0,0.0,0.0,0.2813210189342499,2.4754257202148438,6.319692611694336,-50.9196662902832,0
743.4249999999993,-0.0002592640230432153,-7.798498700140044e-05,-0.0001659826812101528,0.0,0.0,0.0,0.0,0.0003407772455830127,0.002969738794490695,0.0007691573700867593,0.9984427094459534,0.0,0.0,0.0,0.2822204530239105,2.468942880630493,6.3121185302734375,-51.08245849609375,0
753.348,-0.00029023870592936873,-0.00011085266305599362,-0.00017650863446760923,0.0,0.0,0.0,0.0,-0.001366593292914331,-0.00012896774569526315,-0.0006899985601194203,0.9986041188240051,0.0,0.0,0.0,0.28336629271507263,2.466752767562866,6.303287506103516,-51.28986358642578,0
763.2610000000004,-0.00030020964914001524,-5.4936146625550464e-05,-0.00021396848023869097,0.0,0.0,0.0,0.0,-0.0020556312520056963,-0.0026187070179730654,0.0007054421002976596,1.000500202178955,0.0,0.0,0.0,0.2819196581840515,2.4642624855041504,6.2936015129089355,-51.028018951416016,0
773.1839999999993,-0.00033349829027429223,-8.73925891937688e-05,-0.00022893294226378202,0.0,0.0,0.0,0.0,0.002375553362071514,0.002559947781264782,-0.004695054143667221,1.0018956661224365,0.0,0.0,0.0,0.28076350688934326,2.4616787433624268,6.287882328033447,-50.81875228881836,0
783.0820000000003,-0.00036216279841028154,-4.2152114474447444e-05,-0.0002216896682512015,0.0,0.0,0.0,0.0,-0.0011034911731258035,0.0004584770940709859,0.001967513933777809,0.9995296001434326,0.0,0.0,0.0,0.28034746646881104,2.455132007598877,6.280754089355469,-50.743446350097656,0
793.009,-0.0003977991873398423,-7.562923565274104e-05,-0.00023303815396502614,0.0,0.0,0.0,0.0,-0.0004948884597979486,-0.0023089523892849684,0.0032575810328125954,0.997748076915741,0.0,0.0,0.0,0.28127360343933105,2.455061197280884,6.282214641571045,-50.91107940673828,0
802.8999999999996,-0.0004294355458114296,-5.422024696599692e-05,-0.0002384622348472476,0.0,0.0,0.0,0.0,0.0007700688438490033,-0.0019446889637038112,0.002126570325344801,0.9980199337005615,0.0,0.0,0.0,0.288016676902771,2.476351261138916,6.290193557739258,-52.131591796875,0
812.8209999999999,-0.00022101521608419716,-0.00013138219946995378,-2.7193718779017217e-05,0.0,0.0,0.0,0.0,-0.00039027963066473603,0.0038710569497197866,-0.0017153609078377485,1.0010429620742798,0.0,0.0,0.0,0.2914545238018036,2.471118450164795,6.342719078063965,-52.75384521484375,0
822.7250000000004,-0.00022326014004647732,-0.00011308835382806137,-4.6977438614703715e-05,0.0,0.0,0.0,0.0,0.0023962147533893585,-0.0038265713956207037,-0.002503173192963004,0.9991244673728943,0.0,0.0,0.0,0.291239857673645,2.4709396362304688,6.341121673583984,-52.714996337890625,0
832.6599999999999,-0.000253049423918128,-0.00014437946083489805,-5.020799289923161e-05,0.0,0.0,0.0,0.0,-0.0009597195312380791,-0.0001657083776080981,-0.005424579605460167,0.9993054270744324,0.0,0.0,0.0,0.29055872559547424,2.466151237487793,6.334689140319824,-52.591705322265625,0
842.5489999999991,-0.00025862871552817523,-8.731847628951073e-05,-5.422132016974501e-05,0.0,0.0,0.0,0.0,0.0007659564726054668,0.000705116253811866,-0.0016187565634027123,0.9991850852966309,0.0,0.0,0.0,0.29000020027160645,2.4595906734466553,6.336136341094971,-52.4906120300293,0
852.4830000000002,-0.00029055995400995016,-0.00011675777204800397,-5.8246816479368135e-05,0.0,0.0,0.0,0.0,0.0008659453596919775,-0.0008519667899236083,0.0020477212965488434,0.9992779493331909,0.0,0.0,0.0,0.28917738795280457,2.4541780948638916,6.33664608001709,-52.34168243408203,0
862.3770000000004,-0.00027745950501412153,-4.38035094703082e-05,-0.0001327419886365533,0.0,0.0,0.0,0.0,-0.0027097950223833323,0.0013106161495670676,2.147881968994625e-05,0.9975382089614868,0.0,0.0,0.0,0.2890225946903229,2.4485716819763184,6.330564975738525,-52.31366729736328,0
872.2980000000007,-0.00030967037309892476,-7.098574860719964e-05,-0.00014427702990360558,0.0,0.0,0.0,0.0,-0.0005647802026942372,-0.0019344433676451445,-0.0008556750253774226,1.0011944770812988,0.0,0.0,0.0,0.28813207149505615,2.4413132667541504,6.317931175231934,-52.1524772644043,0
882.2070000000003,-0.00030867845634929836,-3.657265779111185e-06,-0.0002138554264092818,0.0,0.0,0.0,0.0,-0.0021544331684708595,-0.002995111281052232,-0.0012871947837993503,0.9993029832839966,0.0,0.0,0.0,0.28825727105140686,2.4377498626708984,6.319676399230957,-52.17513656616211,0
892.1219999999994,-0.0003413831873331219,-2.9418893973343074e-05,-0.0002307287504663691,0.0,0.0,0.0,0.0,-0.004333049524575472,-0.0029969862662255764,0.0033858029637485743,1.0007479190826416,0.0,0.0,0.0,0.28749051690101624,2.4335830211639404,6.314735412597656,-52.03635787963867,0
902.0339999999997,-0.00035410854616202414,-6.090818260418018e-06,-0.00029469176661223173,0.0,0.0,0.0,0.0,0.00012134236021665856,0.00013023882638663054,0.0011762884678319097,1.001461148262024,0.0,0.0,0.0,0.2967514395713806,2.4533562660217285,6.330935001373291,-53.71260452270508,0
911.9470000000001,-0.0003890310472343117,-3.401661160751246e-05,-0.000314394012093544,0.0,0.0,0.0,0.0,0.0010775410337373614,0.004087365698069334,-0.0005120251444168389,1.0002998113632202,0.0,0.0,0.0,0.29713547229766846,2.455399990081787,6.3277506828308105,-53.7821159362793,0
921.860999999999,-0.00040451184031553566,7.173744234023616e-05,-0.0003390557540114969,0.0,0.0,0.0,0.0,0.0032142840791493654,-0.0008677250007167459,-0.0003505239437799901,0.9988975524902344,0.0,0.0,0.0,0.29371076822280884,2.4939088821411133,6.331766605377197,-53.1622314453125,0
931.771999999999,-5.872406472917646e-05,-9.477817366132513e-05,-6.591626151930541e-05,0.0,0.0,0.0,0.0,-0.0022689225152134895,-0.0014345491072162986,0.001247446401976049,0.9992655515670776,0.0,0.0,0.0,0.29142287373542786,2.457383155822754,6.4037065505981445,-52.74811935424805,0
941.6839999999993,-4.671600618166849e-05,-7.778125291224569e-05,-8.848025754559785e-05,0.0,0.0,0.0,0.0,-0.004150045569986105,0.0026147959288209677,0.00010692550131352618,0.9995689988136292,0.0,0.0,0.0,0.2913585603237152,2.4579622745513916,6.39823579788208,-52.736480712890625,0
951.598,-6.521622708532959e-05,-0.00010976349585689604,-9.40000027185306e-05,0.0,0.0,0.0,0.0,-0.00167481426615268,-0.003681446658447385,0.004017611965537071,1.001521348953247,0.0,0.0,0.0,0.2911682426929474,2.4550657272338867,6.3907470703125,-52.70203399658203,0
961.5069999999996,-5.3463096264749765e-05,-5.8809833717532456e-05,-0.00011650204396573827,0.0,0.0,0.0,0.0,0.0003201170184183866,-0.0031359985005110502,0.0037992021534591913,1.0000463724136353,0.0,0.0,0.0,0.29196321964263916,2.4527428150177,6.391799449920654,-52.84592056274414,0
971.4200000000001,-7.467220711987466e-05,-9.058828436536714e-05,-0.0001220843114424497,0.0,0.0,0.0,0.0,0.0012297395151108503,0.002695848699659109,0.0008775545284152031,0.9980461001396179,0.0,0.0,0.0,0.29208898544311523,2.4511923789978027,6.383746147155762,-52.868682861328125,0
981.3459999999995,-8.16346364445053e-05,-7.492471922887489e-05,-0.00014237295545171946,0.0,0.0,0.0,0.0,0.003049279795959592,0.0027994744013994932,0.0019248975440859795,0.9980354905128479,0.0,0.0,0.0,0.29225704073905945,2.448866128921509,6.377707481384277,-52.899105072021484,0
991.2469999999994,-0.00010546490375418216,-0.00010567266872385517,-0.00015050916408654302,0.0,0.0,0.0,0.0,-0.0028223050758242607,0.004619849845767021,-0.002143408404663205,1.0000604391098022,0.0,0.0,0.0,0.29206570982933044,2.442513942718506,6.36790132522583,-52.86447525024414,0
1001.1579999999994,-0.0001224352599820122,-8.415752381552011e-05,-0.00016094866441562772,0.0,0.0,0.0,0.0,0.0014830711297690868,0.0024015281815081835,0.003568666987121105,0.9992774724960327,0.0,0.0,0.0,0.29028546810150146,2.4397168159484863,6.356943130493164,-52.5422477722168,0
1011.0689999999995,-0.00014957747771404684,-0.00011549022747203708,-0.0001711025252006948,0.0,0.0,0.0,0.0,0.0031656045466661453,-0.00027646528906188905,-0.001849226769991219,0.9972618818283081,0.0,0.0,0.0,0.2901608943939209,2.436178207397461,6.3469719886779785,-52.51970291137695,0
1020.9889999999996,-0.0001863438228610903,-0.00015372315829154104,-0.00016195510397665203,0.0,0.0,0.0,0.0,-0.0008614144753664732,-0.0019002719782292843,0.0011103792348876595,0.9968135356903076,0.0,0.0,0.0,0.29010602831840515,2.435955286026001,6.33709192276001,-52.509765625,0
1030.8940000000002,-0.00021735465270467103,-0.00018692197045311332,-0.00017342783394269645,0.0,0.0,0.0,0.0,-0.0009545981884002686,0.0004564937553368509,-0.0033010663464665413,0.9977375268936157,0.0,0.0,0.0,0.2904859483242035,2.4324769973754883,6.337290287017822,-52.57853317260742,0
1040.8109999999997,-0.0002533853694330901,-0.00017333282448817044,-0.00016359510482288897,0.0,0.0,0.0,0.0,0.0023210456129163504,0.0012774104252457619,-0.00011359624477336183,0.9988709092140198,0.0,0.0,0.0,0.28865665197372437,2.4257609844207764,6.324772357940674,-52.24742889404297,0
1050.7209999999995,-0.00028921745251864195,-0.00020304042845964432,-0.00017808462143875659,0.0,0.0,0.0,0.0,-0.0014490638859570026,0.00414268160238862,-0.0017951152985915542,1.0003266334533691,0.0,0.0,0.0,0.2889116406440735,2.42065691947937,6.32183313369751,-52.2935791015625,0
1060.6419999999998,-0.00032571080373600125,-0.00016313405649270862,-0.00018592293781694025,0.0,0.0,0.0,0.0,-0.0012267768615856767,-0.00018983885820489377,0.00409406702965498,0.9991977214813232,0.0,0.0,0.0,0.2968907654285431,2.437727212905884,6.314502239227295,-53.73781967163086,0
1070.5419999999995,-0.00036451598862186074,-0.00019228171731811017,-0.000200518305064179,0.0,0.0,0.0,0.0,-0.000838709354866296,-0.002573467092588544,0.0009351156186312437,0.9990347623825073,0.0,0.0,0.0,0.29602405428886414,2.436115264892578,6.302784442901611,-53.5809440612793,0
1080.4580000000005,-0.00039144064066931605,-0.0001092367892852053,-0.00020432552264537662,0.0,0.0,0.0,0.0,0.0007914197049103677,0.0008454418857581913,0.0018533030524849892,1.000139594078064,0.0,0.0,0.0,0.29751986265182495,2.4339816570281982,6.300286769866943,-53.8516845703125,0
1090.3629999999994,-0.0004300034197513014,-0.0001346017961623147,-0.00021908401686232537,0.0,0.0,0.0,0.0,0.0003913904365617782,-0.0005926541052758694,0.004048402886837721,1.0006415843963623,0.0,0.0,0.0,0.2961287498474121,2.429299831390381,6.299472808837891,-53.59988784790039,0
1100.2839999999997,-0.00044156971853226423,-6.3511157350149e-05,-0.0002666231303010136,0.0,0.0,0.0,0.0,0.0007939664064906538,-0.002668369095772505,0.0011464388808235526,0.9995329976081848,0.0,0.0,0.0,0.2972443699836731,2.429975986480713,6.287251949310303,-53.801822662353516,0
1110.1900000000005,-0.0004805195494554937,-8.462608093395829e-05,-0.00028348699561320245,0.0,0.0,0.0,0.0,-0.002711919602006674,0.0012904247269034386,-0.0013669978361576796,1.0008505582809448,0.0,0.0,0.0,0.29687419533729553,2.4192779064178467,6.2839579582214355,-53.73482131958008,0
1120.1080000000002,-0.00048674343270249665,-2.3024222173262388e-05,-0.0003435578546486795,0.0,0.0,0.0,0.0,-0.000900939863640815,-0.00014069931057747453,0.0016005722573027015,1.000640630722046,0.0,0.0,0.0,0.2975600063800812,2.4224987030029297,6.272301197052002,-53.858951568603516,0
1130.0120000000006,-0.0005241078324615955,-4.0870465454645455e-05,-0.0003628219710662961,0.0,0.0,0.0,0.0,-0.0005924443830735981,0.0007871901034377515,-0.0010886163217946887,0.999234676361084,0.0,0.0,0.0,0.2960829436779022,2.41571307182312,6.260589122772217,-53.59159851074219,0
1139.9449999999997,-0.0005570441135205328,-2.943893923657015e-05,-0.0003868931671604514,0.0,0.0,0.0,0.0,0.0006694773328490555,-0.0064931148663163185,0.0037041553296148777,0.9994306564331055,0.0,0.0,0.0,0.294332891702652,2.4164514541625977,6.246306896209717,-53.27484130859375,0
1149.8410000000003,-0.000596139463596046,-4.647612513508648e-05,-0.0004064671811647713,0.0,0.0,0.0,0.0,-0.0006700712256133556,0.000644806248601526,0.0019369085785001516,0.9979920983314514,0.0,0.0,0.0,0.29559245705604553,2.4102025032043457,6.249655246734619,-53.50282287597656,0
1159.7569999999996,-0.0006040530279278755,-1.2377817256492563e-05,-0.000473035906907171,0.0,0.0,0.0,0.0,-0.0034361754078418016,-0.0006307013682089746,0.002522643655538559,0.9999352693557739,0.0,0.0,0.0,0.2935660183429718,2.4040815830230713,6.243314266204834,-53.13603210449219,0
1169.6620000000003,-0.00064484728500247,-2.7782512916019186e-05,-0.0004979644436389208,0.0,0.0,0.0,0.0,0.0012347763404250145,-0.0021803590934723616,0.0012970134848728776,1.0025895833969116,0.0,0.0,0.0,0.2929311692714691,2.4018683433532715,6.238961696624756,-53.02112579345703,0
1179.5859999999993,-0.0006537936860695481,2.424816557322629e-06,-0.000568863470107317,0.0,0.0,0.0,0.0,0.00020576630777213722,-0.00042266183299943805,-0.0008061251137405634,1.001299262046814,0.0,0.0,0.0,0.2935752272605896,2.399362802505493,6.236196041107178,-53.13770294189453,0
1189.4899999999998,-0.0006974932039156556,-1.0884576113312505e-05,-0.0005946583696641028,0.0,0.0,0.0,0.0,-0.0006956272991374135,0.0005429330631159246,-0.0005347745027393103,0.9986592531204224,0.0,0.0,0.0,0.29293015599250793,2.3953583240509033,6.232364177703857,-53.02094268798828,0
1199.4069999999992,-0.0007157223299145699,4.4092997995903715e-05,-0.00063793157460168,0.0,0.0,0.0,0.0,-0.0013703714357689023,0.0016184333944693208,0.0034564135130494833,0.9983538389205933,0.0,0.0,0.0,0.3007328510284424,2.4172048568725586,6.2333245277404785,-54.43324661254883,0
1209.3109999999997,-0.0007617657538503408,3.272112371632829e-05,-0.0006652572192251682,0.0,0.0,0.0,0.0,0.002119804732501507,-0.0010722109582275152,0.0005780466599389911,0.9977378845214844,0.0,0.0,0.0,0.3005732297897339,2.421755790710449,6.233374118804932,-54.404354095458984,0
1219.2330000000002,-0.0007845477666705847,0.0001048936101142317,-0.0006980516482144594,0.0,0.0,0.0,0.0,-0.0010075224563479424,0.00018560211174190044,-0.0005286855157464743,0.9997827410697937,0.0,0.0,0.0,0.31140685081481934,2.447694778442383,6.228431224822998,-56.365257263183594,0
1229.1370000000006,-0.0008084207656793296,0.00011879085650434718,-0.0007639213581569493,0.0,0.0,0.0,0.0,0.00031259850948117673,0.0023511056788265705,-0.0011861911043524742,0.9993752837181091,0.0,0.0,0.0,0.310340017080307,2.445042848587036,6.229047775268555,-56.17216110229492,0
1239.0570000000007,-0.0008584238821640611,0.00011002665269188583,-0.0007983326213434339,0.0,0.0,0.0,0.0,0.0015716056805104017,-0.004333836492151022,-0.0016651698388159275,1.0007144212722778,0.0,0.0,0.0,0.3104916214942932,2.4458274841308594,6.219402313232422,-56.19960021972656,0
1248.9689999999991,-0.0008942978456616402,0.000143820681842044,-0.0008428394212387502,0.0,0.0,0.0,0.0,-0.001416743383742869,0.0009722936665639281,0.0021123280748724937,0.9998183846473694,0.0,0.0,0.0,0.30884793400764465,2.4388606548309326,6.218822479248047,-55.90209197998047,0
1258.884,-0.0009488454088568687,0.0001367129007121548,-0.0008777024922892451,0.0,0.0,0.0,0.0,-0.0024271004367619753,-0.002972176531329751,-0.00384050072170794,1.0013065338134766,0.0,0.0,0.0,0.30888134241104126,2.4307610988616943,6.211997032165527,-55.90813446044922,0
1268.807999999999,-0.0010282016592100263,0.00017509654571767896,-0.0008753678412176669,0.0,0.0,0.0,0.0,0.00015223507944028825,0.004956149961799383,0.0028784212190657854,1.0005038976669312,0.0,0.0,0.0,0.3069564700126648,2.4302620887756348,6.2083868980407715,-55.559730529785156,0
1278.7000000000007,-0.0010898986365646124,0.000168122467584908,-0.0009060123702511191,0.0,0.0,0.0,0.0,-0.0006956435972824693,-0.00596255948767066,0.0003865234612021595,0.9999938011169434,0.0,0.0,0.0,0.307046502828598,2.4279634952545166,6.206262588500977,-55.57602310180664,0
1288.6129999999994,-0.0011577368713915348,0.0001755490666255355,-0.0009421876166015863,0.0,0.0,0.0,0.0,-0.001448868541046977,-0.0009782803244888783,-0.0022510001435875893,1.0001349449157715,0.0,0.0,0.0,0.30728602409362793,2.4248242378234863,6.201839923858643,-55.619380950927734,0
1298.5339999999997,-0.0012259093346074224,0.00016576959751546383,-0.000972232548519969,0.0,0.0,0.0,0.0,-0.0018243321683257818,0.0037076547741889954,-0.0006044625188224018,0.9997510313987732,0.0,0.0,0.0,0.30802398920059204,2.42559814453125,6.196819305419922,-55.75295639038086,0
1308.437,-0.0012894258834421635,0.0001844530925154686,-0.0010116402991116047,0.0,0.0,0.0,0.0,-0.0018504098989069462,0.001230238121934235,0.0006957320147193968,0.9988585114479065,0.0,0.0,0.0,0.3071102797985077,2.427703619003296,6.197079181671143,-55.58757019042969,0
1318.3580000000002,-0.0013643515994772315,0.0001720700820442289,-0.0010423929197713733,0.0,0.0,0.0,0.0,-0.001553245703689754,0.005386345088481903,-0.003550756722688675,0.9997326731681824,0.0,0.0,0.0,0.3075620234012604,2.430790901184082,6.196460723876953,-55.66933822631836,0
1328.2610000000004,-0.0014204997569322586,0.00019888592942152172,-0.0010919306660071015,0.0,0.0,0.0,0.0,-0.002511963015422225,-0.0013272051000967622,-2.0935596694471315e-05,1.00015389919281,0.0,0.0,0.0,0.30594518780708313,2.4282937049865723,6.185147285461426,-55.37668228149414,0
1338.1890000000003,-0.0014998355181887746,0.0001851150009315461,-0.0011253668926656246,0.0,0.0,0.0,0.0,0.0010026311501860619,-0.002826161915436387,0.004819156602025032,0.9987519979476929,0.0,0.0,0.0,0.304763525724411,2.4281704425811768,6.188557147979736,-55.16280746459961,0
1348.089,-0.0015604178188368678,0.00024457997642457485,-0.0011624604230746627,0.0,0.0,0.0,0.0,0.00021614132856484503,0.0037433456163853407,0.004474230110645294,0.9981877207756042,0.0,0.0,0.0,0.3047603666782379,2.4206607341766357,6.190189838409424,-55.162235260009766,0
1358.0069999999996,-0.001641417620703578,0.00023244833573698997,-0.001198010751977563,0.0,0.0,0.0,0.0,6.386512541212142e-05,0.0010823649354279041,-0.0006810874328948557,1.0001789331436157,0.0,0.0,0.0,0.30519598722457886,2.414374589920044,6.182113170623779,-55.241085052490234,0
1367.9120000000003,-0.0016969538992270827,0.00024400783877354115,-0.0012622072827070951,0.0,0.0,0.0,0.0,0.0018561412580311298,0.002863336121663451,0.001852389075793326,1.0001128911972046,0.0,0.0,0.0,0.30495157837867737,2.4110260009765625,6.180208206176758,-55.196842193603516,0
1377.8310000000001,-0.0017798090120777488,0.00023140797566156834,-0.0013016790617257357,0.0,0.0,0.0,0.0,0.0005029981839470565,-0.000673903850838542,0.0006534679559990764,1.000231146812439,0.0,0.0,0.0,0.3063148558139801,2.4078829288482666,6.169875621795654,-55.443603515625,0
1387.735999999999,-0.00019384398183319718,-5.083922587800771e-05,-4.31405715062283e-06,0.0,0.0,0.0,0.0,0.0002186023339163512,0.0036768363788723946,-0.0016087183030322194,1.0016103982925415,0.0,0.0,0.0,0.3047715127468109,2.371394157409668,6.318027019500732,-55.164249420166016,0
1397.6579999999994,-0.00023082710686139762,-7.50654871808365e-05,-1.1420921509852633e-05,0.0,0.0,0.0,0.0,-0.001000849762931466,0.0035442959051579237,0.0005311481072567403,1.0006712675094604,0.0,0.0,0.0,0.30423134565353394,2.3651065826416016,6.317119121551514,-55.06648254394531,0
1407.5640000000003,-0.0002219115849584341,-3.0090202926658094e-05,-8.31285142339766e-05,0.0,0.0,0.0,0.0,-0.000770766579080373,0.00202396628446877,0.003453806508332491,1.0003248453140259,0.0,0.0,0.0,0.30360594391822815,2.3624536991119385,6.306339263916016,-54.953277587890625,0
1417.4840000000004,-0.0002577807754278183,-5.7269600802101195e-05,-9.321322431787848e-05,0.0,0.0,0.0,0.0,0.0018546611536294222,-0.0013406096259132028,0.001406558440066874,0.9997882843017578,0.0,0.0,0.0,0.3034381866455078,2.35402250289917,6.292500019073486,-54.922916412353516,0
1427.3889999999992,-0.0002598827995825559,-1.471221366955433e-05,-0.00016128570132423192,0.0,0.0,0.0,0.0,0.0009388179169036448,-0.003407488577067852,-0.000766431272495538,0.998325526714325,0.0,0.0,0.0,0.30424201488494873,2.352640151977539,6.286534786224365,-55.06841278076172,0
1437.307999999999,-0.0002965993480756879,-4.2270999983884394e-05,-0.000175545530510135,0.0,0.0,0.0,0.0,-0.001594581175595522,0.0023604081943631172,0.00070925522595644,0.9973617792129517,0.0,0.0,0.0,0.30444785952568054,2.352757453918457,6.2825927734375,-55.10567092895508,0
1447.2109999999993,-0.0001264335442101583,-2.8542906875372864e-05,-0.00011737856402760372,0.0,0.0,0.0,0.0,0.0006407105829566717,-0.0019508071709424257,0.0021376339718699455,1.000080943107605,0.0,0.0,0.0,0.30471813678741455,2.3569560050964355,6.27625036239624,-55.15458679199219,0
1457.1319999999996,-0.00015931599773466587,-5.628790313494392e-05,-0.00013169055455364287,0.0,0.0,0.0,0.0,-0.0017553400248289108,0.0010093455202877522,-0.0003060869930777699,1.0009264945983887,0.0,0.0,0.0,0.30476242303848267,2.3534586429595947,6.2676167488098145,-55.1626091003418,0
1467.036,-0.00016066992247942835,1.059901205735514e-05,-0.0001597391237737611,0.0,0.0,0.0,0.0,-0.0028819250874221325,-0.0024369179736822844,0.0007509324932470918,1.0023177862167358,0.0,0.0,0.0,0.3057217299938202,2.3478801250457764,6.2661285400390625,-55.336238861083984,0
1476.9570000000003,-0.0001941840018844232,-1.691245415713638e-05,-0.000173947264556773,0.0,0.0,0.0,0.0,0.0005109049961902201,-0.0006903666653670371,-0.0007307176128961146,1.0030258893966675,0.0,0.0,0.0,0.3053171932697296,2.348775625228882,6.262965679168701,-55.26301574707031,0
1486.860999999999,-0.0002087573811877519,-3.606684458645759e-06,-0.0002142426819773391,0.0,0.0,0.0,0.0,0.003877760376781225,0.0014883013209328055,0.0009173457510769367,1.0016225576400757,0.0,0.0,0.0,0.3055604100227356,2.3468732833862305,6.258738994598389,-55.30704116821289,0
1496.7839999999997,-0.00024309687432833016,-3.329359242343344e-05,-0.00022582524979952723,0.0,0.0,0.0,0.0,0.00016813552065286785,0.0027060953434556723,0.0036324758548289537,1.0004154443740845,0.0,0.0,0.0,0.3055315315723419,2.344329595565796,6.258291721343994,-55.30181884765625,0
1506.6859999999997,-0.0002794381289277226,-5.641875395667739e-05,-0.00022649577294941992,0.0,0.0,0.0,0.0,0.0009030146175064147,-0.0008701156475581229,0.0015275988262146711,1.0003870725631714,0.0,0.0,0.0,0.30545929074287415,2.338292121887207,6.249845504760742,-55.28874206542969,0
1516.6139999999996,-0.0003156935272272676,-9.090757521335036e-05,-0.00023445319675374776,0.0,0.0,0.0,0.0,-0.0008064007270149887,-0.002817906439304352,-0.0039114817045629025,1.001181960105896,0.0,0.0,0.0,0.30621978640556335,2.336878776550293,6.251880645751953,-55.426387786865234,0
1526.5110000000004,-0.00035208568442612886,-5.563238664763048e-05,-0.00022008104133419693,0.0,0.0,0.0,0.0,-1.967477146536112e-05,-0.0035368476528674364,-0.0016255732625722885,1.0003758668899536,0.0,0.0,0.0,0.3048504590988159,2.32999324798584,6.244705677032471,-55.17853546142578,0
1536.432999999999,-0.00039266672683879733,-9.224086534231901e-05,-0.00022462464403361082,0.0,0.0,0.0,0.0,-0.0006419030833058059,0.008098332211375237,0.00022511860879603773,0.9978052377700806,0.0,0.0,0.0,0.3058389127254486,2.3325252532958984,6.249369144439697,-55.35744857788086,0
1546.3359999999993,-0.00042558356653898954,-7.969134458107874e-05,-0.0002412683388683945,0.0,0.0,0.0,0.0,0.002363178413361311,0.0005576261319220066,-0.0006863845628686249,0.9982703924179077,0.0,0.0,0.0,0.30432239174842834,2.3232638835906982,6.239245414733887,-55.08296203613281,0
1556.2610000000004,-0.00014926177391316742,-0.00019829065422527492,2.6502928449190222e-05,0.0,0.0,0.0,0.0,-0.0011885255808010697,-0.00034475387656129897,0.0022684833966195583,0.9985714554786682,0.0,0.0,0.0,0.3029232919216156,2.302608013153076,6.307689189910889,-54.82971954345703,0
1566.161,-0.00010566561104496941,-0.00011968910257564858,-1.4004086551722139e-05,0.0,0.0,0.0,0.0,0.0002523983712308109,-0.004243999253958464,0.0004079964419361204,0.9983311295509338,0.0,0.0,0.0,0.30266255140304565,2.2991185188293457,6.30006742477417,-54.78252410888672,0
1576.0810000000001,-0.00013321299047674984,-0.00016628492448944598,-1.1080373951699585e-05,0.0,0.0,0.0,0.0,-0.0031987277325242758,-0.0014594109961763024,-0.0013745838077738881,1.000826358795166,0.0,0.0,0.0,0.30252575874328613,2.3002712726593018,6.293909072875977,-54.75776672363281,0
1585.9920000000002,-0.0001091726662707515,-0.00012507752398960292,-7.156929495977238e-05,0.0,0.0,0.0,0.0,0.0027204526122659445,0.0037825708277523518,-0.0009365921723656356,1.0029083490371704,0.0,0.0,0.0,0.30158722400665283,2.3021628856658936,6.2865214347839355,-54.587890625,0
1595.9069999999992,-0.00013737386325374246,-0.00017198968271259218,-7.361110328929499e-05,0.0,0.0,0.0,0.0,-0.0028435306157916784,0.00015252185403369367,0.001415498903952539,0.9992266893386841,0.0,0.0,0.0,0.30167222023010254,2.2994868755340576,6.281190395355225,-54.603271484375,0
1605.8150000000005,-0.00015260228246916085,-0.000109141219581943,-5.754308222094551e-05,0.0,0.0,0.0,0.0,0.0013208906166255474,-0.00392844807356596,-0.006498467642813921,0.9987780451774597,0.0,0.0,0.0,0.30206289887428284,2.2976014614105225,6.269859313964844,-54.673988342285156,0
1615.7379999999994,-0.0001835394068621099,-0.000153344648424536,-5.6818687880877405e-05,0.0,0.0,0.0,0.0,-0.00015120464377105236,0.006396097131073475,-0.002457639668136835,1.0009572505950928,0.0,0.0,0.0,0.3011755347251892,2.297445297241211,6.255899429321289,-54.51336669921875,0
1625.6360000000004,-0.00020511636103037745,-0.00014212600945029408,-6.432974623749033e-05,0.0,0.0,0.0,0.0,0.00046585238305851817,-0.0012280019000172615,-0.0008473786874674261,0.999453604221344,0.0,0.0,0.0,0.30112993717193604,2.3005471229553223,6.249106407165527,-54.5051155090332,0
1635.5560000000005,-0.00023938405502121896,-0.0001860166375990957,-6.463457975769415e-05,0.0,0.0,0.0,0.0,-0.0007747587515041232,0.002210449893027544,-0.0027261122595518827,1.002692461013794,0.0,0.0,0.0,0.29895302653312683,2.2918107509613037,6.2402801513671875,-54.11109161376953,0
1645.4609999999993,-0.00023782144126016647,-9.971575491363183e-05,-0.0001180574981844984,0.0,0.0,0.0,0.0,-0.0013218788662925363,-0.0007066084654070437,0.0015356861986219883,1.0020606517791748,0.0,0.0,0.0,0.3042510151863098,2.3264548778533936,6.255795001983643,-55.07004165649414,0
1655.3860000000004,-0.00027030243654735386,-0.00013846613001078367,-0.00012047570635331795,0.0,0.0,0.0,0.0,-0.0030084007885307074,0.00045769763528369367,-0.001726461574435234,1.0010597705841064,0.0,0.0,0.0,0.30369317531585693,2.317774534225464,6.2490081787109375,-54.96906661987305,0
1665.286,-0.0002939717669505626,-0.00010266822937410325,-0.0001266616309294477,0.0,0.0,0.0,0.0,0.0016879590693861246,-0.0027132339309901,0.003170162905007601,0.9999428987503052,0.0,0.0,0.0,0.3039548397064209,2.315117597579956,6.247434139251709,-55.01643371582031,0
1675.2060000000001,-0.00023486255668103695,-0.0001650350313866511,1.9397530195419677e-05,0.0,0.0,0.0,0.0,-0.0005515888333320618,0.0007929456769488752,0.0011467983713373542,0.9985275864601135,0.0,0.0,0.0,0.3021251857280731,2.310624837875366,6.2248454093933105,-54.68526077270508,0
1685.1119999999992,-0.00018653580627869815,-5.914120265515521e-05,4.734830326924566e-06,0.0,0.0,0.0,0.0,0.000644833198748529,-0.0029321659822016954,0.0018756210338324308,0.9984155297279358,0.0,0.0,0.0,0.3021251857280731,2.310624837875366,6.2248454093933105,-54.68526077270508,0
1695.0390000000007,-0.00025749095948413014,-0.00012529776722658426,1.7077705706469715e-05,0.0,0.0,0.0,0.0,0.003410909790545702,-0.0016545632388442755,0.000959106080699712,1.0007940530776978,0.0,0.0,0.0,0.3015259802341461,2.313427209854126,6.204122543334961,-54.57680130004883,0
1704.9410000000007,-0.0001992723991861567,-5.549376510316506e-05,-6.505113560706377e-05,0.0,0.0,0.0,0.0,0.0008954755030572414,0.0011500511318445206,-0.0006795557565055788,1.002158761024475,0.0,0.0,0.0,0.3015259802341461,2.313427209854126,6.204122543334961,-54.57680130004883,0
1714.8580000000002,-0.0002699561882764101,-0.00012084935588063672,-6.29965215921402e-05,0.0,0.0,0.0,0.0,0.0021616786252707243,0.0010256303939968348,0.003368249861523509,1.0021946430206299,0.0,0.0,0.0,0.3025304079055786,2.2968626022338867,6.192318439483643,-54.75860595703125,0
1724.7649999999994,-0.00023100731777958572,-3.466548150754534e-05,-0.00011668133811326697,0.0,0.0,0.0,0.0,0.0018545554485172033,0.0016847186489030719,0.0035936867352575064,1.0009217262268066,0.0,0.0,0.0,0.3025304079055786,2.2968626022338867,6.192318439483643,-54.75860595703125,0
1734.6890000000003,-0.0002690813853405416,-6.878655403852463e-05,-0.0001163088672910817,0.0,0.0,0.0,0.0,0.00037862363387830555,-0.0030406222213059664,-0.0013552620075643063,0.9995635747909546,0.0,0.0,0.0,0.30424532294273376,2.294304609298706,6.1812310218811035,-55.069007873535156,0
1744.5879999999997,-0.00027428867178969085,-3.1918829336063936e-05,-0.00017159353592433035,0.0,0.0,0.0,0.0,-0.0019410511013120413,0.0034681556280702353,0.0003987678501289338,0.9992699027061462,0.0,0.0,0.0,0.30398207902908325,2.2947206497192383,6.173676490783691,-55.02135467529297,0
1754.5079999999998,-0.0003109789686277509,-6.393859803210944e-05,-0.00017495613428764045,0.0,0.0,0.0,0.0,0.00043950093095190823,-0.0025049163959920406,-0.0012173410505056381,1.0010972023010254,0.0,0.0,0.0,0.30272719264030457,2.2926130294799805,6.1704864501953125,-54.79422378540039,0
1764.4130000000005,-0.00032659375574439764,-8.075860932876822e-06,-0.00021153346460778266,0.0,0.0,0.0,0.0,0.0009073148830793798,0.00366552104242146,-0.0003180279163643718,1.0003892183303833,0.0,0.0,0.0,0.30276718735694885,2.2934718132019043,6.166650772094727,-54.80146789550781,0
1774.339,-0.0003641187504399568,-3.719023152370937e-05,-0.00021703132370021194,0.0,0.0,0.0,0.0,-0.0012208953266963363,-0.0006589580443687737,-0.003783517749980092,0.9988045692443848,0.0,0.0,0.0,0.3013748824596405,2.289788007736206,6.1607513427734375,-54.54945755004883,0
1784.235999999999,-0.00037150681600905955,-7.276097676367499e-06,-0.0002885185822378844,0.0,0.0,0.0,0.0,-0.001839716685935855,-0.003424486145377159,-0.0036972886882722378,1.0009350776672363,0.0,0.0,0.0,0.30155235528945923,2.286546230316162,6.155925273895264,-54.58157730102539,0
1794.1589999999997,-0.0004086759581696242,-3.58807374141179e-05,-0.00029886962147429585,0.0,0.0,0.0,0.0,-0.001103700022213161,0.0002840571687556803,-0.0002678462478797883,1.0008710622787476,0.0,0.0,0.0,0.3000797629356384,2.2904715538024902,6.1554155349731445,-54.315032958984375,0
1804.0609999999997,-0.00042330558062531054,-1.5516179701080546e-05,-0.0003598510811571032,0.0,0.0,0.0,0.0,-0.0005196512211114168,0.0029635911341756582,0.0010085152462124825,1.0000114440917969,0.0,0.0,0.0,0.2989498972892761,2.2870004177093506,6.150507926940918,-54.110530853271484,0
1813.985999999999,-0.0004618896055035293,-4.208319296594709e-05,-0.0003729503368958831,0.0,0.0,0.0,0.0,0.003927889280021191,0.00244664354249835,0.0011748670367524028,0.9997974634170532,0.0,0.0,0.0,0.2988232970237732,2.272643566131592,6.136603832244873,-54.087608337402344,0
1823.893,-0.0005007201689295471,-4.464666562853381e-05,-0.000384360842872411,0.0,0.0,0.0,0.0,-0.0013073146110400558,-0.0029654824174940586,-0.0005338197224773467,0.9983246326446533,0.0,0.0,0.0,0.2997586131095886,2.273994207382202,6.127195358276367,-54.25690841674805,0
1833.8050000000003,-0.0005440512904897332,-7.379685121122748e-05,-0.0003971335245296359,0.0,0.0,0.0,0.0,0.0017342406790703535,0.0006419879500754178,-0.004302597604691982,1.0001684427261353,0.0,0.0,0.0,0.2993321120738983,2.2626354694366455,6.11885404586792,-54.17970657348633,0
1843.7189999999991,-0.0005867030122317374,-1.1300066944386344e-05,-0.0003852203954011202,0.0,0.0,0.0,0.0,0.002499319612979889,0.0003106716903857887,-0.001797407865524292,0.9998599886894226,0.0,0.0,0.0,0.29858535528182983,2.26570725440979,6.1188530921936035,-54.04454040527344,0
1853.6409999999996,-0.0006335232174023986,-3.7156867620069534e-05,-0.0003973944403696805,0.0,0.0,0.0,0.0,-0.0014293055282905698,0.0011634491384029388,-0.0027857834938913584,0.9982251524925232,0.0,0.0,0.0,0.2975025773048401,2.260880708694458,6.120867729187012,-53.84855651855469,0
1863.5349999999999,-0.0006649260758422315,1.6520256394869648e-05,-0.000420013559050858,0.0,0.0,0.0,0.0,0.0014972559874877334,-0.0017065730644389987,0.003218855708837509,1.0003695487976074,0.0,0.0,0.0,0.29696768522262573,2.262326955795288,6.110296726226807,-53.751747131347656,0
1873.4560000000001,-0.0007145094568841159,-6.98775147611741e-06,-0.0004344144253991544,0.0,0.0,0.0,0.0,0.001637624460272491,-0.0024906189646571875,0.0001224200677825138,1.0005707740783691,0.0,0.0,0.0,0.29574641585350037,2.259248971939087,6.105724811553955,-53.53068923950195,0
1883.360999999999,-0.0007276427350006998,4.538386201602407e-05,-0.0004957675118930638,0.0,0.0,0.0,0.0,-0.001683507696725428,-0.0017465591663494706,0.003050985513255,1.0011134147644043,0.0,0.0,0.0,0.2960163950920105,2.255683422088623,6.108428955078125,-53.579559326171875,0
1893.2839999999997,-0.0007781136082485318,1.9836314095300622e-05,-0.000512836268171668,0.0,0.0,0.0,0.0,-0.0007712227525189519,-0.001824915292672813,-0.0048711905255913734,0.996829628944397,0.0,0.0,0.0,0.2955222725868225,2.2561280727386475,6.111705780029297,-53.490116119384766,0
1903.1859999999997,-0.000791941536590457,7.496387843275443e-05,-0.0005674375570379198,0.0,0.0,0.0,0.0,0.0001331169914919883,-0.0037403572350740433,-4.343874388723634e-05,0.9960164427757263,0.0,0.0,0.0,0.2948857247829437,2.296172618865967,6.1246747970581055,-53.37490463256836,0
1913.1059999999998,-0.0008442040998488665,5.187166971154511e-05,-0.00058980961330235,0.0,0.0,0.0,0.0,0.0025775886606425047,-0.0001276099355891347,0.00024987838696688414,0.9981079697608948,0.0,0.0,0.0,0.2936622202396393,2.3019020557403564,6.1270527839660645,-53.153446197509766,0
1923.012999999999,-0.0008558531408198178,9.272721945308149e-05,-0.0006605699309147894,0.0,0.0,0.0,0.0,0.0035022390075027943,-0.0004400419711600989,0.0014148119371384382,1.000985026359558,0.0,0.0,0.0,0.2932620048522949,2.2977187633514404,6.125482082366943,-53.08100509643555,0
1932.929,-0.00090911885490641,7.072735752444714e-05,-0.000691369641572237,0.0,0.0,0.0,0.0,0.000345567095791921,-0.0020382641814649105,0.002910621464252472,1.0019863843917847,0.0,0.0,0.0,0.29277822375297546,2.2925052642822266,6.121088981628418,-52.993438720703125,0
1942.8349999999991,-0.0009290144662372768,0.00010996848868671805,-0.0007500569918192923,0.0,0.0,0.0,0.0,-0.0019340930739417672,-0.001281652133911848,0.004467169288545847,1.0006365776062012,0.0,0.0,0.0,0.29249098896980286,2.287789821624756,6.122317790985107,-52.94144821166992,0
1952.7479999999996,-0.000982634024694562,9.095541463466361e-05,-0.000781528651714325,0.0,0.0,0.0,0.0,0.001974564976990223,-0.0011687655933201313,0.0021644297521561384,1.0005344152450562,0.0,0.0,0.0,0.29195553064346313,2.288623809814453,6.122557163238525,-52.84452819824219,0
1962.664999999999,-0.0009992164559662342,0.0001381281326757744,-0.0008426046697422862,0.0,0.0,0.0,0.0,0.0014171975199133158,0.00029599282424896955,0.0007081637741066515,1.0011955499649048,0.0,0.0,0.0,0.2860584259033203,2.320873498916626,6.12755012512207,-51.77714538574219,0
1972.5740000000005,-0.00014720263425260782,-0.00014125904999673367,-0.00010853095591301098,0.0,0.0,0.0,0.0,-0.0015568301314488053,0.0005647605867125094,0.00345215224660933,0.9992360472679138,0.0,0.0,0.0,0.28552740812301636,2.2749013900756836,6.267822742462158,-51.681034088134766,0
1982.4920000000002,-0.00012324242561589926,-6.760381802450866e-05,-0.00013053671864327043,0.0,0.0,0.0,0.0,-8.44969108584337e-05,-0.004260844085365534,-0.0005505706649273634,0.9988428950309753,0.0,0.0,0.0,0.2864552140235901,2.271782159805298,6.258464336395264,-51.848960876464844,0
1992.3989999999994,-0.00016869493992999196,-0.00012248806888237596,-0.00014649071090389043,0.0,0.0,0.0,0.0,0.0009334469214081764,-0.00028073255089111626,0.0021805716678500175,0.9980874061584473,0.0,0.0,0.0,0.2852398753166199,2.2610056400299072,6.2403669357299805,-51.628990173339844,0
2002.3099999999995,-0.00014408362039830536,-5.908582897973247e-05,-0.0001613868516869843,0.0,0.0,0.0,0.0,0.0004291735531296581,0.005069792736321688,-7.24327692296356e-05,0.9993590712547302,0.0,0.0,0.0,0.29327356815338135,2.2705562114715576,6.246592998504639,-53.083099365234375,0
2012.2289999999994,-0.00019744578457903117,-0.00011942924174945801,-0.00018435559468343854,0.0,0.0,0.0,0.0,-0.001884947414509952,0.0025435234420001507,-0.0037178555503487587,0.9994590282440186,0.0,0.0,0.0,0.29367366433143616,2.2694852352142334,6.235865592956543,-53.155517578125,0
2022.1350000000002,-0.0001978099171537906,-7.772078242851421e-05,-0.00015901614096947014,0.0,0.0,0.0,0.0,9.906638297252357e-05,0.0011733948485925794,-0.0013166680000722408,0.998948872089386,0.0,0.0,0.0,0.29367366433143616,2.2694852352142334,6.235865592956543,-53.155517578125,0
2032.0599999999995,-0.00026370229898020625,-0.00014398506027646363,-0.00018064334290102124,0.0,0.0,0.0,0.0,-0.0007865874795243144,-0.0046728323213756084,0.0027844926808029413,0.9996925592422485,0.0,0.0,0.0,0.2929665148258209,2.271437644958496,6.214574813842773,-53.02751922607422,0
2041.9599999999991,-0.000245952804107219,-5.418888758867979e-05,-0.0001940428774105385,0.0,0.0,0.0,0.0,0.003051834413781762,0.0010794540867209435,-0.003213097108528018,1.0009948015213013,0.0,0.0,0.0,0.2929665148258209,2.271437644958496,6.214574813842773,-53.02751922607422,0
2051.879999999999,-0.00028600916266441345,-8.804206299828365e-05,-0.00020813780429307371,0.0,0.0,0.0,0.0,0.002647392451763153,-0.00027250664425082505,-0.0029668693896383047,0.9993513822555542,0.0,0.0,0.0,0.293415904045105,2.2669804096221924,6.216190814971924,-53.108863830566406,0
2061.7870000000003,-0.00032279136939905584,-3.975817890022881e-05,-0.00019399555458221585,0.0,0.0,0.0,0.0,0.0014461333630606532,-0.0024988690856844187,0.001852793269790709,0.9987328052520752,0.0,0.0,0.0,0.2924371063709259,2.256279945373535,6.208857536315918,-52.931697845458984,0
2071.717999999999,-0.0003635551256593317,-7.034311420284212e-05,-0.00020502445113379508,0.0,0.0,0.0,0.0,0.0001766842178767547,0.0021881009452044964,-0.0006047766073606908,0.9997683763504028,0.0,0.0,0.0,0.29184481501579285,2.2480132579803467,6.210953712463379,-52.82448959350586,0
2081.610999999999,-0.00040245187119580805,-2.5015349820023403e-05,-0.00019653253548312932,0.0,0.0,0.0,0.0,0.003900867886841297,-0.002212799619883299,0.00275850179605186,0.9989821910858154,0.0,0.0,0.0,0.2916312515735626,2.243713617324829,6.207217693328857,-52.78583526611328,0
2091.5370000000003,-0.0004464975791051984,-5.580797733273357e-05,-0.00020736448641400784,0.0,0.0,0.0,0.0,-0.002380924765020609,-0.0014442894607782364,-0.0006963344640098512,0.999556303024292,0.0,0.0,0.0,0.29152172803878784,2.2459468841552734,6.202436447143555,-52.766014099121094,0
2101.4359999999997,-0.000480154762044549,-1.426406015525572e-05,-0.00022582938254345208,0.0,0.0,0.0,0.0,-0.0028550373390316963,0.0017117745010182261,0.0029191470239311457,0.9983140826225281,0.0,0.0,0.0,0.2916027903556824,2.2331032752990723,6.191237926483154,-52.78068923950195,0
2111.3559999999998,-0.0005266848020255566,-4.392451955936849e-05,-0.00023842979862820357,0.0,0.0,0.0,0.0,-0.001532108522951603,-0.0008559112320654094,0.0010486796963959932,0.9986152052879333,0.0,0.0,0.0,0.2914256453514099,2.236823558807373,6.193382740020752,-52.74862289428711,0
