timestamp,stateEstimate.x,stateEstimate.y,stateEstimate.z,controller.cmd_thrust,controller.cmd_roll,controller.cmd_pitch,controller.cmd_yaw,controller.r_roll,controller.r_pitch,controller.r_yaw,controller.accelz,controller.actuatorThrust,controller.roll,controller.pitch,controller.yaw,controller.rollRate,controller.pitchRate,controller.yawRate,controller.ctr_yaw
0.0,0.0064744711853563786,0.007493284530937672,-0.0018808635650202632,0.0,0.0,0.0,0.0,-0.0004242011927999556,-0.0003744384739547968,-0.0011927945306524634,1.0018610954284668,0.0,0.0,0.0,17.070541381835938,10.336877822875977,1.2398200035095215,-3089.80224609375,0
9.878999999998996,0.00620536832138896,0.007592144887894392,-0.00205348152667284,0.0,0.0,0.0,0.0,-0.0023055654019117355,0.00129864236805588,0.0009974633576348424,1.0013900995254517,0.0,0.0,0.0,17.077991485595703,10.347058296203613,1.2305642366409302,-3091.150390625,0
19.76800000000003,0.006182872224599123,0.007572000380605459,-0.002072112401947379,0.0,0.0,0.0,0.0,0.000274525344138965,-0.004863141570240259,0.00168125843629241,1.0002754926681519,0.0,0.0,0.0,17.061227798461914,10.340103149414062,1.2127753496170044,-3088.1162109375,0
29.662000000000262,0.006263547111302614,0.007592800073325634,-0.0020190910436213017,0.0,0.0,0.0,0.0,0.0022591566666960716,0.00016283945296891034,0.0034625856205821037,1.0003224611282349,0.0,0.0,0.0,17.08422088623047,10.35303020477295,1.240554690361023,-3092.278076171875,0
39.54099999999926,0.006247245706617832,0.007575393188744783,-0.002034552861005068,0.0,0.0,0.0,0.0,-0.0016833099070936441,-0.007432717364281416,-5.7288176321890205e-05,0.9997286200523376,0.0,0.0,0.0,17.067649841308594,10.342226028442383,1.2462823390960693,-3089.278564453125,0
49.43000000000029,0.0060767182148993015,0.007643351797014475,-0.0021289337892085314,0.0,0.0,0.0,0.0,-0.002761109732091427,0.0013369987718760967,0.00040345554589293897,1.001209020614624,0.0,0.0,0.0,17.080488204956055,10.35219955444336,1.2547507286071777,-3091.6025390625,0
59.3130000000001,0.006063799373805523,0.007624550256878138,-0.0021415327209979296,0.0,0.0,0.0,0.0,0.00041777724982239306,-0.005314661655575037,0.0009354040375910699,1.0001016855239868,0.0,0.0,0.0,17.064054489135742,10.346388816833496,1.2569032907485962,-3088.627685546875,0
69.19999999999891,0.005891245789825916,0.007691698614507914,-0.0022609734442085028,0.0,0.0,0.0,0.0,0.0008935242076404393,-0.0014704413479194045,0.0034335912205278873,0.9989831447601318,0.0,0.0,0.0,17.080846786499023,10.354531288146973,1.2698278427124023,-3091.667236328125,0
79.08599999999933,0.005879898555576801,0.0076702311635017395,-0.0022714263759553432,0.0,0.0,0.0,0.0,-7.160883978940547e-05,0.001604424905963242,-0.0008773435838520527,1.0006352663040161,0.0,0.0,0.0,17.06409454345703,10.346192359924316,1.271211862564087,-3088.635009765625,0
88.98300000000017,0.006150305271148682,0.007597549818456173,-0.0020878720097243786,0.0,0.0,0.0,0.0,0.002532534534111619,0.0005940949195064604,0.00029419633210636675,1.0003725290298462,0.0,0.0,0.0,17.08051872253418,10.349014282226562,1.289561152458191,-3091.60791015625,0
98.86000000000058,0.006146421656012535,0.007574201561510563,-0.0020965957082808018,0.0,0.0,0.0,0.0,0.0007022360223345459,0.001215085037983954,0.0007122253882698715,0.9990116357803345,0.0,0.0,0.0,17.062814712524414,10.336098670959473,1.2785563468933105,-3088.403564453125,0
108.74599999999919,0.0061523099429905415,0.007579179480671883,-0.002061779610812664,0.0,0.0,0.0,0.0,-0.000498339009936899,-0.0032600807026028633,0.004639578051865101,0.999295175075531,0.0,0.0,0.0,17.085214614868164,10.337241172790527,1.2766484022140503,-3092.45751953125,0
118.64500000000044,0.006149659398943186,0.007551813032478094,-0.0020681845489889383,0.0,0.0,0.0,0.0,0.00020277062139939517,0.00022451642144005746,0.0011941257398575544,1.0005953311920166,0.0,0.0,0.0,17.06964111328125,10.330130577087402,1.2769757509231567,-3089.63916015625,0
128.52000000000044,0.006198091898113489,0.00759206572547555,-0.0020384732633829117,0.0,0.0,0.0,0.0,-0.0013988527934998274,0.0021491157822310925,0.004748792387545109,0.9999151229858398,0.0,0.0,0.0,17.088945388793945,10.34656810760498,1.307379126548767,-3093.13330078125,0
138.40899999999965,0.006198787596076727,0.00756422895938158,-0.0020429203286767006,0.0,0.0,0.0,0.0,-0.00014802189252804965,-0.002554900012910366,-0.0007082840893417597,0.99931401014328,0.0,0.0,0.0,17.072280883789062,10.342531204223633,1.312912940979004,-3090.11669921875,0
148.29600000000028,0.006199149880558252,0.007533661089837551,-0.002047090558335185,0.0,0.0,0.0,0.0,-0.0011707444209605455,-0.0038123507983982563,-0.0022786979097872972,0.9997003078460693,0.0,0.0,0.0,17.05489730834961,10.333009719848633,1.3057096004486084,-3086.970458984375,0
158.1800000000003,0.006200013682246208,0.007501187268644571,-0.0020512917544692755,0.0,0.0,0.0,0.0,0.00044811805128119886,0.00021591229597106576,-0.0011836388148367405,0.9986961483955383,0.0,0.0,0.0,17.037214279174805,10.328211784362793,1.3148809671401978,-3083.769775390625,0
168.0669999999991,0.00620185025036335,0.007466161623597145,-0.0020554352086037397,0.0,0.0,0.0,0.0,0.0003676740743685514,-0.0001790219685062766,0.0015759578673169017,1.000697135925293,0.0,0.0,0.0,17.019575119018555,10.317876815795898,1.3050695657730103,-3080.576904296875,0
177.95899999999892,0.006203571334481239,0.007427967619150877,-0.0020593744702637196,0.0,0.0,0.0,0.0,-0.0016000173054635525,-0.0013950729044154286,9.135481377597898e-05,1.0007435083389282,0.0,0.0,0.0,17.003103256225586,10.308324813842773,1.298230528831482,-3077.59521484375,0
187.85100000000057,0.0062048849649727345,0.007386757060885429,-0.002062342595309019,0.0,0.0,0.0,0.0,0.0018080138834193349,0.001692624413408339,-6.964525528019294e-05,1.0004322528839111,0.0,0.0,0.0,16.98634147644043,10.297501564025879,1.2963323593139648,-3074.561279296875,0
197.72699999999895,0.0062074302695691586,0.007344198413193226,-0.0020642653107643127,0.0,0.0,0.0,0.0,-0.00027068902272731066,0.0022974866442382336,-0.0022165889386087656,0.9994691014289856,0.0,0.0,0.0,16.969213485717773,10.285102844238281,1.2890743017196655,-3071.46142578125,0
207.6190000000006,0.006212684791535139,0.007301019504666328,-0.002065432257950306,0.0,0.0,0.0,0.0,0.0007035257294774055,-0.004402360413223505,0.0016675660153850913,0.9997100830078125,0.0,0.0,0.0,16.951871871948242,10.27740478515625,1.2833852767944336,-3068.322509765625,0
217.5049999999992,0.00622136564925313,0.007255118805915117,-0.0020661549642682076,0.0,0.0,0.0,0.0,0.0010190404718741775,0.00418972410261631,-0.0036608902737498283,1.0011146068572998,0.0,0.0,0.0,16.936115264892578,10.262471199035645,1.2897276878356934,-3065.470703125,0
227.3889999999992,0.006232836749404669,0.0072049666196107864,-0.0020661735907197,0.0,0.0,0.0,0.0,0.0009106416837312281,0.0006660149083472788,-0.0021804473362863064,1.0007580518722534,0.0,0.0,0.0,16.917905807495117,10.244958877563477,1.2773228883743286,-3062.174560546875,0
237.27499999999964,0.00624607689678669,0.007151161320507526,-0.0020648185163736343,0.0,0.0,0.0,0.0,-0.002064211992546916,0.001147815608419478,-0.003383066738024354,1.0010045766830444,0.0,0.0,0.0,16.900375366210938,10.232460975646973,1.2804704904556274,-3059.001708984375,0
247.15999999999985,0.006260587368160486,0.007095568347722292,-0.0020619076676666737,0.0,0.0,0.0,0.0,0.00289737805724144,0.0013105360558256507,0.0021988810040056705,1.000035285949707,0.0,0.0,0.0,16.882610321044922,10.227007865905762,1.2692763805389404,-3055.785888671875,0
257.0470000000005,0.006276339758187532,0.007038829382508993,-0.002057733479887247,0.0,0.0,0.0,0.0,0.0012759367236867547,0.002792755840346217,-0.000556428509298712,0.998417854309082,0.0,0.0,0.0,16.86648941040039,10.21273422241211,1.2642825841903687,-3052.8681640625,0
266.9339999999993,0.006293820682913065,0.00698100496083498,-0.002053428441286087,0.0,0.0,0.0,0.0,-0.0019570596050471067,0.008819382637739182,-0.0020286466460675,0.9997005462646484,0.0,0.0,0.0,16.849349975585938,10.202229499816895,1.2627438306808472,-3049.76611328125,0
276.8259999999991,0.006313395220786333,0.006922226399183273,-0.002049513626843691,0.0,0.0,0.0,0.0,-0.001727263443171978,0.0014048701850697398,0.0007234744844026864,1.0008420944213867,0.0,0.0,0.0,16.83271026611328,10.194222450256348,1.2560906410217285,-3046.754150390625,0
286.70800000000054,0.0063357045873999596,0.006862213369458914,-0.002045080065727234,0.0,0.0,0.0,0.0,0.00026674073887988925,0.0029512206092476845,-0.0008898038067854941,0.9987368583679199,0.0,0.0,0.0,16.81561279296875,10.185858726501465,1.2470097541809082,-3043.6591796875,0
296.59599999999955,0.006361291278153658,0.006800678558647633,-0.002040164778009057,0.0,0.0,0.0,0.0,0.002744286088272929,0.0013793210964649916,-0.0014654404949396849,0.9982490539550781,0.0,0.0,0.0,16.798967361450195,10.17899227142334,1.240140676498413,-3040.646484375,0
306.48199999999997,0.006389761809259653,0.006736641749739647,-0.002036114688962698,0.0,0.0,0.0,0.0,0.000864023866597563,-0.0013252623612061143,0.0007151305908337235,1.001044511795044,0.0,0.0,0.0,16.78261375427246,10.163516998291016,1.2347573041915894,-3037.686279296875,0
316.3709999999992,0.006420433055609465,0.006669504102319479,-0.002032290445640683,0.0,0.0,0.0,0.0,0.0008079637191258371,-0.0075256614945828915,0.002178826369345188,1.0015342235565186,0.0,0.0,0.0,16.765396118164062,10.150921821594238,1.2192587852478027,-3034.56982421875,0
326.259,0.006452843546867371,0.006599887739866972,-0.0020270722452551126,0.0,0.0,0.0,0.0,-0.0002944408333860338,0.0010683011496439576,-0.00016652057820465416,0.9997712969779968,0.0,0.0,0.0,16.749366760253906,10.138313293457031,1.2290769815444946,-3031.66845703125,0
336.14400000000023,0.006487215869128704,0.006527983117848635,-0.0020205145701766014,0.0,0.0,0.0,0.0,-0.0028292094357311726,-0.0020035284105688334,0.002598329447209835,0.9982295036315918,0.0,0.0,0.0,16.732471466064453,10.127705574035645,1.218863606452942,-3028.610595703125,0
346.0450000000001,0.006524369586259127,0.006452988367527723,-0.002013914054259658,0.0,0.0,0.0,0.0,0.002457802649587393,-0.003961111884564161,-0.0002546719915699214,1.0007866621017456,0.0,0.0,0.0,16.71553611755371,10.120343208312988,1.2251824140548706,-3025.545166015625,0
355.91599999999926,0.006564168259501457,0.006374580319970846,-0.002007458359003067,0.0,0.0,0.0,0.0,-7.282873411895707e-05,-0.001752048498019576,0.004831482656300068,0.9996320009231567,0.0,0.0,0.0,16.699859619140625,10.107409477233887,1.23470938205719,-3022.7080078125,0
365.8150000000005,0.006606170441955328,0.0062934635207057,-0.0020004292018711567,0.0,0.0,0.0,0.0,-0.0035499101504683495,0.002155354479327798,-0.003174365730956197,1.000439167022705,0.0,0.0,0.0,16.683822631835938,10.096097946166992,1.2376748323440552,-3019.805419921875,0
375.6900000000005,0.006651005707681179,0.006210298743098974,-0.001992899226024747,0.0,0.0,0.0,0.0,-0.001284684636630118,-0.0016964005772024393,0.0036717215552926064,1.0003706216812134,0.0,0.0,0.0,16.666898727416992,10.09172248840332,1.2279863357543945,-3016.7421875,0
385.59399999999914,0.006698750425130129,0.006123744882643223,-0.0019844681955873966,0.0,0.0,0.0,0.0,-0.0018840779084712267,-0.006411836016923189,0.0013013517018407583,1.0007305145263672,0.0,0.0,0.0,16.65184211730957,10.078089714050293,1.2183128595352173,-3014.0166015625,0
395.46099999999933,0.006748128682374954,0.006031700409948826,-0.001974711660295725,0.0,0.0,0.0,0.0,0.0008715287549421191,-0.0007806780631653965,0.0036040258128196,1.0027577877044678,0.0,0.0,0.0,16.635292053222656,10.071032524108887,1.2320619821548462,-3011.020751953125,0
405.35699999999997,0.006798091344535351,0.00593328382819891,-0.001962952548637986,0.0,0.0,0.0,0.0,0.0032213327940553427,-0.0016807428328320384,0.002561811823397875,1.0007643699645996,0.0,0.0,0.0,16.620149612426758,10.056763648986816,1.2342430353164673,-3008.280029296875,0
415.2330000000002,0.0068488228134810925,0.005829107481986284,-0.0019487821264192462,0.0,0.0,0.0,0.0,-0.0038623108994215727,0.002800211077556014,-0.0039105843752622604,0.9987450838088989,0.0,0.0,0.0,16.60336685180664,10.038482666015625,1.2292050123214722,-3005.2421875,0
425.1360000000004,0.006901487708091736,0.005720528773963451,-0.0019338432466611266,0.0,0.0,0.0,0.0,-0.001230409019626677,-0.004098318982869387,-0.0009007736225612462,1.0012016296386719,0.0,0.0,0.0,16.586666107177734,10.035908699035645,1.221993088722229,-3002.2197265625,0
435.0079999999998,0.006957331672310829,0.005607915110886097,-0.0019185185665264726,0.0,0.0,0.0,0.0,0.00024696870241314173,-0.002045432571321726,-0.0017472307663410902,0.9997814297676086,0.0,0.0,0.0,16.569664001464844,10.026718139648438,1.224170446395874,-2999.142333984375,0
444.90300000000025,0.007015905808657408,0.005490473937243223,-0.0019020820036530495,0.0,0.0,0.0,0.0,0.0007439794135279953,0.0009385779267176986,-0.0016039530746638775,0.9995832443237305,0.0,0.0,0.0,16.553194046020508,10.015920639038086,1.2320791482925415,-2996.1611328125,0
454.77999999999884,0.007076691370457411,0.0053684525191783905,-0.0018851666245609522,0.0,0.0,0.0,0.0,-0.0005289515829645097,-0.004755320027470589,0.0004768387880176306,0.9977498054504395,0.0,0.0,0.0,16.536264419555664,10.0064697265625,1.2349821329116821,-2993.0966796875,0
464.6900000000005,0.007140254136174917,0.005243396852165461,-0.001868993858806789,0.0,0.0,0.0,0.0,0.005990941077470779,-0.0013263957807794213,0.0020506002474576235,1.0001095533370972,0.0,0.0,0.0,16.5192928314209,10.001005172729492,1.2457515001296997,-2990.02490234375,0
474.5540000000001,0.007206930313259363,0.0051163421012461185,-0.0018536616116762161,0.0,0.0,0.0,0.0,0.000384733168175444,0.00043707681470550597,-0.00037950449041090906,1.0003758668899536,0.0,0.0,0.0,16.503419876098633,9.983817100524902,1.2429969310760498,-2987.15185546875,0
484.4470000000001,0.007275878917425871,0.004987039137631655,-0.0018379429820924997,0.0,0.0,0.0,0.0,-0.0006429824279621243,0.003477138001471758,-0.001706808223389089,0.9983173608779907,0.0,0.0,0.0,16.486751556396484,9.975203514099121,1.235466480255127,-2984.134521484375,0
494.33200000000033,0.007345502730458975,0.004855036269873381,-0.0018219841876998544,0.0,0.0,0.0,0.0,-0.0019762483425438404,0.0003213838499505073,0.0009845239110291004,0.9974079132080078,0.0,0.0,0.0,16.470407485961914,9.96565055847168,1.221373438835144,-2981.176513671875,0
504.22999999999956,0.0074164895340800285,0.0047196289524436,-0.0018071576487272978,0.0,0.0,0.0,0.0,-0.0017066511791199446,-0.00226798327639699,0.0003119866596534848,0.9983828067779541,0.0,0.0,0.0,16.454153060913086,9.9574556350708,1.2115222215652466,-2978.234375,0
514.1000000000004,0.007489614654332399,0.004579772241413593,-0.00179376476444304,0.0,0.0,0.0,0.0,0.0029059837106615305,0.0033167824149131775,-2.3737164156045765e-05,0.9983429312705994,0.0,0.0,0.0,16.438261032104492,9.948873519897461,1.2181402444839478,-2975.35791015625,0
523.9969999999994,0.007563834544271231,0.004435383249074221,-0.0017813839949667454,0.0,0.0,0.0,0.0,0.0009092662949115038,-0.0007558622746728361,0.0016259826952591538,0.9997836947441101,0.0,0.0,0.0,16.42268943786621,9.938887596130371,1.2025030851364136,-2972.539794921875,0
533.875,0.007638671901077032,0.004287435207515955,-0.0017696137074381113,0.0,0.0,0.0,0.0,-0.001362502807751298,-0.002101322403177619,-0.002772450214251876,1.0014736652374268,0.0,0.0,0.0,16.407939910888672,9.926431655883789,1.202141284942627,-2969.869873046875,0
543.7669999999998,0.007715336978435516,0.004137437790632248,-0.0017570826457813382,0.0,0.0,0.0,0.0,-0.00018937290587928146,0.000270363554591313,-7.133996859920444e-06,1.0002847909927368,0.0,0.0,0.0,16.391996383666992,9.917844772338867,1.200727105140686,-2966.984130859375,0
553.6479999999992,0.0077942973002791405,0.003986053634434938,-0.001743196276947856,0.0,0.0,0.0,0.0,0.00020059512462466955,0.002286401344463229,0.003033521119505167,1.000154972076416,0.0,0.0,0.0,16.376174926757812,9.910161972045898,1.194657325744629,-2964.1201171875,0
563.5380000000005,0.007874218747019768,0.0038323227781802416,-0.001728396280668676,0.0,0.0,0.0,0.0,-0.0026060144882649183,0.0016192676266655326,0.00196431134827435,0.9994688630104065,0.0,0.0,0.0,16.36086082458496,9.902907371520996,1.1852819919586182,-2961.3486328125,0
573.4239999999991,0.007955372333526611,0.0036747450940310955,-0.0017132622888311744,0.0,0.0,0.0,0.0,0.0014294061111286283,-8.837800851324573e-05,0.00023641840380150825,0.9988952279090881,0.0,0.0,0.0,16.344911575317383,9.89535903930664,1.1791163682937622,-2958.461669921875,0
583.3179999999993,0.0063445377163589,0.007525976747274399,-0.0021543940529227257,0.0,0.0,0.0,0.0,-0.0005794604076072574,-0.0014821278164163232,0.003302664030343294,1.000988245010376,0.0,0.0,0.0,16.433345794677734,10.25644588470459,1.3118351697921753,-2974.468505859375,0
593.1959999999999,0.006419134791940451,0.007466441486030817,-0.0021279894281178713,0.0,0.0,0.0,0.0,0.002397795906290412,0.0017259394517168403,0.002926821820437908,1.0032676458358765,0.0,0.0,0.0,16.4173641204834,10.248831748962402,1.3118165731430054,-2971.575439453125,0
603.0859999999993,0.007221703417599201,0.00733910221606493,-0.001487259054556489,0.0,0.0,0.0,0.0,0.0013523446395993233,0.002689917804673314,-0.004651396535336971,1.0019243955612183,0.0,0.0,0.0,16.50530242919922,10.253279685974121,1.3379749059677124,-2987.4921875,0
612.9740000000002,0.0073064519092440605,0.007274600211530924,-0.0014508021995425224,0.0,0.0,0.0,0.0,-0.00042370372102595866,0.0007335442933253944,-0.0006542308838106692,1.000100016593933,0.0,0.0,0.0,16.486888885498047,10.24100112915039,1.3360408544540405,-2984.159912109375,0
622.8619999999992,0.007959696464240551,0.007071125786751509,-0.0008643018663860857,0.0,0.0,0.0,0.0,-0.0009819328552111983,-0.0023491703905165195,-0.0018701718654483557,1.0011248588562012,0.0,0.0,0.0,16.580629348754883,10.240961074829102,1.3538333177566528,-3001.127197265625,0
632.741,0.008052182383835316,0.007005064282566309,-0.0008192796376533806,0.0,0.0,0.0,0.0,0.001264549675397575,-0.0029494597110897303,-0.0004280160355847329,1.00062894821167,0.0,0.0,0.0,16.563161849975586,10.233409881591797,1.3451396226882935,-2997.965087890625,0
642.6329999999998,0.00843749102205038,0.006885725073516369,-0.00045442162081599236,0.0,0.0,0.0,0.0,0.0013141228118911386,0.006407540757209063,-0.0011002307292073965,1.0008032321929932,0.0,0.0,0.0,16.64241600036621,10.23196792602539,1.3576228618621826,-3012.310546875,0
652.5149999999994,0.00853800866752863,0.006817770190536976,-0.0004025550442747772,0.0,0.0,0.0,0.0,0.004093663301318884,0.005450007971376181,-0.0017598152626305819,1.001143455505371,0.0,0.0,0.0,16.625722885131836,10.222042083740234,1.349905252456665,-3009.2890625,0
662.4169999999995,0.00896010547876358,0.006692548748105764,-2.132413828803692e-05,0.0,0.0,0.0,0.0,-0.0016291732899844646,0.0024909439962357283,0.003950402140617371,0.9985116720199585,0.0,0.0,0.0,16.704120635986328,10.22169303894043,1.3523796796798706,-3023.478759765625,0
672.2889999999989,0.009069510735571384,0.006623705383390188,3.762363485293463e-05,0.0,0.0,0.0,0.0,0.0008205076446756721,0.006303343456238508,0.0021303703542798758,0.9980124235153198,0.0,0.0,0.0,16.688608169555664,10.215888023376465,1.346190094947815,-3020.67138671875,0
682.1819999999989,0.009447586722671986,0.006518018897622824,0.0003687819989863783,0.0,0.0,0.0,0.0,-0.0010532258311286569,-0.0035715759731829166,0.004206336103379726,0.9997445344924927,0.0,0.0,0.0,16.755157470703125,10.222440719604492,1.342924952507019,-3032.716796875,0
692.0679999999993,0.009563404135406017,0.006449636537581682,0.00043050703243352473,0.0,0.0,0.0,0.0,0.0020554219372570515,-0.002069342415779829,-0.0011356341419741511,1.0010807514190674,0.0,0.0,0.0,16.739408493041992,10.219986915588379,1.352602243423462,-3029.866455078125,0
701.9670000000006,0.009638791903853416,0.0064561087638139725,0.0005270768888294697,0.0,0.0,0.0,0.0,0.0002390791632933542,0.0014194604009389877,0.0017883752007037401,1.001548171043396,0.0,0.0,0.0,16.792865753173828,10.236621856689453,1.3689662218093872,-3039.542236328125,0
711.8459999999995,0.00976142380386591,0.00638943538069725,0.0005941133131273091,0.0,0.0,0.0,0.0,-0.000823439157102257,-0.005865975748747587,-0.0018548914231359959,1.0004960298538208,0.0,0.0,0.0,16.77737808227539,10.228578567504883,1.367209792137146,-3036.73876953125,0
721.732,0.00988511648029089,0.006369462236762047,0.0007270454661920667,0.0,0.0,0.0,0.0,-0.0018485885811969638,-0.0004952766466885805,-0.0012712228344753385,1.0026997327804565,0.0,0.0,0.0,16.833515167236328,10.236162185668945,1.3827195167541504,-3046.8994140625,0
731.6139999999996,0.010015035979449749,0.006302792113274336,0.0008012274629436433,0.0,0.0,0.0,0.0,0.0049789296463131905,0.004168868064880371,-0.0011319007026031613,1.0004037618637085,0.0,0.0,0.0,16.816476821899414,10.227092742919922,1.3879919052124023,-3043.81591796875,0
741.5020000000004,0.010018459521234035,0.006287607364356518,0.0009053464164026082,0.0,0.0,0.0,0.0,0.0005959419067949057,0.0003282866673544049,0.002112599555402994,0.9973912835121155,0.0,0.0,0.0,16.870500564575195,10.22083854675293,1.3627660274505615,-3053.593994140625,0
751.3889999999992,0.010147680528461933,0.006217422429472208,0.0009877459378913045,0.0,0.0,0.0,0.0,0.00017631554510444403,0.0004053300363011658,0.0031317202374339104,0.9977698922157288,0.0,0.0,0.0,16.853734970092773,10.204231262207031,1.3481380939483643,-3050.5595703125,0
761.2780000000002,0.010246608406305313,0.006184205878525972,0.0011426162673160434,0.0,0.0,0.0,0.0,-0.005619095638394356,0.000842020264826715,-0.0026266961358487606,0.999591588973999,0.0,0.0,0.0,16.9078426361084,10.212215423583984,1.340744137763977,-3060.353271484375,0
771.1610000000001,0.010378442704677582,0.006113135255873203,0.0012271045707166195,0.0,0.0,0.0,0.0,0.004581586457788944,0.005544348154217005,-0.0005702818161807954,1.000269889831543,0.0,0.0,0.0,16.8902587890625,10.212038040161133,1.3327081203460693,-3057.17041015625,0
781.0519999999997,0.010415052995085716,0.006160002201795578,0.0012822168646380305,0.0,0.0,0.0,0.0,5.090039394417545e-06,-0.0015928715001791716,0.004498292226344347,0.999471127986908,0.0,0.0,0.0,16.928224563598633,10.231405258178711,1.3389862775802612,-3064.04248046875,0
790.9310000000005,0.010551600717008114,0.006091300398111343,0.001369950594380498,0.0,0.0,0.0,0.0,0.0032689892686903477,-0.0009967477526515722,0.004760613664984703,1.0006474256515503,0.0,0.0,0.0,16.912336349487305,10.226736068725586,1.3420510292053223,-3061.166748046875,0
800.8209999999999,0.010709074325859547,0.006045958958566189,0.0014924758579581976,0.0,0.0,0.0,0.0,-6.378099351422861e-05,0.00042197832954116166,0.002487602410838008,1.000109076499939,0.0,0.0,0.0,16.955177307128906,10.226312637329102,1.357861042022705,-3068.920654296875,0
810.7049999999999,0.0108503308147192,0.005978056695312262,0.0015827355673536658,0.0,0.0,0.0,0.0,0.0014154327800497413,0.002934675430878997,0.001456348574720323,0.9997991323471069,0.0,0.0,0.0,16.938217163085938,10.217480659484863,1.3488762378692627,-3065.851318359375,0
820.5939999999991,0.010829144157469273,0.006034079939126968,0.0015944334445521235,0.0,0.0,0.0,0.0,-0.0028701021801680326,-0.0017316997982561588,0.0002573671517893672,0.9988214373588562,0.0,0.0,0.0,16.974639892578125,10.23099136352539,1.348682165145874,-3072.443603515625,0
830.4840000000004,0.010973370634019375,0.005970667116343975,0.001687459647655487,0.0,0.0,0.0,0.0,0.0027283590752631426,0.0023430809378623962,0.0021852992940694094,1.0002752542495728,0.0,0.0,0.0,16.957090377807617,10.2228422164917,1.344170093536377,-3069.26708984375,0
840.3719999999994,0.010729863308370113,0.006105293054133654,0.0015143841737881303,0.0,0.0,0.0,0.0,0.00041300940210931003,0.006858178414404392,0.001413849531672895,1.00087571144104,0.0,0.0,0.0,16.98716163635254,10.23031997680664,1.3505699634552002,-3074.709716796875,0
850.25,0.010875421576201916,0.006043994799256325,0.0016090304125100374,0.0,0.0,0.0,0.0,-0.0018888800404965878,-0.001028060563839972,-0.0009239322389476001,0.9990172386169434,0.0,0.0,0.0,16.969690322875977,10.222416877746582,1.3339685201644897,-3071.547607421875,0
860.1499999999996,0.010950571857392788,0.006015267223119736,0.0016732474323362112,0.0,0.0,0.0,0.0,-0.0016635869396850467,-0.003263732185587287,-0.0009917544666677713,0.9981279373168945,0.0,0.0,0.0,17.006372451782227,10.221558570861816,1.3412561416625977,-3078.187255859375,0
870.0229999999992,0.01110188476741314,0.005949763115495443,0.0017691757529973984,0.0,0.0,0.0,0.0,-0.0027225457597523928,-0.0048137870617210865,-0.0004393081471789628,1.0013258457183838,0.0,0.0,0.0,16.989336013793945,10.214323997497559,1.342068076133728,-3075.103759765625,0
879.9139999999989,0.011052503250539303,0.006001793313771486,0.0017532038036733866,0.0,0.0,0.0,0.0,0.0014434454496949911,-0.004023461136966944,0.001496105338446796,1.0008212327957153,0.0,0.0,0.0,17.021026611328125,10.225885391235352,1.350784182548523,-3080.839599609375,0
889.7989999999991,0.011208027601242065,0.005934811197221279,0.0018524082843214273,0.0,0.0,0.0,0.0,-0.0022815163247287273,0.002274654805660248,-0.0014316055458039045,1.000962734222412,0.0,0.0,0.0,17.00406837463379,10.211033821105957,1.3517937660217285,-3077.770263671875,0
899.6880000000001,0.010922900401055813,0.006070461589843035,0.0016525454120710492,0.0,0.0,0.0,0.0,0.0019366429187357426,-0.003615724854171276,-0.002800151240080595,0.9990878105163574,0.0,0.0,0.0,17.0286865234375,10.221891403198242,1.347536563873291,-3082.22607421875,0
909.5740000000005,0.011077060364186764,0.006007151212543249,0.0017546532908454537,0.0,0.0,0.0,0.0,-0.002231599297374487,0.005803980864584446,0.0012675648322328925,0.9989486932754517,0.0,0.0,0.0,17.011554718017578,10.21434497833252,1.3576613664627075,-3079.125244140625,0
919.4580000000005,0.010868513025343418,0.006108017638325691,0.0016133172903209925,0.0,0.0,0.0,0.0,-0.00037511641858145595,0.0016658043023198843,-0.0027824013959616423,1.0010747909545898,0.0,0.0,0.0,17.030261993408203,10.228228569030762,1.3438434600830078,-3082.511474609375,0
929.3410000000003,0.011019814759492874,0.006042642053216696,0.0017163286684080958,0.0,0.0,0.0,0.0,-8.908919699024409e-05,-0.0037312600761651993,0.0026309846434742212,1.0015227794647217,0.0,0.0,0.0,17.011507034301758,10.220017433166504,1.3495131731033325,-3079.116455078125,0
939.2309999999998,0.010897679254412651,0.006098749581724405,0.001651884289458394,0.0,0.0,0.0,0.0,0.0012940749293193221,0.00378708285279572,-0.0017667965730652213,1.001509189605713,0.0,0.0,0.0,17.0384578704834,10.226666450500488,1.3567297458648682,-3083.994873046875,0
949.116,0.011051896028220654,0.00603116862475872,0.0017599948914721608,0.0,0.0,0.0,0.0,-0.0012788206804543734,-0.0004255309177096933,-0.0007846454973332584,1.0002331733703613,0.0,0.0,0.0,17.021135330200195,10.208861351013184,1.3522803783416748,-3080.859130859375,0
959.003999999999,0.010735960677266121,0.006107451859861612,0.0015716394409537315,0.0,0.0,0.0,0.0,0.00040895232814364135,0.0013377071591094136,0.0007328725187107921,1.0014277696609497,0.0,0.0,0.0,17.03594398498535,10.205099105834961,1.3319447040557861,-3083.539794921875,0
968.8940000000002,0.010886933654546738,0.006032376550137997,0.0016841330798342824,0.0,0.0,0.0,0.0,-5.311000563779089e-07,-0.0023658142890781164,-0.0005970454076305032,0.9990586638450623,0.0,0.0,0.0,17.018951416015625,10.198983192443848,1.3326315879821777,-3080.464111328125,0
978.7939999999999,0.010740023106336594,0.006066304165869951,0.0016238992102444172,0.0,0.0,0.0,0.0,0.00020864438556600362,-0.0052738492377102375,0.002078530378639698,0.9994829297065735,0.0,0.0,0.0,17.033754348754883,10.20219612121582,1.3275716304779053,-3083.143798828125,0
988.6620000000003,0.010890515521168709,0.005983895622193813,0.0017392048612236977,0.0,0.0,0.0,0.0,0.000153733606566675,0.00017135636880993843,0.0037147828843444586,0.9989554286003113,0.0,0.0,0.0,17.018142700195312,10.200872421264648,1.3375626802444458,-3080.317626953125,0
998.5560000000005,0.010739401914179325,0.006035088561475277,0.0016637929948046803,0.0,0.0,0.0,0.0,0.001391315832734108,-0.003387205069884658,-0.001985615584999323,0.9984809756278992,0.0,0.0,0.0,17.032325744628906,10.211426734924316,1.3393422365188599,-3082.884765625,0
1008.4349999999995,0.010891309008002281,0.005947248078882694,0.0017797858454287052,0.0,0.0,0.0,0.0,0.0016180929960682988,0.007299106102436781,-0.004113444127142429,0.9985052347183228,0.0,0.0,0.0,17.015336990356445,10.198261260986328,1.3406341075897217,-3079.809814453125,0
1018.3299999999999,0.01067333947867155,0.006008130498230457,0.0017033371841534972,0.0,0.0,0.0,0.0,-0.002305947709828615,0.002485103439539671,0.0014906669966876507,1.0001393556594849,0.0,0.0,0.0,17.02324676513672,10.203739166259766,1.3138458728790283,-3081.241455078125,0
1028.2080000000005,0.010823925025761127,0.0059136878699064255,0.0018215577583760023,0.0,0.0,0.0,0.0,-0.0020606154575943947,-0.0004412162525113672,-0.0023702445905655622,1.00153648853302,0.0,0.0,0.0,17.008132934570312,10.202899932861328,1.3013596534729004,-3078.505859375,0
1038.101999999999,0.010867619886994362,0.005893739406019449,0.0018624733202159405,0.0,0.0,0.0,0.0,-0.0008690175018273294,0.0025335969403386116,-0.0018514766125008464,0.9998960494995117,0.0,0.0,0.0,17.03534698486328,10.206592559814453,1.3133158683776855,-3083.431884765625,0
1047.9809999999998,0.011022316291928291,0.005795448087155819,0.0019837638828903437,0.0,0.0,0.0,0.0,0.0012915941188111901,-0.001671190490014851,0.0050468468107283115,0.999054491519928,0.0,0.0,0.0,17.018569946289062,10.193498611450195,1.3059488534927368,-3080.394775390625,0
1057.8760000000002,0.011037830263376236,0.00582744088023901,0.0019363670144230127,0.0,0.0,0.0,0.0,-0.0009110289975069463,-0.00024248163390439004,0.00048103011795319617,1.000428557395935,0.0,0.0,0.0,17.03655242919922,10.201290130615234,1.3264867067337036,-3083.649658203125,0
1067.762999999999,0.011197888292372227,0.0057286848314106464,0.0020559472031891346,0.0,0.0,0.0,0.0,-4.449811240192503e-05,-0.005911037791520357,-0.0001248215266969055,1.0003713369369507,0.0,0.0,0.0,17.01906394958496,10.193412780761719,1.321675419807434,-3080.484130859375,0
1077.6579999999994,0.011317242868244648,0.005744690075516701,0.0021309941075742245,0.0,0.0,0.0,0.0,0.0008532796055078506,0.004794726148247719,0.0019481739727780223,1.0009868144989014,0.0,0.0,0.0,17.044687271118164,10.214387893676758,1.356241226196289,-3085.1220703125,0
1087.5299999999988,0.011483868584036827,0.00564879085868597,0.002252494217827916,0.0,0.0,0.0,0.0,0.0015264323446899652,0.005155845545232296,0.0006327272276394069,1.0013211965560913,0.0,0.0,0.0,17.028493881225586,10.201823234558105,1.3514147996902466,-3082.19091796875,0
1097.4229999999989,0.011673370376229286,0.005659650079905987,0.002341899322345853,0.0,0.0,0.0,0.0,-6.378188118105754e-06,-0.005281624849885702,-0.000294951576506719,0.9988080859184265,0.0,0.0,0.0,17.0568904876709,10.222280502319336,1.3736728429794312,-3087.331298828125,0
1107.3029999999999,0.01184888556599617,0.005564819555729628,0.002464635530486703,0.0,0.0,0.0,0.0,0.004005294758826494,0.0014265639474615455,0.0009828046895563602,0.9993950724601746,0.0,0.0,0.0,17.03995704650879,10.213504791259766,1.3782782554626465,-3084.266357421875,0
1117.196,0.011813800781965256,0.005626302678138018,0.0024469385389238596,0.0,0.0,0.0,0.0,-0.00010513840970816091,-0.00040446253842674196,0.0004768212966155261,1.0002837181091309,0.0,0.0,0.0,17.067167282104492,10.226776123046875,1.3941649198532104,-3089.191162109375,0
1127.075999999999,0.011989532969892025,0.005535673350095749,0.002570413751527667,0.0,0.0,0.0,0.0,0.0003535062714945525,8.123963925754651e-05,-0.0027493408415466547,0.9996193051338196,0.0,0.0,0.0,17.050704956054688,10.220894813537598,1.3926979303359985,-3086.211669921875,0
1136.9709999999995,0.011921383440494537,0.005609606392681599,0.0025214958004653454,0.0,0.0,0.0,0.0,0.0014647030038759112,-0.0021913081873208284,0.001808124827221036,0.9972513318061829,0.0,0.0,0.0,17.080978393554688,10.236519813537598,1.4094027280807495,-3091.691162109375,0
1146.8490000000002,0.012101523578166962,0.00552374916151166,0.0026453863829374313,0.0,0.0,0.0,0.0,-4.3003237806260586e-05,0.0034922880586236715,0.0008463755366392434,1.0014381408691406,0.0,0.0,0.0,17.064851760864258,10.225018501281738,1.4034132957458496,-3088.772216796875,0
1156.7440000000006,0.011953920125961304,0.00556631525978446,0.0025794990360736847,0.0,0.0,0.0,0.0,-0.0016154033364728093,0.0008339042542502284,-0.0016154783079400659,1.0017316341400146,0.0,0.0,0.0,17.089576721191406,10.232184410095215,1.3864487409591675,-3093.247314453125,0
1166.625,0.012134958989918232,0.005479940213263035,0.0027066245675086975,0.0,0.0,0.0,0.0,0.0012189947301521897,0.004192901775240898,0.0018099499866366386,0.9996792078018188,0.0,0.0,0.0,17.072975158691406,10.218903541564941,1.3665896654129028,-3090.242431640625,0
1176.527,0.012142570689320564,0.0054641179740428925,0.002740604570135474,0.0,0.0,0.0,0.0,-0.002125036669895053,0.003140274668112397,-0.002418696414679289,0.9988752603530884,0.0,0.0,0.0,17.102365493774414,10.211947441101074,1.358373999595642,-3095.562255859375,0
1186.396999999999,0.012324636802077293,0.005376368761062622,0.0028703249990940094,0.0,0.0,0.0,0.0,-0.0006341639091260731,0.0007477776962332428,0.000814153638202697,0.9999723434448242,0.0,0.0,0.0,17.085304260253906,10.204195976257324,1.3472695350646973,-3092.473876953125,0
1196.3009999999995,0.012199407443404198,0.005429681856185198,0.002817059401422739,0.0,0.0,0.0,0.0,-0.000492334074806422,-0.0012858909321948886,0.0009057405404746532,0.9990158677101135,0.0,0.0,0.0,17.106645584106445,10.21265697479248,1.3442462682724,-3096.3369140625,0
1206.173999999999,0.012380288913846016,0.005342384334653616,0.0029485044069588184,0.0,0.0,0.0,0.0,0.0016246443847194314,0.002134941518306732,0.0013399776071310043,1.000994324684143,0.0,0.0,0.0,17.09040069580078,10.202640533447266,1.3437020778656006,-3093.396728515625,0
1216.0569999999989,0.012356012128293514,0.0054118093103170395,0.0029249764047563076,0.0,0.0,0.0,0.0,0.0025386223569512367,-0.003464395646005869,0.0012097754515707493,0.999821662902832,0.0,0.0,0.0,17.113054275512695,10.215224266052246,1.355913758277893,-3097.49658203125,0
1225.9439999999995,0.01253978256136179,0.0053266966715455055,0.0030580072198063135,0.0,0.0,0.0,0.0,-0.001445616828277707,-0.0026149076875299215,0.003254433861002326,1.000525712966919,0.0,0.0,0.0,17.095678329467773,10.195979118347168,1.3533904552459717,-3094.351806640625,0
1235.833999999999,0.01241835206747055,0.005411657504737377,0.002921648323535919,0.0,0.0,0.0,0.0,0.0008819153299555182,-0.0038970818277448416,-0.0013661744305863976,1.001956820487976,0.0,0.0,0.0,17.10918426513672,10.206847190856934,1.3694000244140625,-3096.79638671875,0
1245.7240000000002,0.012605473399162292,0.005329591687768698,0.003054869594052434,0.0,0.0,0.0,0.0,-0.0013157118810340762,-0.001004151301458478,0.0025219416711479425,1.0007318258285522,0.0,0.0,0.0,17.091609954833984,10.196592330932617,1.3729510307312012,-3093.615234375,0
1255.6119999999992,0.012522488832473755,0.0054201665334403515,0.002996991155669093,0.0,0.0,0.0,0.0,-0.0003529988171067089,-9.798611426958814e-05,0.0024737941566854715,1.001894235610962,0.0,0.0,0.0,17.111814498901367,10.215131759643555,1.3861336708068848,-3097.2724609375,0
1265.4889999999996,0.012712942436337471,0.005340332165360451,0.0031342599540948868,0.0,0.0,0.0,0.0,0.0038567497394979,-0.0024483201559633017,-0.00187723059207201,1.0013012886047363,0.0,0.0,0.0,17.09553337097168,10.208466529846191,1.3826876878738403,-3094.32568359375,0
1275.387999999999,0.012427308596670628,0.00546900974586606,0.0028999201022088528,0.0,0.0,0.0,0.0,-0.0011102075222879648,-0.00695756496861577,0.0016694164369255304,0.9992880821228027,0.0,0.0,0.0,17.105525970458984,10.208290100097656,1.3928066492080688,-3096.134033203125,0
1285.2669999999998,0.012618898414075375,0.005387977696955204,0.003038874827325344,0.0,0.0,0.0,0.0,-0.0009157179738394916,0.00451959203928709,-0.0010177954100072384,1.002108097076416,0.0,0.0,0.0,17.08903694152832,10.199789047241211,1.4041564464569092,-3093.1494140625,0
1295.1630000000005,0.01259497832506895,0.005432933568954468,0.003030015854164958,0.0,0.0,0.0,0.0,0.0004334647092036903,-0.0033195968717336655,0.0030537606216967106,1.003530502319336,0.0,0.0,0.0,17.108922958374023,10.207500457763672,1.3964862823486328,-3096.7490234375,0
1305.0370000000003,0.012789771892130375,0.0053511424921453,0.0031735561788082123,0.0,0.0,0.0,0.0,0.0022437465377151966,0.0037134101148694754,-0.0043158940970897675,1.001236915588379,0.0,0.0,0.0,17.092792510986328,10.19633674621582,1.3928154706954956,-3093.8291015625,0
1314.9339999999993,0.012522823177278042,0.0054897465743124485,0.0029789928812533617,0.0,0.0,0.0,0.0,-0.0010274789528921247,0.0019184525590389967,0.0009052810491994023,1.0018811225891113,0.0,0.0,0.0,17.10898208618164,10.202478408813477,1.382277488708496,-3096.759521484375,0
1324.8099999999995,0.012716428376734257,0.005407877266407013,0.0031273318454623222,0.0,0.0,0.0,0.0,-0.002416275441646576,0.00010606660362100229,0.0013420397881418467,0.9993599653244019,0.0,0.0,0.0,17.092384338378906,10.194718360900879,1.3701565265655518,-3093.75537109375,0
1334.7080000000005,0.012521108612418175,0.0054780347272753716,0.0029925552662461996,0.0,0.0,0.0,0.0,0.0009697466739453375,-0.0021600788459181786,0.0010577300563454628,0.9991186857223511,0.0,0.0,0.0,17.102680206298828,10.198681831359863,1.3650645017623901,-3095.619140625,0
1344.5830000000005,0.012712358497083187,0.005392988212406635,0.0031413233373314142,0.0,0.0,0.0,0.0,-0.0011496751103550196,0.0037716818042099476,0.00041895342292264104,1.000786304473877,0.0,0.0,0.0,17.0852108001709,10.189597129821777,1.3653526306152344,-3092.457275390625,0
1354.4779999999992,0.01250552199780941,0.005452562123537064,0.0030419393442571163,0.0,0.0,0.0,0.0,-0.0010410756804049015,0.0005627115606330335,0.0016976420301944017,0.9973636269569397,0.0,0.0,0.0,17.090091705322266,10.195720672607422,1.350579023361206,-3093.3408203125,0
1364.357,0.012697803787887096,0.005364886950701475,0.0031917430460453033,0.0,0.0,0.0,0.0,0.0014539764961227775,0.0010779548902064562,-0.0005298338364809752,0.9985537528991699,0.0,0.0,0.0,17.0738525390625,10.194273948669434,1.3548622131347656,-3090.4013671875,0
1374.2579999999998,0.012410013005137444,0.005465157795697451,0.003020790871232748,0.0,0.0,0.0,0.0,0.0034846027847379446,0.003475782461464405,-0.0007888649124652147,1.000334620475769,0.0,0.0,0.0,17.08213996887207,10.199926376342773,1.3515790700912476,-3091.9013671875,0
1384.1329999999998,0.012603615410625935,0.005374646279960871,0.0031701186671853065,0.0,0.0,0.0,0.0,-0.002630694769322872,0.0024893125519156456,0.00022169639123603702,0.9984422922134399,0.0,0.0,0.0,17.064542770385742,10.182861328125,1.344451904296875,-3088.716064453125,0
1394.036,0.012369774281978607,0.005456696730107069,0.003020928241312504,0.0,0.0,0.0,0.0,0.003086460055783391,0.001710019540041685,-0.0028030320536345243,1.0011887550354004,0.0,0.0,0.0,17.075634002685547,10.190260887145996,1.3357187509536743,-3090.7236328125,0
1403.902,0.012565327808260918,0.005367657635360956,0.003170478856191039,0.0,0.0,0.0,0.0,-0.0028207062277942896,0.0009159010951407254,0.004462745040655136,0.9990226626396179,0.0,0.0,0.0,17.057844161987305,10.172380447387695,1.328617811203003,-3087.50390625,0
1413.8019999999997,0.012418167665600777,0.005429476033896208,0.0030890661291778088,0.0,0.0,0.0,0.0,-0.0012266478734090924,-0.0035093461629003286,0.0019714655354619026,0.9971451759338379,0.0,0.0,0.0,17.071895599365234,10.182125091552734,1.320526123046875,-3090.047119140625,0
1423.6749999999993,0.012615461833775043,0.005341730080544949,0.0032382747158408165,0.0,0.0,0.0,0.0,-0.0006272829486988485,-0.0012925945920869708,0.0007226210436783731,0.9993637800216675,0.0,0.0,0.0,17.055084228515625,10.176603317260742,1.3244071006774902,-3087.00439453125,0
1433.5699999999997,0.012474394403398037,0.005404315888881683,0.00314178504049778,0.0,0.0,0.0,0.0,0.0019143976969644427,0.004318890627473593,-0.00019918120233342052,1.0018786191940308,0.0,0.0,0.0,17.063684463500977,10.182933807373047,1.3323134183883667,-3088.560791015625,0
1443.4490000000005,0.01267145574092865,0.005316620692610741,0.0032904213294386864,0.0,0.0,0.0,0.0,-0.00215596123598516,-0.004016729537397623,0.0017397903138771653,0.9997712969779968,0.0,0.0,0.0,17.046905517578125,10.167465209960938,1.3222280740737915,-3085.52392578125,0
1453.3449999999993,0.012509689666330814,0.0053804186172783375,0.00318515719845891,0.0,0.0,0.0,0.0,0.0010406438959762454,0.004808529280126095,-0.0016643502749502659,1.0003429651260376,0.0,0.0,0.0,17.054046630859375,10.17540454864502,1.3276641368865967,-3086.816162109375,0
1463.2250000000004,0.012708733789622784,0.005291278939694166,0.0033352389000356197,0.0,0.0,0.0,0.0,0.000548963260371238,0.0018686807015910745,-0.0006791058112867177,0.9994759559631348,0.0,0.0,0.0,17.03664207458496,10.166838645935059,1.3191349506378174,-3083.666015625,0
1473.1270000000004,0.012801454402506351,0.005316873546689749,0.003362154820933938,0.0,0.0,0.0,0.0,0.0018564608180895448,-0.0014915498904883862,0.0009642537916079164,0.9991599321365356,0.0,0.0,0.0,17.057222366333008,10.17529296875,1.3353615999221802,-3087.39111328125,0
1482.9969999999994,0.013007049448788166,0.005229205824434757,0.00351079273968935,0.0,0.0,0.0,0.0,-0.0019586628768593073,0.0036403355188667774,-0.0013929825508967042,0.9998040199279785,0.0,0.0,0.0,17.040491104125977,10.162696838378906,1.335924744606018,-3084.36279296875,0
1492.8940000000002,0.013262123800814152,0.005201781168580055,0.0036342060193419456,0.0,0.0,0.0,0.0,0.0005752331926487386,-7.290920621016994e-05,0.0016849746461957693,0.9983787536621094,0.0,0.0,0.0,17.065555572509766,10.174635887145996,1.36017644405365,-3088.8994140625,0
1502.7759999999998,0.013476349413394928,0.00511641101911664,0.003780618542805314,0.0,0.0,0.0,0.0,-0.003259507939219475,-0.0031761685386300087,-0.00045710630365647376,0.9986903071403503,0.0,0.0,0.0,17.04865074157715,10.166184425354004,1.3592768907546997,-3085.83984375,0
1512.664999999999,0.013516646809875965,0.005153509322553873,0.0037562218494713306,0.0,0.0,0.0,0.0,-0.004397758282721043,-0.0016362570459023118,-0.0006487171049229801,1.0010662078857422,0.0,0.0,0.0,17.068782806396484,10.180538177490234,1.386905550956726,-3089.4833984375,0
1522.5479999999989,0.013737202621996403,0.005068785510957241,0.0039005440194159746,0.0,0.0,0.0,0.0,0.0011515372898429632,-2.9175171221140772e-05,-0.00048094402882270515,1.0016590356826782,0.0,0.0,0.0,17.052297592163086,10.183300971984863,1.3947227001190186,-3086.499755859375,0
1532.4439999999995,0.013597195968031883,0.005114586558192968,0.0037815740797668695,0.0,0.0,0.0,0.0,0.00014730483235325664,-0.0020239746663719416,0.0023094010539352894,0.9995266199111938,0.0,0.0,0.0,17.06869888305664,10.18071174621582,1.389443039894104,-3089.46826171875,0
1542.325999999999,0.013819833286106586,0.005025926511734724,0.003928262274712324,0.0,0.0,0.0,0.0,-0.0003766713780350983,-0.0009905295446515083,-0.0012808298924937844,0.9997988343238831,0.0,0.0,0.0,17.052404403686523,10.17238998413086,1.3839069604873657,-3086.519287109375,0
1552.2099999999991,0.01376730389893055,0.005074046086519957,0.003921228926628828,0.0,0.0,0.0,0.0,0.0001282546581933275,-0.004400642588734627,-0.002547926502302289,0.9986008405685425,0.0,0.0,0.0,17.075700759887695,10.186493873596191,1.3821871280670166,-3090.735595703125,0
1562.089,0.013991844840347767,0.00498306006193161,0.004069439135491848,0.0,0.0,0.0,0.0,-6.75146802677773e-05,-0.002652787836268544,8.85465124156326e-05,0.9984766840934753,0.0,0.0,0.0,17.05811309814453,10.18017292022705,1.3856638669967651,-3087.55224609375,0
1571.9869999999992,0.013759519904851913,0.005061269737780094,0.0038938610814511776,0.0,0.0,0.0,0.0,-0.002287354087457061,-0.002121708123013377,-0.0006647639675065875,1.000880241394043,0.0,0.0,0.0,17.075658798217773,10.181705474853516,1.383165955543518,-3090.728271484375,0
1581.8690000000006,0.013984126970171928,0.004966334439814091,0.004041310399770737,0.0,0.0,0.0,0.0,0.0011742437491193414,0.0009755357168614864,0.0009060711017809808,1.0005804300308228,0.0,0.0,0.0,17.058284759521484,10.177868843078613,1.3872240781784058,-3087.583251953125,0
1591.7639999999992,0.013790400698781013,0.005038734525442123,0.003991504665464163,0.0,0.0,0.0,0.0,-0.0008916171500459313,-0.001964039634913206,0.0010326193878427148,0.9974591732025146,0.0,0.0,0.0,17.08046531677246,10.18574047088623,1.364782452583313,-3091.59814453125,0
1601.6399999999994,0.014009824022650719,0.004939081147313118,0.004143749363720417,0.0,0.0,0.0,0.0,-0.0012007298646494746,-0.005813536234200001,0.0009387818281538785,1.0003176927566528,0.0,0.0,0.0,17.063255310058594,10.181561470031738,1.366687536239624,-3088.483154296875,0
1611.5339999999997,0.013878871686756611,0.005007985047996044,0.00406910665333271,0.0,0.0,0.0,0.0,-0.0006615573074668646,-0.0009253560565412045,-4.311289012548514e-05,1.0023595094680786,0.0,0.0,0.0,17.084613800048828,10.19529914855957,1.3814717531204224,-3092.34912109375,0
1621.4089999999997,0.014098409563302994,0.004906724207103252,0.0042238081805408,0.0,0.0,0.0,0.0,-0.0022020016331225634,-0.005455827806144953,0.0006100363680161536,1.0006825923919678,0.0,0.0,0.0,17.067705154418945,10.185869216918945,1.3818507194519043,-3089.288818359375,0
1631.3150000000005,0.013968112878501415,0.004922909662127495,0.004194697830826044,0.0,0.0,0.0,0.0,-0.00012794557551387697,0.0011879231315106153,-0.0016980116488412023,0.9974023103713989,0.0,0.0,0.0,17.092214584350586,10.187163352966309,1.3764597177505493,-3093.724609375,0
1641.182999999999,0.01418717298656702,0.004817953333258629,0.004353602882474661,0.0,0.0,0.0,0.0,-0.0013604488922283053,-0.0038578049279749393,0.0010219203541055322,0.9984121322631836,0.0,0.0,0.0,17.075010299682617,10.173237800598145,1.3657172918319702,-3090.61083984375,0
1651.089,0.01396899577230215,0.0048913005739450455,0.004234486725181341,0.0,0.0,0.0,0.0,0.002479255199432373,-0.0004064380773343146,-0.00017541585839353502,0.9969394207000732,0.0,0.0,0.0,17.08551597595215,10.179093360900879,1.3635687828063965,-3092.512451171875,0
1660.9560000000001,0.014189803041517735,0.004786081146448851,0.004391828551888466,0.0,0.0,0.0,0.0,0.0018562463810667396,0.0017098342068493366,0.0017208242788910866,1.0000886917114258,0.0,0.0,0.0,17.068235397338867,10.163524627685547,1.356148600578308,-3089.384521484375,0
1670.8549999999996,0.013919509015977383,0.004881804808974266,0.004212737549096346,0.0,0.0,0.0,0.0,-0.0011978422990068793,0.002888175193220377,-0.00032085648854263127,1.0001821517944336,0.0,0.0,0.0,17.074357986450195,10.16705322265625,1.3385508060455322,-3090.49267578125,0
1680.7379999999994,0.014142648316919804,0.00477444427087903,0.004369897302240133,0.0,0.0,0.0,0.0,-0.0005225483910180628,-0.001517732860520482,0.0001988627336686477,1.0020005702972412,0.0,0.0,0.0,17.057205200195312,10.161057472229004,1.3315297365188599,-3087.38818359375,0
1690.6260000000002,0.014136665500700474,0.0047736866399645805,0.004403546918183565,0.0,0.0,0.0,0.0,0.00011765048111556098,0.0033166182693094015,-0.002626679837703705,1.003115177154541,0.0,0.0,0.0,17.086759567260742,10.165550231933594,1.3297597169876099,-3092.7373046875,0
1700.5139999999992,0.014361312612891197,0.004663494415581226,0.004566842224448919,0.0,0.0,0.0,0.0,0.0014588587218895555,0.002038140082731843,0.00023325459915213287,0.999360978603363,0.0,0.0,0.0,17.06884002685547,10.15518856048584,1.3169288635253906,-3089.494140625,0
1710.4099999999999,0.01425805315375328,0.004741237498819828,0.004560566507279873,0.0,0.0,0.0,0.0,-0.002329411916434765,-0.0011927710147574544,0.001514817588031292,0.9988644123077393,0.0,0.0,0.0,17.0888729095459,10.178572654724121,1.313101053237915,-3093.1201171875,0
1720.286,0.014483789913356304,0.004630673676729202,0.004728447180241346,0.0,0.0,0.0,0.0,-0.0011779408669099212,0.0068608857691287994,0.002125820377841592,1.0001411437988281,0.0,0.0,0.0,17.072168350219727,10.172450065612793,1.3129992485046387,-3090.0966796875,0
1730.1779999999999,0.014616785570979118,0.0046046036295592785,0.004799838177859783,0.0,0.0,0.0,0.0,0.001883756136521697,0.0015520354500040412,0.00497038010507822,1.0003955364227295,0.0,0.0,0.0,17.0963077545166,10.178030014038086,1.3116157054901123,-3094.465576171875,0
1740.0569999999989,0.014848459511995316,0.004490509629249573,0.0049674008041620255,0.0,0.0,0.0,0.0,0.0012203127844259143,-0.0042233956046402454,1.107684693124611e-05,1.0013819932937622,0.0,0.0,0.0,17.08024024963379,10.16614818572998,1.315954327583313,-3091.5576171875,0
1749.946,0.014879017136991024,0.004526834469288588,0.0049775997176766396,0.0,0.0,0.0,0.0,0.00104658177588135,-0.00252421828918159,0.004116722848266363,0.9991141557693481,0.0,0.0,0.0,17.102258682250977,10.18216323852539,1.343979001045227,-3095.542724609375,0
1759.8310000000001,0.015116352587938309,0.004411054775118828,0.00514695281162858,0.0,0.0,0.0,0.0,8.35788705444429e-06,-0.0007486863760277629,0.0027993374969810247,0.9984239935874939,0.0,0.0,0.0,17.0865421295166,10.16745662689209,1.346882939338684,-3092.697998046875,0
1769.7240000000002,0.014836889691650867,0.004528583027422428,0.004971430636942387,0.0,0.0,0.0,0.0,-0.001128335134126246,3.550099063431844e-05,0.004836719017475843,1.0007542371749878,0.0,0.0,0.0,17.089723587036133,10.180913925170898,1.3401492834091187,-3093.27392578125,0
1779.6080000000002,0.015073612332344055,0.004415352363139391,0.005141593981534243,0.0,0.0,0.0,0.0,0.0019373474642634392,-0.001539876451715827,-0.0035203369334340096,1.0021206140518188,0.0,0.0,0.0,17.07377815246582,10.17304515838623,1.3337957859039307,-3090.3876953125,0
1789.4959999999992,0.015110711567103863,0.004464989062398672,0.005148420576006174,0.0,0.0,0.0,0.0,-0.0015657664043828845,0.006976165343075991,0.00144691183231771,0.9990991950035095,0.0,0.0,0.0,17.09929847717285,10.18494987487793,1.3601198196411133,-3095.0068359375,0
1799.3799999999992,0.015351768583059311,0.0043543800711631775,0.005321156233549118,0.0,0.0,0.0,0.0,0.0023167908657342196,-0.0006132423877716064,0.00033157053985632956,0.9993659853935242,0.0,0.0,0.0,17.08286476135254,10.177550315856934,1.3445311784744263,-3092.0322265625,0
1809.268,0.015249727293848991,0.00444107735529542,0.005243612453341484,0.0,0.0,0.0,0.0,-4.131161404075101e-05,0.0050252522341907024,-0.0027827273588627577,1.0004183053970337,0.0,0.0,0.0,17.111225128173828,10.186849594116211,1.3636386394500732,-3097.165771484375,0
1819.1569999999992,0.015493536368012428,0.00433153472840786,0.005416510161012411,0.0,0.0,0.0,0.0,-0.0006299864035099745,-0.003228338435292244,0.0011765110539272428,1.0003273487091064,0.0,0.0,0.0,17.0942325592041,10.180150985717773,1.3497288227081299,-3094.09033203125,0
1829.0509999999995,0.015327145345509052,0.00441268365830183,0.005280996672809124,0.0,0.0,0.0,0.0,0.003042217344045639,-0.003624427830800414,0.0016503632068634033,0.9988976120948792,0.0,0.0,0.0,17.111412048339844,10.18529224395752,1.356048583984375,-3097.19970703125,0
1838.9279999999999,0.015598720870912075,0.004296955652534962,0.005471544340252876,0.0,0.0,0.0,0.0,-0.002173817250877619,0.004170333966612816,0.00551398703828454,1.0005379915237427,0.0,0.0,0.0,17.094512939453125,10.174238204956055,1.3597043752670288,-3094.140869140625,0
1848.8150000000005,0.01557717565447092,0.004322045482695103,0.005455830134451389,0.0,0.0,0.0,0.0,0.0009290053858421743,-0.002703800331801176,0.00012475124094635248,0.9993194937705994,0.0,0.0,0.0,17.11509132385254,10.183333396911621,1.3528053760528564,-3097.865234375,0
1858.6980000000003,0.015825068578124046,0.004216821864247322,0.0056297667324543,0.0,0.0,0.0,0.0,1.022908963932423e-05,0.001446154317818582,-0.0012105409987270832,0.9987586140632629,0.0,0.0,0.0,17.098281860351562,10.16928768157959,1.3506102561950684,-3094.822998046875,0
1868.5869999999995,0.015595288947224617,0.004325392190366983,0.005459504667669535,0.0,0.0,0.0,0.0,-0.0014461056562140584,-0.0022589857690036297,0.0010469238040968776,0.9981642961502075,0.0,0.0,0.0,17.11481475830078,10.179757118225098,1.350600004196167,-3097.815673828125,0
1878.4699999999993,0.015844441950321198,0.004219510592520237,0.005632050801068544,0.0,0.0,0.0,0.0,-0.0002434524503769353,-0.0016169135924428701,1.9422823243075982e-05,0.9996892809867859,0.0,0.0,0.0,17.098506927490234,10.169707298278809,1.356952428817749,-3094.86376953125,0
1888.3729999999996,0.015482129529118538,0.004351447802037001,0.005427684169262648,0.0,0.0,0.0,0.0,-0.0010945535032078624,0.0002431404427625239,0.0014961474807932973,0.9998559951782227,0.0,0.0,0.0,17.109416961669922,10.174595832824707,1.3434399366378784,-3096.83837890625,0
1898.2459999999992,0.01572989486157894,0.004244854208081961,0.005602595862001181,0.0,0.0,0.0,0.0,-0.0008995758835226297,-0.0059524415992200375,0.0002946578024420887,0.999340832233429,0.0,0.0,0.0,17.09296417236328,10.165637969970703,1.3421273231506348,-3093.860595703125,0
1908.1399999999994,0.015482543036341667,0.0043653626926243305,0.005393277388066053,0.0,0.0,0.0,0.0,0.000737957947421819,-0.006758459843695164,-0.0010044877417385578,0.9997282028198242,0.0,0.0,0.0,17.106081008911133,10.175711631774902,1.365229606628418,-3096.234619140625,0
1918.018,0.01573151722550392,0.00425897678360343,0.00556690851226449,0.0,0.0,0.0,0.0,0.001148289768025279,0.0002747334656305611,-0.002232989529147744,1.0007089376449585,0.0,0.0,0.0,17.08941078186035,10.163468360900879,1.3782052993774414,-3093.21728515625,0
1927.9079999999994,0.015478428453207016,0.004369972739368677,0.005356723442673683,0.0,0.0,0.0,0.0,-0.001716099795885384,-0.0010244213044643402,0.0006545473006553948,1.0003468990325928,0.0,0.0,0.0,17.103708267211914,10.165278434753418,1.374436378479004,-3095.80517578125,0
1937.7939999999999,0.015726353973150253,0.004263516515493393,0.005530582275241613,0.0,0.0,0.0,0.0,0.0033548094797879457,0.0001944307005032897,4.449963398656109e-06,1.0017770528793335,0.0,0.0,0.0,17.087194442749023,10.157866477966309,1.3714157342910767,-3092.816162109375,0
1947.682999999999,0.01545489951968193,0.004406887572258711,0.005340468138456345,0.0,0.0,0.0,0.0,0.001391880214214325,-0.002609498333185911,-0.0009675389155745506,1.0022947788238525,0.0,0.0,0.0,17.106590270996094,10.169358253479004,1.3699924945831299,-3096.326904296875,0
1957.5720000000001,0.01570098288357258,0.004302837885916233,0.00551834749057889,0.0,0.0,0.0,0.0,-0.0005374762695282698,0.0077494969591498375,0.0029115520883351564,1.0002678632736206,0.0,0.0,0.0,17.089500427246094,10.150717735290527,1.3687957525253296,-3093.233642578125,0
1967.4529999999995,0.015397182665765285,0.00441086245700717,0.005361892282962799,0.0,0.0,0.0,0.0,-0.0011021330719813704,-0.003969583194702864,0.0021361950784921646,1.0022716522216797,0.0,0.0,0.0,17.103679656982422,10.158111572265625,1.3371130228042603,-3095.800048828125,0
1977.3439999999991,0.01564059965312481,0.004308400209993124,0.005545432213693857,0.0,0.0,0.0,0.0,0.0021933922544121742,0.007163553964346647,-0.0005212838877923787,1.001057505607605,0.0,0.0,0.0,17.087364196777344,10.15345573425293,1.3446948528289795,-3092.846923828125,0
1987.2379999999994,0.015598613768815994,0.004353659227490425,0.005538421683013439,0.0,0.0,0.0,0.0,-0.0009563977946527302,0.001594305387698114,-0.0013058357872068882,1.0021021366119385,0.0,0.0,0.0,17.113271713256836,10.16073226928711,1.3347220420837402,-3097.536376953125,0
1997.1190000000006,0.015842868015170097,0.0042518493719398975,0.005726595874875784,0.0,0.0,0.0,0.0,-0.0007965743425302207,-0.0007238476537168026,0.0034656557254493237,1.000723958015442,0.0,0.0,0.0,17.09563636779785,10.1524076461792,1.325279712677002,-3094.343994140625,0
2007.0029999999988,0.015741996467113495,0.0043328735046088696,0.005663253366947174,0.0,0.0,0.0,0.0,0.0017342634964734316,0.001597633003257215,0.0005405376432463527,1.0002257823944092,0.0,0.0,0.0,17.11762237548828,10.170429229736328,1.3314764499664307,-3098.32373046875,0
2016.8959999999988,0.015986716374754906,0.004232531879097223,0.005854003131389618,0.0,0.0,0.0,0.0,-0.001390300807543099,-0.0014833470340818167,0.001355132320895791,1.0018947124481201,0.0,0.0,0.0,17.100725173950195,10.158411979675293,1.32506263256073,-3095.26513671875,0
2026.7799999999988,0.01578282006084919,0.004321032669395208,0.005677639041095972,0.0,0.0,0.0,0.0,0.0027080406434834003,0.007714005187153816,0.0015946872299537063,1.002809762954712,0.0,0.0,0.0,17.115562438964844,10.16675090789795,1.3271809816360474,-3097.950927734375,0
2036.6710000000003,0.016029272228479385,0.004220208153128624,0.005870652385056019,0.0,0.0,0.0,0.0,0.002340259961783886,0.005715403240174055,-7.074556197039783e-05,1.001693844795227,0.0,0.0,0.0,17.098901748657227,10.153697967529297,1.3071054220199585,-3094.935302734375,0
2046.5550000000003,0.016087180003523827,0.004252808168530464,0.005892563611268997,0.0,0.0,0.0,0.0,-0.0016349173383787274,-0.003510859562084079,0.002391435671597719,1.0010831356048584,0.0,0.0,0.0,17.1209774017334,10.163461685180664,1.3173516988754272,-3098.930908203125,0
2056.4349999999995,0.016336897388100624,0.0041537112556397915,0.0060889991000294685,0.0,0.0,0.0,0.0,-0.001259809941984713,-0.0004979837103746831,0.0016310987994074821,1.0021369457244873,0.0,0.0,0.0,17.104278564453125,10.159950256347656,1.3213797807693481,-3095.908447265625,0
2066.3240000000005,0.016232946887612343,0.004212645813822746,0.006040479056537151,0.0,0.0,0.0,0.0,-0.0007188964518718421,-0.001406933180987835,0.004829177632927895,1.000895619392395,0.0,0.0,0.0,17.122146606445312,10.167417526245117,1.325604796409607,-3099.142578125,0
2076.209999999999,0.016483331099152565,0.004112798720598221,0.006240566726773977,0.0,0.0,0.0,0.0,-0.0015192971331998706,0.002937054494395852,-7.351265230681747e-05,0.9986473917961121,0.0,0.0,0.0,17.105897903442383,10.160428047180176,1.328657627105713,-3096.201416015625,0
2086.1010000000006,0.01633509248495102,0.004161011427640915,0.006122226361185312,0.0,0.0,0.0,0.0,-0.002551116980612278,-0.00901600532233715,0.0026102398987859488,0.9994797110557556,0.0,0.0,0.0,17.12127113342285,10.15653133392334,1.325622320175171,-3098.98388671875,0
2095.986999999999,0.016585204750299454,0.004056801088154316,0.00632057711482048,0.0,0.0,0.0,0.0,-0.0010087088448926806,-0.0007877181633375585,0.0032229148782789707,1.0009812116622925,0.0,0.0,0.0,17.104665756225586,10.148648262023926,1.3421502113342285,-3095.978271484375,0
2105.878999999999,0.016440102830529213,0.004074105992913246,0.006286975461989641,0.0,0.0,0.0,0.0,0.0009643775410950184,-0.0013790677767246962,-0.0007662561838515103,1.0000081062316895,0.0,0.0,0.0,17.13080406188965,10.14559555053711,1.3169206380844116,-3100.70947265625,0
2115.7520000000004,0.016685957089066505,0.003964228089898825,0.0064881592988967896,0.0,0.0,0.0,0.0,-0.0018486602930352092,-0.00048417630023323,0.001191867282614112,0.9982130527496338,0.0,0.0,0.0,17.113554000854492,10.134298324584961,1.316522240638733,-3097.587158203125,0
2125.6540000000005,0.016322417184710503,0.004072139970958233,0.006245114840567112,0.0,0.0,0.0,0.0,-0.002883312990888953,-0.0019219814566895366,-0.0007560268277302384,0.9996915459632874,0.0,0.0,0.0,17.118595123291016,10.138517379760742,1.3090250492095947,-3098.499755859375,0
2135.529999999999,0.01656324230134487,0.003959864843636751,0.0064443740993738174,0.0,0.0,0.0,0.0,0.00016708728799130768,-0.004694679751992226,-0.0030519883148372173,1.0015910863876343,0.0,0.0,0.0,17.101362228393555,10.135284423828125,1.3170294761657715,-3095.380615234375,0
2145.4210000000003,0.016506826505064964,0.004015965387225151,0.006401099264621735,0.0,0.0,0.0,0.0,0.0015646688407287002,-0.005659527610987425,0.0013434620341286063,1.0012413263320923,0.0,0.0,0.0,17.12108039855957,10.151468276977539,1.340608835220337,-3098.94970703125,0
2155.3089999999993,0.016751110553741455,0.0039023577701300383,0.00660185469314456,0.0,0.0,0.0,0.0,0.0012511949753388762,-0.000913826166652143,0.0029755958821624517,0.9993444681167603,0.0,0.0,0.0,17.104032516479492,10.14056396484375,1.3463191986083984,-3095.86376953125,0
2165.190999999999,0.016569290310144424,0.003980121109634638,0.00644694222137332,0.0,0.0,0.0,0.0,0.002388032851740718,0.0013150073355063796,-0.0007327839848585427,0.9995123744010925,0.0,0.0,0.0,17.11471939086914,10.1461181640625,1.352136492729187,-3097.798095703125,0
