timestamp,stateEstimate.x,stateEstimate.y,stateEstimate.z,controller.cmd_thrust,controller.cmd_roll,controller.cmd_pitch,controller.cmd_yaw,controller.r_roll,controller.r_pitch,controller.r_yaw,controller.accelz,controller.actuatorThrust,controller.roll,controller.pitch,controller.yaw,controller.rollRate,controller.pitchRate,controller.yawRate,controller.ctr_yaw
0.0,0.042100366204977036,-0.006965526379644871,0.0007086022524163127,0.0,0.0,0.0,0.0,0.001180649152956903,-0.002231246791779995,0.004160198848694563,0.998516857624054,0.0,0.0,0.0,44.942100524902344,7.109481334686279,2.307889938354492,-8134.609375,0
9.869000000000597,0.042054563760757446,-0.007019752636551857,0.0007085254183039069,0.0,0.0,0.0,0.0,-0.0011121490970253944,0.0022535526659339666,-0.00025074437144212425,0.9996873140335083,0.0,0.0,0.0,44.9538459777832,7.100608825683594,2.306344985961914,-8136.7353515625,0
19.77400000000125,0.04211123287677765,-0.00700038205832243,0.0007328168139792979,0.0,0.0,0.0,0.0,4.123285543755628e-05,0.00815605465322733,-0.0013816312421113253,1.000972032546997,0.0,0.0,0.0,44.98396682739258,7.098832130432129,2.303730010986328,-8142.1875,0
29.647000000000844,0.04205141216516495,-0.007027036044746637,0.000742917531169951,0.0,0.0,0.0,0.0,-0.00016946031246334314,0.0027792146429419518,-0.0002720522170420736,1.0008182525634766,0.0,0.0,0.0,44.991458892822266,7.086175441741943,2.2870099544525146,-8143.54345703125,0
39.530000000000655,0.04211408272385597,-0.007002369035035372,0.0007631808985024691,0.0,0.0,0.0,0.0,0.0005238419980742037,0.00258713960647583,0.0025278537068516016,0.9984408617019653,0.0,0.0,0.0,45.01816177368164,7.084110736846924,2.2960197925567627,-8148.37646484375,0
49.41500000000087,0.04203623905777931,-0.007024876307696104,0.0007668428006581962,0.0,0.0,0.0,0.0,-0.0011358704650774598,-0.003224912565201521,0.001845075748860836,0.9984130263328552,0.0,0.0,0.0,45.0260009765625,7.077771186828613,2.295640468597412,-8149.7958984375,0
59.301000000001295,0.04208265617489815,-0.007072117179632187,0.0007783756591379642,0.0,0.0,0.0,0.0,-0.002223015995696187,-0.006784940604120493,-0.0020629316568374634,0.9991228580474854,0.0,0.0,0.0,44.98251724243164,7.072315692901611,2.2970473766326904,-8141.9248046875,0
69.17900000000009,0.04198678210377693,-0.007040456403046846,0.0008132266812026501,0.0,0.0,0.0,0.0,-0.0003869124047923833,0.0064211576245725155,0.0001423093635821715,0.9992653727531433,0.0,0.0,0.0,44.989891052246094,7.080702781677246,2.311509609222412,-8143.26025390625,0
79.07800000000134,0.04207873344421387,-0.006989387329667807,0.0007868378888815641,0.0,0.0,0.0,0.0,0.00030375467031262815,7.008761895122007e-05,0.002272999379783869,1.0006211996078491,0.0,0.0,0.0,45.02106475830078,7.07551908493042,2.314673662185669,-8148.90234375,0
88.95600000000013,0.04199368134140968,-0.006979274097830057,0.0008026399882510304,0.0,0.0,0.0,0.0,0.00039452401688322425,-0.0048994398675858974,-0.0016747978515923023,1.0006951093673706,0.0,0.0,0.0,45.02961349487305,7.071186542510986,2.3160042762756348,-8150.44970703125,0
98.84400000000096,0.042113855481147766,-0.006888858042657375,0.0007550388691015542,0.0,0.0,0.0,0.0,0.001228243112564087,-0.0028727904427796602,-0.0017287791706621647,1.0013470649719238,0.0,0.0,0.0,45.06247329711914,7.065554141998291,2.344000816345215,-8156.39794921875,0
108.72500000000036,0.04202689230442047,-0.00689513236284256,0.0007548323483206332,0.0,0.0,0.0,0.0,0.00044102815445512533,0.0025361666921526194,-0.002064058557152748,1.0007052421569824,0.0,0.0,0.0,45.06587600708008,7.062026500701904,2.345214605331421,-8157.01318359375,0
118.61599999999999,0.04207652062177658,-0.006937945261597633,0.0007635797373950481,0.0,0.0,0.0,0.0,0.0007282746955752373,-0.0007373900734819472,0.0032311195973306894,0.9989675879478455,0.0,0.0,0.0,45.0211181640625,7.057012557983398,2.3295657634735107,-8148.912109375,0
128.5,0.04199935495853424,-0.006925542373210192,0.0007850464899092913,0.0,0.0,0.0,0.0,0.0011930508771911263,0.00389803946018219,0.0015938244760036469,0.9973200559616089,0.0,0.0,0.0,45.026458740234375,7.059633255004883,2.335482597351074,-8149.87841796875,0
138.39200000000164,0.04210946708917618,-0.006855587940663099,0.0007343079778365791,0.0,0.0,0.0,0.0,0.0007844350184313953,0.0029424061067402363,0.0018145176582038403,0.9983024001121521,0.0,0.0,0.0,45.060672760009766,7.053226470947266,2.3487932682037354,-8156.072265625,0
148.26600000000144,0.04200190305709839,-0.006893381476402283,0.0007040428463369608,0.0,0.0,0.0,0.0,-0.0006842428119853139,0.0009467172203585505,0.0001530925219412893,0.9989659786224365,0.0,0.0,0.0,45.0687255859375,7.049036026000977,2.330568790435791,-8157.52880859375,0
158.16200000000026,0.042053550481796265,-0.00693912198767066,0.000703388184774667,0.0,0.0,0.0,0.0,-0.0002003435220103711,0.0009164831135421991,0.0005930049810558558,0.9992601871490479,0.0,0.0,0.0,45.024776458740234,7.04343318939209,2.3209011554718018,-8149.57373046875,0
168.03800000000047,0.042021963745355606,-0.006950472481548786,0.0007130547310225666,0.0,0.0,0.0,0.0,0.0009451729711145163,-0.0020730665419250727,0.002249555429443717,0.9989692568778992,0.0,0.0,0.0,45.0344352722168,7.034976482391357,2.319594383239746,-8151.322265625,0
177.9300000000003,0.04207657277584076,-0.006995540577918291,0.0007124124094843864,0.0,0.0,0.0,0.0,-0.0009096245630644262,0.005448581650853157,-0.004529289435595274,0.9982454180717468,0.0,0.0,0.0,44.991085052490234,7.0244317054748535,2.319380283355713,-8143.4755859375,0
187.8100000000013,0.042020607739686966,-0.006992832757532597,0.0007287233020178974,0.0,0.0,0.0,0.0,-0.002371228998526931,-0.006518000271171331,0.0036496168468147516,1.0013535022735596,0.0,0.0,0.0,45.00098419189453,7.032715797424316,2.312757730484009,-8145.26708984375,0
197.70800000000054,0.042076293379068375,-0.007037453819066286,0.0007288939086720347,0.0,0.0,0.0,0.0,-0.0012046302435919642,0.003118679625913501,-0.0020806945394724607,1.0000618696212769,0.0,0.0,0.0,44.95833969116211,7.034638404846191,2.326220750808716,-8137.54833984375,0
207.58000000000175,0.04201224818825722,-0.0070298523642122746,0.0007508961716666818,0.0,0.0,0.0,0.0,-0.0017872879980131984,-0.00290760793723166,-0.0004930146387778223,1.000077486038208,0.0,0.0,0.0,44.97235870361328,7.049520015716553,2.334531545639038,-8140.0859375,0
217.47600000000057,0.042067330330610275,-0.007072197739034891,0.00075393111910671,0.0,0.0,0.0,0.0,-0.002865342888981104,0.0013304466847330332,-0.0014979374827817082,1.0015541315078735,0.0,0.0,0.0,44.928932189941406,7.045895576477051,2.3323261737823486,-8132.22607421875,0
227.35000000000036,0.042012088000774384,-0.007050925865769386,0.000785502081271261,0.0,0.0,0.0,0.0,0.004137447569519281,-0.0015109230298548937,-0.0010193460620939732,0.9978494644165039,0.0,0.0,0.0,44.943756103515625,7.060912609100342,2.3449437618255615,-8134.9091796875,0
237.25400000000081,0.042067430913448334,-0.007089007645845413,0.0007917395560070872,0.0,0.0,0.0,0.0,-0.0012174065923318267,-0.0011334695154801011,0.0022873266134411097,0.9979251623153687,0.0,0.0,0.0,44.89952850341797,7.045116424560547,2.342660903930664,-8126.90380859375,0
247.12400000000162,0.0420386828482151,-0.007090564351528883,0.0008094466757029295,0.0,0.0,0.0,0.0,0.0015978581504896283,-0.005319727119058371,0.002511352766305208,1.001293659210205,0.0,0.0,0.0,44.91550064086914,7.057772636413574,2.350263833999634,-8129.79541015625,0
257.02800000000025,0.04209558293223381,-0.007130201440304518,0.0008154457900673151,0.0,0.0,0.0,0.0,0.00035490922164171934,-0.0012792214984074235,0.0027294300962239504,1.000225305557251,0.0,0.0,0.0,44.872596740722656,7.049414157867432,2.3575828075408936,-8122.029296875,0
266.89900000000125,0.04206324368715286,-0.0071393586695194244,0.0008232047548517585,0.0,0.0,0.0,0.0,-4.34614994446747e-05,0.002057413337752223,0.0018192692659795284,0.9995051622390747,0.0,0.0,0.0,44.89238357543945,7.062063694000244,2.357358694076538,-8125.611328125,0
276.7940000000017,0.042118266224861145,-0.007178374566137791,0.000830665638204664,0.0,0.0,0.0,0.0,0.0010340092703700066,0.0010857130400836468,0.004492133855819702,1.0005971193313599,0.0,0.0,0.0,44.848480224609375,7.060454845428467,2.3403117656707764,-8117.6640625,0
286.6690000000017,0.042075324803590775,-0.007167259696871042,0.0008387661073356867,0.0,0.0,0.0,0.0,-0.0023249913938343525,0.005147311836481094,0.00019011848780792207,0.9983053207397461,0.0,0.0,0.0,44.86936950683594,7.087477207183838,2.33671498298645,-8121.4453125,0
296.5620000000017,0.0421905480325222,-0.007072356063872576,0.0007457792526111007,0.0,0.0,0.0,0.0,-0.0018992738332599401,0.0002212697872892022,0.0010714178206399083,1.000607967376709,0.0,0.0,0.0,44.91147232055664,7.09734582901001,2.3547933101654053,-8129.0654296875,0
306.45200000000114,0.0420701801776886,-0.0070531368255615234,0.0007351055392064154,0.0,0.0,0.0,0.0,0.0023051968310028315,0.0001777178986230865,0.00045892834896221757,1.001175880432129,0.0,0.0,0.0,44.92988586425781,7.100216388702393,2.3523313999176025,-8132.3984375,0
316.32900000000154,0.042120981961488724,-0.007084283046424389,0.0007391625549644232,0.0,0.0,0.0,0.0,0.0026292153634130955,-0.0002736925089266151,0.002501910552382469,0.9984952807426453,0.0,0.0,0.0,44.88668441772461,7.090352535247803,2.339116334915161,-8124.57958984375,0
326.20800000000054,0.042034346610307693,-0.007054346613585949,0.0007714113453403115,0.0,0.0,0.0,0.0,0.0006881508161313832,-0.005744582042098045,-0.0003819951962213963,0.9998264908790588,0.0,0.0,0.0,44.904624938964844,7.092633247375488,2.339311361312866,-8127.826171875,0
336.1140000000014,0.04208409786224365,-0.007084731012582779,0.0007772943936288357,0.0,0.0,0.0,0.0,0.002273939084261656,-0.0009179297485388815,-0.0014731712872162461,0.9975253939628601,0.0,0.0,0.0,44.86151885986328,7.089506149291992,2.346930503845215,-8120.02392578125,0
345.978000000001,0.04203341156244278,-0.007095513865351677,0.0007888466934673488,0.0,0.0,0.0,0.0,-0.0005681375623680651,-0.0038211906794458628,-0.0005989735363982618,0.9995534420013428,0.0,0.0,0.0,44.88016891479492,7.082700252532959,2.3529679775238037,-8123.400390625,0
355.8810000000012,0.04208297282457352,-0.007126480806618929,0.0007932995795272291,0.0,0.0,0.0,0.0,0.0016716235550120473,-0.002191208302974701,-0.0028404940385371447,1.0000907182693481,0.0,0.0,0.0,44.83600997924805,7.081565856933594,2.359856128692627,-8115.4072265625,0
365.75800000000163,0.04201873019337654,-0.007112275809049606,0.0008256418514065444,0.0,0.0,0.0,0.0,0.0011835212353616953,-0.0009876228868961334,0.0008017063955776393,1.0001063346862793,0.0,0.0,0.0,44.854129791259766,7.086507797241211,2.3750627040863037,-8118.6875,0
375.65000000000146,0.04206953942775726,-0.007143331691622734,0.0008331150747835636,0.0,0.0,0.0,0.0,-0.0017059438396245241,0.0009991625556722283,-0.0009721751557663083,0.9990310668945312,0.0,0.0,0.0,44.8110466003418,7.076601505279541,2.3798770904541016,-8110.888671875,0
385.53000000000065,0.0419921800494194,-0.007124905940145254,0.0008684353670105338,0.0,0.0,0.0,0.0,-0.00017053665942512453,-0.0015981571050360799,-0.003085708012804389,0.9976667761802673,0.0,0.0,0.0,44.8372917175293,7.091555118560791,2.3849241733551025,-8115.63916015625,0
395.4150000000009,0.04215281829237938,-0.006937732454389334,0.0006656980258412659,0.0,0.0,0.0,0.0,-0.002397023607045412,0.0014864496188238263,-0.0019131661392748356,0.9991401433944702,0.0,0.0,0.0,44.87998580932617,7.100795745849609,2.422785520553589,-8123.36669921875,0
405.3010000000013,0.04203353822231293,-0.006899108178913593,0.0006604481604881585,0.0,0.0,0.0,0.0,-0.0023690732195973396,-0.0025669054593890905,-0.0009635732276365161,0.999416172504425,0.0,0.0,0.0,44.89800262451172,7.104281425476074,2.4154245853424072,-8126.6279296875,0
415.20100000000093,0.04207620397210121,-0.006892950739711523,0.0006900688167661428,0.0,0.0,0.0,0.0,-0.0010576777858659625,-0.003892773063853383,-0.0005814828327856958,0.9973481297492981,0.0,0.0,0.0,44.938323974609375,7.09946346282959,2.420280933380127,-8133.92578125,0
425.07600000000093,0.0420113131403923,-0.0068496097810566425,0.0007087194244377315,0.0,0.0,0.0,0.0,0.0016300913412123919,0.005035483278334141,0.0004273641388863325,0.9996825456619263,0.0,0.0,0.0,44.95157241821289,7.094738006591797,2.4346253871917725,-8136.32421875,0
434.96600000000035,0.04209311679005623,-0.006798654794692993,0.0006845716270618141,0.0,0.0,0.0,0.0,-0.001773039810359478,-0.002761915558949113,-0.0011316603049635887,1.000267505645752,0.0,0.0,0.0,44.99343490600586,7.084880352020264,2.437073230743408,-8143.90087890625,0
444.83800000000156,0.04199306294322014,-0.006795500870794058,0.0006616275059059262,0.0,0.0,0.0,0.0,-0.0007427234668284655,-0.005123196169734001,-0.0005949828773736954,0.9993966221809387,0.0,0.0,0.0,45.001949310302734,7.085691928863525,2.444463014602661,-8145.44189453125,0
454.7400000000016,0.04206548258662224,-0.006761503405869007,0.0006510187522508204,0.0,0.0,0.0,0.0,0.002008578507229686,0.005085303448140621,-0.0009823843138292432,0.9983007907867432,0.0,0.0,0.0,45.0377197265625,7.079291343688965,2.4625370502471924,-8151.9169921875,0
464.616,0.04199092462658882,-0.006777963601052761,0.0006247492856346071,0.0,0.0,0.0,0.0,0.001977173611521721,0.0036911689676344395,0.001057230867445469,0.9979084134101868,0.0,0.0,0.0,45.04286575317383,7.067098617553711,2.446782112121582,-8152.84814453125,0
514.0550000000003,0.042194612324237823,-0.006866682320833206,0.0005664631025865674,0.0,0.0,0.0,0.0,0.0011043478734791279,0.0016692695207893848,-0.001799260382540524,0.9998798966407776,0.0,0.0,0.0,45.01603317260742,7.027196884155273,2.4337100982666016,-8147.9912109375,0
523.9260000000013,0.04211869463324547,-0.006883139722049236,0.000532877049408853,0.0,0.0,0.0,0.0,0.0030043204315006733,-0.0019124684622511268,0.00046226431732065976,1.0018746852874756,0.0,0.0,0.0,45.02401351928711,7.023054122924805,2.427422285079956,-8149.43603515625,0
533.8170000000009,0.04219217598438263,-0.006846736650913954,0.0005541478749364614,0.0,0.0,0.0,0.0,0.003474642988294363,0.0006585102528333664,0.0008115171222016215,0.9993273019790649,0.0,0.0,0.0,45.05641174316406,7.012528419494629,2.4327831268310547,-8155.30029296875,0
543.7030000000013,0.04213585704565048,-0.006868500728160143,0.00052590761333704,0.0,0.0,0.0,0.0,-0.0002962760045193136,-0.0016788560897111893,0.0023972345516085625,0.998287558555603,0.0,0.0,0.0,45.06380081176758,7.0014214515686035,2.4228713512420654,-8156.6376953125,0
553.5950000000012,0.042208705097436905,-0.0069085233844816685,0.0005146485636942089,0.0,0.0,0.0,0.0,-0.0008621791494078934,-0.0025393725372850895,0.00016585199045948684,0.9987533092498779,0.0,0.0,0.0,45.020809173583984,6.9971442222595215,2.420698881149292,-8148.8564453125,0
563.4750000000004,0.04215595871210098,-0.0069382390938699245,0.0004917785408906639,0.0,0.0,0.0,0.0,-0.00030182351474650204,-0.004015285987406969,-0.00167887716088444,0.9992991089820862,0.0,0.0,0.0,45.035221099853516,6.993133544921875,2.4238133430480957,-8151.46435546875,0
573.3590000000004,0.04222932085394859,-0.006979529745876789,0.00047808155068196356,0.0,0.0,0.0,0.0,-0.0021668733097612858,-0.0001617751404410228,0.0007412866107188165,0.9989319443702698,0.0,0.0,0.0,44.990657806396484,6.991254806518555,2.4310805797576904,-8143.3984375,0
583.246000000001,0.042162343859672546,-0.006978956051170826,0.0004758271388709545,0.0,0.0,0.0,0.0,0.0012139832833781838,0.006285912357270718,0.0014796605100855231,0.9992510080337524,0.0,0.0,0.0,45.00553894042969,7.003641605377197,2.4324488639831543,-8146.091796875,0
593.143,0.042250856757164,-0.006918385159224272,0.0004945017863065004,0.0,0.0,0.0,0.0,0.0008105798624455929,0.002441302640363574,0.00205247662961483,0.9974073767662048,0.0,0.0,0.0,45.0450439453125,7.004123687744141,2.4355976581573486,-8153.24267578125,0
603.018,0.042117491364479065,-0.006857878994196653,0.000484698946820572,0.0,0.0,0.0,0.0,0.0020436556078493595,-0.00326679483987391,0.0005565346800722182,0.9968904256820679,0.0,0.0,0.0,45.05511474609375,7.012673854827881,2.434385061264038,-8155.0654296875,0
612.9160000000011,0.04219045490026474,-0.006893321871757507,0.00046973739517852664,0.0,0.0,0.0,0.0,-0.0001272818335564807,-0.00265385746024549,-0.0019185151904821396,0.9980691075325012,0.0,0.0,0.0,45.01082992553711,7.004006385803223,2.435168504714966,-8147.0498046875,0
622.7880000000005,0.042107269167900085,-0.006872191559523344,0.00046552534331567585,0.0,0.0,0.0,0.0,0.0029365853406488895,0.0020883663091808558,0.0029404431115835905,0.99854975938797,0.0,0.0,0.0,45.023136138916016,7.011843681335449,2.437713146209717,-8149.27685546875,0
632.6820000000007,0.042180951684713364,-0.006905439309775829,0.0004478011978790164,0.0,0.0,0.0,0.0,0.00021099344303365797,0.0021423131693154573,-0.0017881998792290688,0.9979694485664368,0.0,0.0,0.0,44.9803352355957,7.002832889556885,2.4269325733184814,-8141.52978515625,0
642.5600000000013,0.042115919291973114,-0.006877948064357042,0.0004551319871097803,0.0,0.0,0.0,0.0,0.0006192887085489929,0.007913492619991302,0.0015330532332882285,0.9993942379951477,0.0,0.0,0.0,44.99412536621094,7.018421173095703,2.4243016242980957,-8144.0263671875,0
652.4540000000015,0.04218602553009987,-0.006848333869129419,0.0005024832207709551,0.0,0.0,0.0,0.0,-0.0006391085917130113,-0.0032680057920515537,-0.004049521405249834,1.0015827417373657,0.0,0.0,0.0,45.03453063964844,7.011277675628662,2.412703037261963,-8151.3388671875,0
662.3360000000011,0.04212391749024391,-0.006825089454650879,0.0004906060639768839,0.0,0.0,0.0,0.0,0.0020428686402738094,0.0034864016342908144,0.00016608781879767776,1.0001227855682373,0.0,0.0,0.0,45.04696273803711,7.014814376831055,2.4207394123077393,-8153.59033203125,0
672.2290000000012,0.04219057783484459,-0.006819367874413729,0.0005273198476061225,0.0,0.0,0.0,0.0,-9.202661749441177e-05,-0.0083620585501194,-0.0015989226521924138,0.9986416697502136,0.0,0.0,0.0,45.08602523803711,7.004220008850098,2.4199161529541016,-8160.66064453125,0
682.1050000000014,0.04211583733558655,-0.006798963062465191,0.0005120062851347029,0.0,0.0,0.0,0.0,0.001517077791504562,0.0005461639957502484,-0.00035200201091356575,1.0001921653747559,0.0,0.0,0.0,45.092159271240234,7.004583358764648,2.4320971965789795,-8161.7705078125,0
692.0,0.04219493642449379,-0.0068305181339383125,0.0005033747875131667,0.0,0.0,0.0,0.0,0.0006081119645386934,-0.0035903025418519974,0.0011205472983419895,0.999487578868866,0.0,0.0,0.0,45.04826354980469,6.9978461265563965,2.421590805053711,-8153.82568359375,0
701.875,0.04216264560818672,-0.006870299577713013,0.00047830125549808145,0.0,0.0,0.0,0.0,0.00213852571323514,-0.0034813552629202604,0.0013446176890283823,1.0006272792816162,0.0,0.0,0.0,45.06114959716797,6.98971700668335,2.4237093925476074,-8156.15771484375,0
711.7700000000004,0.042183537036180496,-0.006947518792003393,0.0005891721230000257,0.0,0.0,0.0,0.0,0.0005307802930474281,-0.002542489441111684,-0.001048477366566658,1.0025231838226318,0.0,0.0,0.0,45.09718704223633,6.978461742401123,2.417454719543457,-8162.68017578125,0
721.6460000000006,0.04210548475384712,-0.006948339287191629,0.000575813464820385,0.0,0.0,0.0,0.0,0.00037361346767283976,0.0012783504789695144,0.0003110886027570814,1.0011684894561768,0.0,0.0,0.0,45.105430603027344,6.971949577331543,2.4187049865722656,-8164.17333984375,0
731.5450000000001,0.042179036885499954,-0.006987411063164473,0.0005777684855274856,0.0,0.0,0.0,0.0,-0.000640806567389518,0.00388522120192647,0.003917006775736809,1.0000652074813843,0.0,0.0,0.0,45.06153106689453,6.968970775604248,2.4207959175109863,-8156.2265625,0
741.4280000000017,0.042124755680561066,-0.006987234577536583,0.0005875164060853422,0.0,0.0,0.0,0.0,0.0009223719825968146,-0.0046835714019834995,-0.0025176936760544777,0.998455286026001,0.0,0.0,0.0,45.07428741455078,6.970280170440674,2.417288303375244,-8158.5361328125,0
751.3170000000009,0.042202651500701904,-0.007027104962617159,0.0005903521669097245,0.0,0.0,0.0,0.0,0.0003022689779754728,0.0018882622243836522,0.0038108709268271923,0.9970685243606567,0.0,0.0,0.0,45.02918243408203,6.96563196182251,2.4246907234191895,-8150.37158203125,0
761.2020000000011,0.0421377532184124,-0.0070275915786623955,0.0006032862584106624,0.0,0.0,0.0,0.0,0.0016540982760488987,0.0004463492368813604,-0.0010598395019769669,0.9986312389373779,0.0,0.0,0.0,45.044795989990234,6.978602409362793,2.4225428104400635,-8153.19775390625,0
771.0840000000007,0.04221946373581886,-0.006975067313760519,0.0006708851433359087,0.0,0.0,0.0,0.0,-0.0020199299324303865,-0.000482504052342847,-0.0024334352929145098,0.9979004859924316,0.0,0.0,0.0,45.08674621582031,6.978516578674316,2.433356523513794,-8160.79052734375,0
780.969000000001,0.04208453744649887,-0.0069243875332176685,0.0006686006090603769,0.0,0.0,0.0,0.0,-0.0008192419772967696,0.006822986528277397,-0.0035429694689810276,0.9994947910308838,0.0,0.0,0.0,45.09385681152344,6.994673728942871,2.427377462387085,-8162.078125,0
790.8610000000008,0.04219987615942955,-0.006865166127681732,0.0006519337184727192,0.0,0.0,0.0,0.0,0.0018024699529632926,-0.003658976638689637,-0.000930040143430233,1.0001060962677002,0.0,0.0,0.0,45.132240295410156,6.993901252746582,2.429429292678833,-8169.025390625,0
800.7450000000008,0.042141690850257874,-0.006869582459330559,0.0006374127697199583,0.0,0.0,0.0,0.0,0.00032001102226786315,-0.005209742113947868,-0.001963370479643345,0.9992220401763916,0.0,0.0,0.0,45.13846206665039,6.988081455230713,2.434915781021118,-8170.1513671875,0
810.6370000000006,0.042224783450365067,-0.006906383670866489,0.0006384032894857228,0.0,0.0,0.0,0.0,0.0002876997459679842,-0.00160986406262964,-0.0012204712256789207,0.9967775344848633,0.0,0.0,0.0,45.09457778930664,6.983433723449707,2.4502081871032715,-8162.2080078125,0
820.5150000000012,0.04214740917086601,-0.006911211181432009,0.0006317587685771286,0.0,0.0,0.0,0.0,-0.0033755814656615257,0.0009330992470495403,-0.0023690322414040565,0.9983054995536804,0.0,0.0,0.0,45.101295471191406,6.991326808929443,2.4463951587677,-8163.42431640625,0
830.4010000000017,0.04222903400659561,-0.006946999579668045,0.0006285837152972817,0.0,0.0,0.0,0.0,-4.747441926156171e-05,-0.007125621195882559,-1.2593485507750302e-06,0.9975528717041016,0.0,0.0,0.0,45.056495666503906,6.9894328117370605,2.444709300994873,-8155.3154296875,0
840.2890000000007,0.04214269295334816,-0.006974681746214628,0.0006132895359769464,0.0,0.0,0.0,0.0,0.00013177035725675523,-0.005137470085173845,-0.0006979954778216779,0.9979361891746521,0.0,0.0,0.0,45.06559371948242,6.99351167678833,2.457876682281494,-8156.9619140625,0
850.1790000000001,0.042260706424713135,-0.006899354513734579,0.0005939889815635979,0.0,0.0,0.0,0.0,-0.0005913188797421753,-0.005840638652443886,0.00038969964953139424,0.998309314250946,0.0,0.0,0.0,45.104530334472656,6.993683338165283,2.4861435890197754,-8164.00927734375,0
860.0560000000005,0.04214910790324211,-0.006907115690410137,0.0005419255467131734,0.0,0.0,0.0,0.0,0.0002443060220684856,3.501187529764138e-05,-0.0011266609653830528,0.999502956867218,0.0,0.0,0.0,45.10983657836914,6.999218940734863,2.4816107749938965,-8164.970703125,0
869.9440000000013,0.0422341525554657,-0.006939899642020464,0.0005291033303365111,0.0,0.0,0.0,0.0,0.0003542619524523616,0.0010945249814540148,0.0026780373882502317,1.0014398097991943,0.0,0.0,0.0,45.0655632019043,6.990991592407227,2.4788095951080322,-8156.95703125,0
879.8280000000013,0.0421607680618763,-0.006919218692928553,0.0005274699069559574,0.0,0.0,0.0,0.0,-0.0019819200970232487,-0.0021715641487389803,0.000613630807492882,1.000161051750183,0.0,0.0,0.0,45.0738410949707,6.9997172355651855,2.4720864295959473,-8158.455078125,0
889.7150000000001,0.042249895632267,-0.006877955049276352,0.0005573404487222433,0.0,0.0,0.0,0.0,0.0004887149552814662,-0.0027449862100183964,-0.00026906057610176504,0.9988776445388794,0.0,0.0,0.0,45.104225158691406,7.006330966949463,2.4895572662353516,-8163.95458984375,0
899.603000000001,0.042167771607637405,-0.006854779087007046,0.0005359598435461521,0.0,0.0,0.0,0.0,-0.002753574401140213,-0.000706493912730366,0.0014901062240824103,0.9980864524841309,0.0,0.0,0.0,45.1083869934082,7.006891250610352,2.4967589378356934,-8164.70849609375,0
909.496000000001,0.042248062789440155,-0.006837758701294661,0.0005598519928753376,0.0,0.0,0.0,0.0,-0.0020834533497691154,0.0015536422142758965,-0.0006633043522015214,0.9995399713516235,0.0,0.0,0.0,45.14258575439453,7.005519390106201,2.5046117305755615,-8170.8974609375,0
919.3780000000006,0.04216966778039932,-0.006825705990195274,0.0005321927601471543,0.0,0.0,0.0,0.0,-0.0002599573927000165,0.0023744176141917706,-0.0009513763361610472,0.9989822506904602,0.0,0.0,0.0,45.14356231689453,7.006528377532959,2.4952585697174072,-8171.07421875,0
929.2620000000006,0.04225480556488037,-0.006856921594589949,0.0005218106671236455,0.0,0.0,0.0,0.0,0.0009377036476507783,0.0017356995958834887,0.0003447909257374704,0.9972957968711853,0.0,0.0,0.0,45.09882736206055,7.000758647918701,2.480482578277588,-8162.97705078125,0
939.1440000000002,0.042141035199165344,-0.006834701169282198,0.0005099315312691033,0.0,0.0,0.0,0.0,0.00262440531514585,0.004731076303869486,0.0010850266553461552,0.9988837242126465,0.0,0.0,0.0,45.103668212890625,7.013286590576172,2.461514711380005,-8163.85400390625,0
949.0260000000017,0.04221309348940849,-0.006828754208981991,0.0005450622411444783,0.0,0.0,0.0,0.0,0.0007484160596504807,-0.00251347036100924,0.0020251607056707144,0.9999931454658508,0.0,0.0,0.0,45.134552001953125,7.0017218589782715,2.452878952026367,-8169.44384765625,0
958.9170000000013,0.0420682467520237,-0.006788644008338451,0.0005088684847578406,0.0,0.0,0.0,0.0,-0.002819223329424858,0.007312095258384943,0.0005367181729525328,0.9996217489242554,0.0,0.0,0.0,45.13557052612305,7.010724067687988,2.453397750854492,-8169.62841796875,0
968.8130000000001,0.04215109348297119,-0.0068205371499061584,0.0004969560541212559,0.0,0.0,0.0,0.0,-0.001870931824669242,0.0014933861093595624,-0.0005963030853308737,0.9994803071022034,0.0,0.0,0.0,45.09259033203125,7.008235454559326,2.4431464672088623,-8161.84912109375,0
978.6890000000003,0.042122598737478256,-0.006822052877396345,0.0004889026749879122,0.0,0.0,0.0,0.0,0.003773630829527974,-0.003134416416287422,-0.0007323080208152533,1.0006024837493896,0.0,0.0,0.0,45.09648895263672,7.012474060058594,2.4438250064849854,-8162.5546875,0
988.5760000000009,0.04220626503229141,-0.0068547907285392284,0.00047785270726308227,0.0,0.0,0.0,0.0,0.000817901745904237,0.0002331859286641702,0.0016799765871837735,1.0010027885437012,0.0,0.0,0.0,45.05274200439453,7.001804828643799,2.4502594470977783,-8154.6357421875,0
998.4570000000003,0.042138535529375076,-0.0068443468771874905,0.0004785269557032734,0.0,0.0,0.0,0.0,-0.0027159485034644604,-0.004204561933875084,0.0013108592247590423,0.9985132813453674,0.0,0.0,0.0,45.05998992919922,7.011187553405762,2.447816848754883,-8155.9482421875,0
1008.3460000000014,0.04222308099269867,-0.006876868661493063,0.00046894425759091973,0.0,0.0,0.0,0.0,0.0011844708351418376,0.0029754459392279387,0.00017985384329222143,0.9994227290153503,0.0,0.0,0.0,45.016231536865234,7.010764122009277,2.4515156745910645,-8148.02734375,0
1018.2390000000014,0.04217807576060295,-0.006905145011842251,0.00045221371692605317,0.0,0.0,0.0,0.0,-0.0027501056902110577,-0.005065949633717537,0.0013734102249145508,0.999143660068512,0.0,0.0,0.0,45.02420425415039,7.013998508453369,2.445176362991333,-8149.47021484375,0
1028.1140000000014,0.04226267710328102,-0.006938536651432514,0.0004414190480019897,0.0,0.0,0.0,0.0,-0.0008550140191800892,-0.0009677092893980443,-0.0015119824092835188,1.0010020732879639,0.0,0.0,0.0,44.98087692260742,7.014379501342773,2.4503896236419678,-8141.6279296875,0
1038.0070000000014,0.04217860475182533,-0.006925508379936218,0.00044294094550423324,0.0,0.0,0.0,0.0,0.0016494934679940343,-0.003172756638377905,0.0007977480418048799,0.9993025660514832,0.0,0.0,0.0,44.99045944213867,7.038427352905273,2.459723472595215,-8143.36279296875,0
1047.889000000001,0.04216194525361061,-0.007048928644508123,0.0006938992301002145,0.0,0.0,0.0,0.0,-0.0003527226217556745,-0.0012545614736154675,-0.0006292963516898453,0.9985641241073608,0.0,0.0,0.0,45.03457260131836,7.021928310394287,2.4419498443603516,-8151.34716796875,0
1057.7690000000002,0.0420776903629303,-0.007029765285551548,0.0006922924076206982,0.0,0.0,0.0,0.0,0.0005856210482306778,0.0025529933627694845,-0.000561478896997869,1.0005645751953125,0.0,0.0,0.0,45.04352569580078,7.024991512298584,2.4443178176879883,-8152.9677734375,0
1067.6530000000002,0.04215465486049652,-0.0070670791901648045,0.0006964029744267464,0.0,0.0,0.0,0.0,-1.9524741219356656e-05,-0.0017134438967332244,-0.0002748630940914154,0.998224139213562,0.0,0.0,0.0,44.99956130981445,7.014223575592041,2.442539930343628,-8145.01025390625,0
1077.5420000000013,0.042069584131240845,-0.007073272485285997,0.0007001637131907046,0.0,0.0,0.0,0.0,-0.0009800971020013094,-0.0025584681425243616,0.0031628429424017668,0.9981338977813721,0.0,0.0,0.0,45.008018493652344,7.024258136749268,2.439676523208618,-8146.541015625,0
1087.4280000000017,0.042145512998104095,-0.007114998530596495,0.0007024629157967865,0.0,0.0,0.0,0.0,-0.00166412559337914,0.0016838170122355223,0.00013010945986025035,0.9981223344802856,0.0,0.0,0.0,44.96474075317383,7.021633625030518,2.440725326538086,-8138.70751953125,0
1097.3150000000005,0.04207305610179901,-0.007079388480633497,0.0007406381773762405,0.0,0.0,0.0,0.0,0.002402297919616103,0.0002802059752866626,-0.0027430488262325525,0.9977629780769348,0.0,0.0,0.0,44.97431182861328,7.045123100280762,2.452125310897827,-8140.439453125,0
1107.2020000000011,0.042226336896419525,-0.006940383929759264,0.0006447738269343972,0.0,0.0,0.0,0.0,-0.0016718626720830798,0.0029940290842205286,-0.0001368751545669511,0.9973357915878296,0.0,0.0,0.0,45.00657272338867,7.048383712768555,2.4860243797302246,-8146.279296875,0
1117.0890000000018,0.042122792452573776,-0.006908665876835585,0.0006295654457062483,0.0,0.0,0.0,0.0,0.0004198715614620596,-0.0024955158587545156,-0.0012767117004841566,0.9973076581954956,0.0,0.0,0.0,45.01383972167969,7.058323860168457,2.4724788665771484,-8147.59423828125,0
1126.9710000000014,0.042195048183202744,-0.006942001637071371,0.0006218067719601095,0.0,0.0,0.0,0.0,0.0008648128132335842,0.0067752632312476635,-0.0023204961325973272,0.9981375932693481,0.0,0.0,0.0,44.96991729736328,7.052794456481934,2.471889019012451,-8139.64404296875,0
1136.8520000000008,0.042079176753759384,-0.006892477162182331,0.0006341626867651939,0.0,0.0,0.0,0.0,0.0025050025433301926,0.007600211538374424,-0.00011757192987715825,0.9981505274772644,0.0,0.0,0.0,44.97690963745117,7.064948081970215,2.4588000774383545,-8140.90966796875,0
1146.741,0.04214964807033539,-0.006922897417098284,0.0006244475953280926,0.0,0.0,0.0,0.0,0.0021421799901872873,0.0033905277960002422,0.0033932572696357965,0.9994423985481262,0.0,0.0,0.0,44.93274688720703,7.056659698486328,2.441704273223877,-8132.9169921875,0
1156.6240000000016,0.04207460209727287,-0.006914145778864622,0.0006262671668082476,0.0,0.0,0.0,0.0,-0.0018836446106433868,0.0015996567672118545,-3.429878779570572e-05,0.9989057779312134,0.0,0.0,0.0,44.94432067871094,7.062513828277588,2.4346537590026855,-8135.01171875,0
1166.5130000000008,0.042145319283008575,-0.0069437832571566105,0.0006159681943245232,0.0,0.0,0.0,0.0,0.001158129540272057,0.008115197531878948,0.004581797402352095,0.9980477094650269,0.0,0.0,0.0,44.899757385253906,7.061115741729736,2.4304652214050293,-8126.9453125,0
1176.4010000000017,0.042068399488925934,-0.0069164070300757885,0.0006297668442130089,0.0,0.0,0.0,0.0,-0.001958610489964485,0.0012104436755180359,-0.004230052698403597,0.9989672899246216,0.0,0.0,0.0,44.9138069152832,7.0761895179748535,2.417576789855957,-8129.48828125,0
1186.2790000000005,0.042139291763305664,-0.0069430554285645485,0.0006188787519931793,0.0,0.0,0.0,0.0,0.0025413676630705595,0.003497372381389141,0.0031724004074931145,0.9991655945777893,0.0,0.0,0.0,44.86974334716797,7.07119607925415,2.4129445552825928,-8121.5126953125,0
1196.1690000000017,0.0420517697930336,-0.006929481867700815,0.0006201579817570746,0.0,0.0,0.0,0.0,-0.0005037686787545681,-0.0026580789126455784,-0.0032767183147370815,1.0006035566329956,0.0,0.0,0.0,44.88666534423828,7.089164733886719,2.4103782176971436,-8124.57568359375,0
1206.0480000000007,0.042119815945625305,-0.006954030133783817,0.0006099254824221134,0.0,0.0,0.0,0.0,0.0011366006219759583,-0.0018700563814491034,0.00047883045044727623,1.0001654624938965,0.0,0.0,0.0,44.84212875366211,7.085436820983887,2.4075186252593994,-8116.51416015625,0
1215.9390000000003,0.04211154207587242,-0.006967761088162661,0.0005968539044260979,0.0,0.0,0.0,0.0,0.00019130481814499944,-0.0009726655553095043,0.0015813839854672551,1.0000642538070679,0.0,0.0,0.0,44.85893249511719,7.082400321960449,2.412421226501465,-8119.55615234375,0
1225.8310000000001,0.04217950999736786,-0.006994778756052256,0.0005877477815374732,0.0,0.0,0.0,0.0,0.0010883209761232138,0.002722619567066431,7.974001346156001e-05,1.0005375146865845,0.0,0.0,0.0,44.81493377685547,7.076778888702393,2.4093410968780518,-8111.5927734375,0
1235.7070000000003,0.042156171053647995,-0.0070013245567679405,0.0005746580427512527,0.0,0.0,0.0,0.0,-0.0005990733625367284,0.0011177967535331845,-0.002321155508980155,0.9989691972732544,0.0,0.0,0.0,44.83688735961914,7.0836501121521,2.3951468467712402,-8115.56640625,0
1245.6000000000004,0.042221397161483765,-0.00702801113948226,0.000565942726098001,0.0,0.0,0.0,0.0,0.004572787322103977,0.0027839350514113903,0.0006114954594522715,0.9986098408699036,0.0,0.0,0.0,44.79210662841797,7.079356670379639,2.3841280937194824,-8107.4599609375,0
1255.4850000000006,0.042152807116508484,-0.006975635886192322,0.0005747450049966574,0.0,0.0,0.0,0.0,0.001653363578952849,-0.0004261955327820033,0.004085170570760965,1.0019378662109375,0.0,0.0,0.0,44.81359100341797,7.111079692840576,2.3801159858703613,-8111.34912109375,0
1265.362000000001,0.042213525623083115,-0.006996140815317631,0.0005680957110598683,0.0,0.0,0.0,0.0,-0.0036967331543564796,0.0038963817059993744,-0.003210224909707904,1.0004225969314575,0.0,0.0,0.0,44.7712287902832,7.0990166664123535,2.3802332878112793,-8103.68115234375,0
1275.2580000000016,0.04219917207956314,-0.006980434060096741,0.0005483529530465603,0.0,0.0,0.0,0.0,0.0020994257647544146,-0.0006592792924493551,0.001306141261011362,0.9979113936424255,0.0,0.0,0.0,44.79239273071289,7.123900890350342,2.3636040687561035,-8107.51220703125,0
1285.139000000001,0.042257390916347504,-0.00699859531596303,0.0005420136149041355,0.0,0.0,0.0,0.0,-0.002157074399292469,-0.00030203236383385956,-0.0006526272627525032,1.002830147743225,0.0,0.0,0.0,44.749366760253906,7.112224102020264,2.352861166000366,-8099.72412109375,0
1295.0380000000005,0.04224730655550957,-0.006970991846174002,0.0005228942027315497,0.0,0.0,0.0,0.0,-0.001391059486195445,-0.004168268293142319,0.00238957442343235,1.000082015991211,0.0,0.0,0.0,44.76921463012695,7.143548965454102,2.3460745811462402,-8103.31640625,0
1304.9140000000007,0.042299535125494,-0.006986476015299559,0.0005186923081055284,0.0,0.0,0.0,0.0,-0.0011567282490432262,-0.003487568348646164,0.0019705076701939106,1.0011513233184814,0.0,0.0,0.0,44.72523880004883,7.138710975646973,2.3454220294952393,-8095.357421875,0
1314.7970000000005,0.042259927839040756,-0.0069224718026816845,0.0005002988618798554,0.0,0.0,0.0,0.0,0.00014902600378263742,-0.0027603311464190483,-0.0009771262994036078,0.9999268651008606,0.0,0.0,0.0,44.746551513671875,7.189220428466797,2.3366458415985107,-8099.21533203125,0
1324.6780000000017,0.04230319708585739,-0.006935098674148321,0.0004976202035322785,0.0,0.0,0.0,0.0,-0.0030215238220989704,0.005986514501273632,0.0037604081444442272,0.9994528293609619,0.0,0.0,0.0,44.70228958129883,7.184591293334961,2.332930326461792,-8091.20361328125,0
1334.5650000000005,0.042276836931705475,-0.006902981083840132,0.0004569993179757148,0.0,0.0,0.0,0.0,-0.0029701923485845327,-0.004856535699218512,0.0011111648054793477,0.9981895089149475,0.0,0.0,0.0,44.7319221496582,7.221532821655273,2.307905435562134,-8096.5673828125,0
1344.4620000000014,0.04230082780122757,-0.006913516670465469,0.0006147582898847759,0.0,0.0,0.0,0.0,-0.002426453633233905,-0.0026936298236250877,0.0003297220973763615,0.9992184638977051,0.0,0.0,0.0,44.77607727050781,7.224178791046143,2.3250482082366943,-8104.55859375,0
1354.3380000000016,0.04206564277410507,-0.0068193040788173676,0.000594134908169508,0.0,0.0,0.0,0.0,0.002011088188737631,0.00449745636433363,-0.003068353049457073,1.0005756616592407,0.0,0.0,0.0,44.79633712768555,7.244903087615967,2.327428102493286,-8108.22607421875,0
1364.2170000000006,0.04209696874022484,-0.006827143020927906,0.0005943697760812938,0.0,0.0,0.0,0.0,-0.0030282745137810707,-0.010205995291471481,0.003130177268758416,0.9988294243812561,0.0,0.0,0.0,44.752288818359375,7.2339677810668945,2.3107919692993164,-8100.2529296875,0
1374.1110000000008,0.04196396470069885,-0.00680159404873848,0.0005983207956887782,0.0,0.0,0.0,0.0,0.002195372711867094,-0.0010181423276662827,0.0006947066867724061,0.9988376498222351,0.0,0.0,0.0,44.776329040527344,7.240362644195557,2.3297226428985596,-8104.60498046875,0
1383.991,0.041980791836977005,-0.0067765736021101475,0.0006667815614491701,0.0,0.0,0.0,0.0,0.0012773703783750534,-0.004389403387904167,-0.002663664985448122,0.9973386526107788,0.0,0.0,0.0,44.820369720458984,7.234114646911621,2.3344812393188477,-8112.576171875,0
1393.8860000000004,0.04193231463432312,-0.006782268173992634,0.0006666135741397738,0.0,0.0,0.0,0.0,0.0017181828152388334,-0.0005947400932200253,0.0025238182861357927,0.9996783137321472,0.0,0.0,0.0,44.8346061706543,7.224165916442871,2.3375110626220703,-8115.1533203125,0
1403.7720000000008,0.04196463152766228,-0.006797919049859047,0.0006668925052508712,0.0,0.0,0.0,0.0,7.362578617176041e-05,0.0007135162595659494,-0.0010874103754758835,1.0006128549575806,0.0,0.0,0.0,44.792110443115234,7.216664791107178,2.338575839996338,-8107.4609375,0
1413.6510000000017,0.04198332130908966,-0.0068190679885447025,0.0006694924086332321,0.0,0.0,0.0,0.0,0.0008334581507369876,0.0013132421299815178,0.0014036595821380615,0.9990382194519043,0.0,0.0,0.0,44.808876037597656,7.202295780181885,2.3424456119537354,-8110.49609375,0
1423.5350000000017,0.042051978409290314,-0.006759545300155878,0.0006431913352571428,0.0,0.0,0.0,0.0,0.002927245106548071,-0.0010802234755828977,-0.0009253465686924756,0.9991280436515808,0.0,0.0,0.0,44.85163497924805,7.193089962005615,2.341614246368408,-8118.2353515625,0
1433.424000000001,0.04204138368368149,-0.006797244306653738,0.0006336328224278986,0.0,0.0,0.0,0.0,-0.001500572427175939,-0.0022943192161619663,-0.0008716025040484965,0.9981355667114258,0.0,0.0,0.0,44.863624572753906,7.169689655303955,2.344900369644165,-8120.4052734375,0
1443.3060000000005,0.04209732636809349,-0.00675854692235589,0.0006268903962336481,0.0,0.0,0.0,0.0,-0.0005733880680054426,-0.0006799396360293031,0.002780738053843379,0.9994357228279114,0.0,0.0,0.0,44.9030647277832,7.164883613586426,2.3637561798095703,-8127.5439453125,0
1453.1970000000001,0.04209982976317406,-0.006830904632806778,0.0006033119279891253,0.0,0.0,0.0,0.0,-0.0025908539537340403,-0.00319095142185688,0.00039149378426373005,0.9974482655525208,0.0,0.0,0.0,44.916709899902344,7.147150993347168,2.370854377746582,-8130.013671875,0
1463.0790000000015,0.04214225709438324,-0.006849623750895262,0.0005958749679848552,0.0,0.0,0.0,0.0,0.000740394985768944,-0.0004792736144736409,0.002589710522443056,0.996882438659668,0.0,0.0,0.0,44.872562408447266,7.147697925567627,2.3806746006011963,-8122.02294921875,0
1472.9620000000014,0.04209022596478462,-0.006847729440778494,0.0005855129566043615,0.0,0.0,0.0,0.0,0.001446426147595048,-0.001994161633774638,0.0008621382294222713,0.9977192878723145,0.0,0.0,0.0,44.88557815551758,7.139830112457275,2.388381004333496,-8124.37890625,0
1482.8450000000012,0.04213439300656319,-0.006869242060929537,0.0005733348662033677,0.0,0.0,0.0,0.0,0.0008078915998339653,-0.0056837755255401134,-0.0011230161180719733,0.9997851848602295,0.0,0.0,0.0,44.84189224243164,7.131746768951416,2.3863351345062256,-8116.4716796875,0
1492.7330000000002,0.04210130497813225,-0.006897912826389074,0.0005500874831341207,0.0,0.0,0.0,0.0,0.0018742382526397705,0.0024458211846649647,0.00241684727370739,1.000972867012024,0.0,0.0,0.0,44.85613250732422,7.119683265686035,2.399979829788208,-8119.048828125,0
1502.6170000000002,0.04211094602942467,-0.006922038272023201,0.0006276494241319597,0.0,0.0,0.0,0.0,-0.0003455293190199882,-0.004389818292111158,0.003799769328907132,0.999196469783783,0.0,0.0,0.0,44.890010833740234,7.111821174621582,2.39316463470459,-8125.18115234375,0
1512.5060000000012,0.04207702353596687,-0.006943029351532459,0.0006182744400575757,0.0,0.0,0.0,0.0,0.001989461248740554,0.0006807895842939615,-0.0014252751134335995,1.0009477138519287,0.0,0.0,0.0,44.90489196777344,7.100857257843018,2.3958687782287598,-8127.875,0
1522.3960000000006,0.042160749435424805,-0.006860486697405577,0.0006004899041727185,0.0,0.0,0.0,0.0,-0.0004291356890462339,0.00400362815707922,0.000595466757658869,0.9997189044952393,0.0,0.0,0.0,44.94178771972656,7.098820686340332,2.410388469696045,-8134.55322265625,0
1532.2740000000013,0.042100369930267334,-0.006873490288853645,0.0005812030285596848,0.0,0.0,0.0,0.0,0.002543465467169881,-0.00304915988817811,-6.521342584164813e-05,1.0006234645843506,0.0,0.0,0.0,44.95178985595703,7.090662479400635,2.4022340774536133,-8136.36376953125,0
1542.1600000000017,0.04215509444475174,-0.006830990314483643,0.0006022081943228841,0.0,0.0,0.0,0.0,0.0010682716965675354,-0.005467498674988747,-0.0012485323240980506,0.9974865317344666,0.0,0.0,0.0,44.97760772705078,7.0832743644714355,2.4045000076293945,-8141.03662109375,0
1552.0380000000005,0.04210639372467995,-0.006832839921116829,0.0005919304676353931,0.0,0.0,0.0,0.0,-0.0010782936587929726,-0.0006675867480225861,0.0013543652603402734,0.998757541179657,0.0,0.0,0.0,44.98313903808594,7.067844390869141,2.4092018604278564,-8142.03759765625,0
1561.934000000001,0.04215644299983978,-0.0068131787702441216,0.0006058167200535536,0.0,0.0,0.0,0.0,0.0011320830089971423,0.0003322179545648396,-0.0021487900521606207,0.9984837174415588,0.0,0.0,0.0,45.013370513916016,7.059114933013916,2.413255453109741,-8147.50927734375,0
1571.8120000000017,0.042093534022569656,-0.0068290093913674355,0.0005830047884956002,0.0,0.0,0.0,0.0,-0.0011728855315595865,0.003496542340144515,0.0045362915843725204,0.9977113008499146,0.0,0.0,0.0,45.01604080200195,7.05095100402832,2.406256914138794,-8147.99267578125,0
1581.7090000000007,0.04214560613036156,-0.006860201712697744,0.0005728673422709107,0.0,0.0,0.0,0.0,-0.000959083903580904,0.003528160974383354,-0.004966518376022577,0.9987969398498535,0.0,0.0,0.0,44.97294998168945,7.047016143798828,2.3943469524383545,-8140.19384765625,0
1591.5880000000016,0.04200325161218643,-0.0068484703078866005,0.0005566250765696168,0.0,0.0,0.0,0.0,0.0011569357011467218,-0.0006935786223039031,0.0016791761154308915,0.9982950091362,0.0,0.0,0.0,44.97644805908203,7.047844886779785,2.3780860900878906,-8140.82666015625,0
1601.4760000000006,0.04205349460244179,-0.006882408168166876,0.0005435897619463503,0.0,0.0,0.0,0.0,-0.0007576283533126116,0.0017821352230384946,0.0016360802110284567,0.9985454678535461,0.0,0.0,0.0,44.932708740234375,7.038719654083252,2.37630295753479,-8132.90966796875,0
1611.3540000000012,0.042040955275297165,-0.006879829335957766,0.0005434244521893561,0.0,0.0,0.0,0.0,-0.0006009346107020974,-0.001068339915946126,0.0010278349509462714,0.997291624546051,0.0,0.0,0.0,44.94237518310547,7.028909683227539,2.378100633621216,-8134.65966796875,0
1621.2480000000014,0.04209493473172188,-0.006914149038493633,0.0005281965713948011,0.0,0.0,0.0,0.0,0.0032185944728553295,0.00037386667099781334,0.0005372607847675681,0.9998636841773987,0.0,0.0,0.0,44.899169921875,7.017496585845947,2.373425245285034,-8126.83935546875,0
1631.1240000000016,0.04205155000090599,-0.006907919887453318,0.0005274650175124407,0.0,0.0,0.0,0.0,-0.0012604141375049949,-0.0031728867907077074,0.00047282324521802366,0.9985731840133667,0.0,0.0,0.0,44.91067886352539,7.013793468475342,2.373994827270508,-8128.921875,0
1641.0220000000008,0.04212808981537819,-0.006850781384855509,0.0005239035235717893,0.0,0.0,0.0,0.0,0.00011668322986224666,-0.0049820649437606335,-4.5413551561068743e-05,0.9994993805885315,0.0,0.0,0.0,44.94622039794922,7.02203369140625,2.400958776473999,-8135.35546875,0
1650.8960000000006,0.042063456028699875,-0.006828357465565205,0.000522908172570169,0.0,0.0,0.0,0.0,-0.0001645778102101758,-0.0016833716072142124,-0.00030176990549080074,0.997126579284668,0.0,0.0,0.0,44.95429992675781,7.023125648498535,2.410827159881592,-8136.8173828125,0
1660.7940000000017,0.04212087020277977,-0.006860965397208929,0.0005074805812910199,0.0,0.0,0.0,0.0,-0.0010501118376851082,-0.0014620204456150532,0.0015874580712988973,0.998918890953064,0.0,0.0,0.0,44.909934997558594,7.021097183227539,2.4111993312835693,-8128.78759765625,0
1670.6730000000007,0.042069632560014725,-0.006847371347248554,0.0005089145852252841,0.0,0.0,0.0,0.0,-0.0011165610048919916,-0.002552589401602745,-0.0007564110564999282,1.0005741119384766,0.0,0.0,0.0,44.9195671081543,7.025410175323486,2.423532724380493,-8130.53125,0
1680.5620000000017,0.04213198274374008,-0.006820865906774998,0.0005216784775257111,0.0,0.0,0.0,0.0,-0.002344992011785507,-0.0004213871725369245,0.0010498790070414543,0.999971330165863,0.0,0.0,0.0,44.95274353027344,7.021128177642822,2.433328628540039,-8136.5361328125,0
1690.4400000000005,0.04210250824689865,-0.0068353614769876,0.0005118304397910833,0.0,0.0,0.0,0.0,0.0014416335616260767,-0.0009616242023184896,-0.000798165681771934,0.9994993209838867,0.0,0.0,0.0,44.95828628540039,7.012937068939209,2.434962511062622,-8137.5390625,0
1700.3380000000016,0.042162902653217316,-0.006872940808534622,0.0004991517052985728,0.0,0.0,0.0,0.0,-0.0007330833468586206,-0.002720537595450878,0.0004997326759621501,1.0015827417373657,0.0,0.0,0.0,44.91416549682617,7.005155563354492,2.4352900981903076,-8129.55322265625,0
1710.210000000001,0.042124103754758835,-0.006902092602103949,0.00048292960855178535,0.0,0.0,0.0,0.0,-5.5282718676608056e-05,-0.00013648506137542427,0.0005882756086066365,1.000389575958252,0.0,0.0,0.0,44.92594909667969,7.002091884613037,2.4524731636047363,-8131.68603515625,0
1720.1040000000012,0.04218791425228119,-0.0069427285343408585,0.00047171927872113883,0.0,0.0,0.0,0.0,-0.0034820749424397945,-0.008026822470128536,-0.0009693806641735137,0.9976756572723389,0.0,0.0,0.0,44.88327407836914,6.998115062713623,2.4544780254364014,-8123.96240234375,0
1729.982,0.04213893786072731,-0.006972139701247215,0.00045911275083199143,0.0,0.0,0.0,0.0,-0.0011252916883677244,0.0063895126804709435,-0.0011048708111047745,0.999966025352478,0.0,0.0,0.0,44.894405364990234,7.000348091125488,2.454537868499756,-8125.9765625,0
1739.8760000000002,0.04221363738179207,-0.006921874824911356,0.0004906213725917041,0.0,0.0,0.0,0.0,-0.0016328728524968028,-0.004466529469937086,-0.001038711634464562,0.9996477961540222,0.0,0.0,0.0,44.9305305480957,7.0024895668029785,2.4545867443084717,-8132.51513671875,0
1749.7520000000004,0.042135752737522125,-0.006927849259227514,0.00047130329767242074,0.0,0.0,0.0,0.0,-0.00029999969410710037,-0.001621187780983746,0.0015462618321180344,1.000849723815918,0.0,0.0,0.0,44.9412841796875,6.99993371963501,2.464433431625366,-8134.4619140625,0
1759.6490000000013,0.042158596217632294,-0.0069692013785243034,0.000556062557734549,0.0,0.0,0.0,0.0,-0.001232097507454455,-0.0004916834295727313,-0.00039709522388875484,0.9992461204528809,0.0,0.0,0.0,44.97505569458008,6.987597942352295,2.462860107421875,-8140.57421875,0
1769.5240000000013,0.04215991124510765,-0.0069613405503332615,0.0005782138905487955,0.0,0.0,0.0,0.0,0.0010069480631500483,-0.0001733070967020467,0.0022664321586489677,1.0007822513580322,0.0,0.0,0.0,44.979156494140625,6.980965614318848,2.4690451622009277,-8141.31689453125,0
1779.4180000000015,0.042200494557619095,-0.006980224512517452,0.0006411921931430697,0.0,0.0,0.0,0.0,-0.000788373698014766,0.00414239102974534,0.0010114801116287708,1.0002974271774292,0.0,0.0,0.0,45.00634765625,6.977525234222412,2.4592206478118896,-8146.23779296875,0
1789.2980000000007,0.04209442436695099,-0.006972841918468475,0.0006300735403783619,0.0,0.0,0.0,0.0,-0.003910415340214968,0.0035452803131192923,0.0007941941148601472,1.0008463859558105,0.0,0.0,0.0,45.01329803466797,6.978348731994629,2.4398818016052246,-8147.49609375,0
1799.1870000000017,0.042164579033851624,-0.007013917900621891,0.000633572693914175,0.0,0.0,0.0,0.0,1.847248677222524e-05,-0.000224630581215024,-0.0031658487860113382,1.0010651350021362,0.0,0.0,0.0,44.96949768066406,6.979341506958008,2.4229254722595215,-8139.568359375,0
1809.067000000001,0.042083658277988434,-0.006983357015997171,0.0006531759863719344,0.0,0.0,0.0,0.0,0.0024485380854457617,0.002553745871409774,-0.004571136552840471,1.0007325410842896,0.0,0.0,0.0,44.97321701049805,6.992517471313477,2.4168827533721924,-8140.24169921875,0
1818.9630000000016,0.042155347764492035,-0.00702305231243372,0.0006600302876904607,0.0,0.0,0.0,0.0,-0.000704967649653554,-0.002493058331310749,0.0036373722832649946,1.0002845525741577,0.0,0.0,0.0,44.92715835571289,6.981569766998291,2.4069268703460693,-8131.9052734375,0
1828.8390000000018,0.042060550302267075,-0.007001917809247971,0.0006840228452347219,0.0,0.0,0.0,0.0,2.635141572682187e-05,0.0025563540402799845,0.0009458725107833743,0.9969311952590942,0.0,0.0,0.0,44.94057846069336,6.994284629821777,2.42010760307312,-8134.33447265625,0
1838.7270000000008,0.04213912785053253,-0.006979804486036301,0.0007124776020646095,0.0,0.0,0.0,0.0,0.0024505534674972296,0.0034686941653490067,0.0025435658171772957,0.9992949366569519,0.0,0.0,0.0,44.96986770629883,6.98660135269165,2.4247608184814453,-8139.6357421875,0
1848.6130000000012,0.04199596866965294,-0.006961440667510033,0.0006956545985303819,0.0,0.0,0.0,0.0,-0.00014018765068612993,-0.006670287344604731,-0.00014535246009472758,1.0012496709823608,0.0,0.0,0.0,44.977325439453125,6.990263938903809,2.412407159805298,-8140.9853515625,0
1858.5010000000002,0.04208818078041077,-0.006898066960275173,0.0007199709070846438,0.0,0.0,0.0,0.0,0.001644033007323742,0.001468172180466354,-0.0009168240358121693,1.0024073123931885,0.0,0.0,0.0,45.006072998046875,6.995135307312012,2.442627191543579,-8146.1884765625,0
1868.3850000000002,0.04204875975847244,-0.006891626864671707,0.0007386575452983379,0.0,0.0,0.0,0.0,-0.0019383446779102087,-0.00012245243124198169,0.0030551464296877384,1.0016577243804932,0.0,0.0,0.0,45.0104866027832,6.981980323791504,2.439819097518921,-8146.9873046875,0
1878.2750000000015,0.042126718908548355,-0.006866424344480038,0.0007812739931978285,0.0,0.0,0.0,0.0,-3.162409120704979e-05,0.003735471749678254,0.00040803878800943494,0.9957950711250305,0.0,0.0,0.0,45.03902816772461,6.979369163513184,2.4448866844177246,-8152.15380859375,0
1888.1550000000007,0.04208994284272194,-0.006897463463246822,0.0007748833741061389,0.0,0.0,0.0,0.0,-0.0024682688526809216,-0.004634147975593805,-0.001686536124907434,0.9971383213996887,0.0,0.0,0.0,45.040714263916016,6.969544410705566,2.432302951812744,-8152.45849609375,0
1898.0440000000017,0.04220791906118393,-0.0068478151224553585,0.0007662225980311632,0.0,0.0,0.0,0.0,0.0001514550094725564,-0.0007704623276367784,0.002430548658594489,0.9982251524925232,0.0,0.0,0.0,45.06637954711914,6.963435649871826,2.441964626312256,-8157.10498046875,0
1907.938,0.04212137311697006,-0.006872201804071665,0.000741137657314539,0.0,0.0,0.0,0.0,0.0008504289435222745,-0.002453081076964736,0.0015383441932499409,0.9978214502334595,0.0,0.0,0.0,45.065006256103516,6.964213848114014,2.4256644248962402,-8156.85595703125,0
1917.813,0.042202796787023544,-0.006915089208632708,0.0007432596175931394,0.0,0.0,0.0,0.0,0.001657456741668284,0.0024445001035928726,0.0003949168894905597,1.0004067420959473,0.0,0.0,0.0,45.02122497558594,6.959592342376709,2.423295021057129,-8148.93115234375,0
1927.6980000000003,0.042126934975385666,-0.0069624632596969604,0.0007247345638461411,0.0,0.0,0.0,0.0,-0.0011726821539923549,-0.0043291435576975346,-0.00015971585526131094,0.997235119342804,0.0,0.0,0.0,45.02595520019531,6.957810401916504,2.404939651489258,-8149.787109375,0
1937.5870000000014,0.04225149750709534,-0.0068979887291789055,0.0007062944350764155,0.0,0.0,0.0,0.0,-0.0006916852435097098,0.0007520715007558465,-0.002095396164804697,0.998335063457489,0.0,0.0,0.0,45.052215576171875,6.9627909660339355,2.432610034942627,-8154.54150390625,0
1947.4700000000012,0.04210629314184189,-0.006848187651485205,0.0006909786025062203,0.0,0.0,0.0,0.0,-0.001025327481329441,0.0010957675985991955,-0.0015205822419375181,0.998412013053894,0.0,0.0,0.0,45.053489685058594,6.975775718688965,2.4326484203338623,-8154.771484375,0
1957.3560000000016,0.042191147804260254,-0.006887288764119148,0.0006850673817098141,0.0,0.0,0.0,0.0,0.00041875505121424794,0.0018648530822247267,-0.0009703486575745046,1.0008190870285034,0.0,0.0,0.0,45.009639739990234,6.97177791595459,2.424717664718628,-8146.833984375,0
1967.241,0.04205621778964996,-0.006884912494570017,0.0006708469009026885,0.0,0.0,0.0,0.0,-8.724994404474273e-05,0.0014456701464951038,0.0030653600115329027,0.9995812177658081,0.0,0.0,0.0,45.014244079589844,6.97958517074585,2.404437303543091,-8147.66748046875,0
1977.1260000000002,0.042138248682022095,-0.006923282984644175,0.0006644353270530701,0.0,0.0,0.0,0.0,-0.005432317033410072,-0.003600295167416334,0.0014745440566912293,0.9990816116333008,0.0,0.0,0.0,44.970947265625,6.9751081466674805,2.4023187160491943,-8139.8310546875,0
1987.0110000000004,0.04203317314386368,-0.006954362615942955,0.0006481455639004707,0.0,0.0,0.0,0.0,8.720168989384547e-05,0.002455224981531501,-0.001434118952602148,0.9999504089355469,0.0,0.0,0.0,44.97949981689453,6.988076210021973,2.403273344039917,-8141.37841796875,0
1996.9000000000015,0.042112112045288086,-0.006996988318860531,0.0006403627339750528,0.0,0.0,0.0,0.0,0.0007111321319825947,0.0052580158226192,-0.0024623796343803406,1.0010613203048706,0.0,0.0,0.0,44.935787200927734,6.982962608337402,2.3918867111206055,-8133.466796875,0
2006.7840000000015,0.04213050752878189,-0.006925666239112616,0.000686966348439455,0.0,0.0,0.0,0.0,0.001507268170826137,4.8123714805115014e-05,0.0004850089899264276,0.9992880821228027,0.0,0.0,0.0,45.02050018310547,6.993737697601318,2.4088892936706543,-8148.7998046875,0
2016.67,0.04221028462052345,-0.006965733133256435,0.0006845908937975764,0.0,0.0,0.0,0.0,-0.0011685658246278763,0.00041008825064636767,-0.0032735923305153847,0.999639630317688,0.0,0.0,0.0,44.97616195678711,6.983044147491455,2.404719352722168,-8140.77490234375,0
2026.5530000000017,0.04210720583796501,-0.006973335053771734,0.0006552290869876742,0.0,0.0,0.0,0.0,6.48759669275023e-05,0.0056432378478348255,0.0020082148257642984,0.9995366334915161,0.0,0.0,0.0,44.98192596435547,6.9896039962768555,2.4048619270324707,-8141.81787109375,0
2036.442000000001,0.042194560170173645,-0.006918230559676886,0.0006930025410838425,0.0,0.0,0.0,0.0,0.00024713031598366797,-0.000999363954178989,-0.0020831546280533075,0.997732400894165,0.0,0.0,0.0,45.011962890625,6.992284297943115,2.4003396034240723,-8147.2548828125,0
2046.335000000001,0.042120400816202164,-0.006942045874893665,0.0006637225160375237,0.0,0.0,0.0,0.0,-0.0013288125628605485,-0.0062552853487432,-0.000887371483258903,0.9985561370849609,0.0,0.0,0.0,45.017330169677734,6.988025665283203,2.399855375289917,-8148.22607421875,0
2056.2140000000018,0.04219941422343254,-0.006987352855503559,0.0006575407460331917,0.0,0.0,0.0,0.0,-0.0005479237879626453,-0.005490775685757399,-0.0013005206128582358,0.9995999932289124,0.0,0.0,0.0,44.97372817993164,6.980742931365967,2.405050754547119,-8140.333984375,0
2066.0970000000016,0.04211444407701492,-0.006974662654101849,0.0006594840670004487,0.0,0.0,0.0,0.0,-0.0005624624900519848,-0.0024798570666462183,0.0015943492762744427,0.9984559416770935,0.0,0.0,0.0,44.97884750366211,6.989507675170898,2.412426471710205,-8141.26025390625,0
2075.9840000000004,0.0421900674700737,-0.007020121905952692,0.0006525211501866579,0.0,0.0,0.0,0.0,-0.002567268442362547,-0.0009292689501307905,0.0005796788027510047,0.9982864856719971,0.0,0.0,0.0,44.935428619384766,6.986102104187012,2.4138450622558594,-8133.40185546875,0
2085.8690000000006,0.04209376871585846,-0.007022045087069273,0.0006538601592183113,0.0,0.0,0.0,0.0,0.0018662676448002458,-0.0007791393436491489,-2.0948109522578306e-05,0.9996268153190613,0.0,0.0,0.0,44.94393539428711,7.000914096832275,2.416893243789673,-8134.94189453125,0
2095.755000000001,0.04216812551021576,-0.007009686902165413,0.0006811196799390018,0.0,0.0,0.0,0.0,0.00027904502348974347,-0.005050315521657467,0.0020598212722688913,0.9989135265350342,0.0,0.0,0.0,44.97433090209961,6.996811389923096,2.420848846435547,-8140.443359375,0
2105.6460000000006,0.04200311377644539,-0.006901202257722616,0.0006840669666416943,0.0,0.0,0.0,0.0,0.00011573713709367439,0.007345128338783979,-0.00319878407754004,0.9993621110916138,0.0,0.0,0.0,45.05453109741211,7.0154008865356445,2.4334912300109863,-8154.95947265625,0
2115.5330000000013,0.04207118973135948,-0.006942950189113617,0.0006782752461731434,0.0,0.0,0.0,0.0,0.0005632709944620728,0.0038478916976600885,-0.00013905929517932236,0.9978536367416382,0.0,0.0,0.0,45.009559631347656,7.011013031005859,2.4150736331939697,-8146.8203125,0
2125.415000000001,0.04205523431301117,-0.006956704892218113,0.0006783356657251716,0.0,0.0,0.0,0.0,0.0012586748925969005,-0.0055627720430493355,-0.002806100295856595,0.9990472793579102,0.0,0.0,0.0,45.01367950439453,6.998657703399658,2.415710210800171,-8147.56494140625,0
2135.304,0.042138729244470596,-0.006908835377544165,0.0007017875905148685,0.0,0.0,0.0,0.0,-0.0013783033937215805,-0.0010026544332504272,0.00048464976134710014,1.003283977508545,0.0,0.0,0.0,45.042598724365234,6.99379825592041,2.4373958110809326,-8152.7998046875,0
2145.1910000000007,0.04209640249609947,-0.006922926288098097,0.0006916921120136976,0.0,0.0,0.0,0.0,-0.0035995326470583677,0.0005244379281066358,-0.0016275309026241302,1.0016515254974365,0.0,0.0,0.0,45.04542922973633,6.989282131195068,2.4463107585906982,-8153.31201171875,0
2155.0710000000017,0.04217129200696945,-0.006966948509216309,0.0006900198059156537,0.0,0.0,0.0,0.0,-0.0005701134796254337,-0.005105665884912014,0.0027469180058687925,0.9980638027191162,0.0,0.0,0.0,45.001007080078125,6.98532247543335,2.444448471069336,-8145.271484375,0
2164.9570000000003,0.04215015843510628,-0.006878249812871218,0.0006616006721742451,0.0,0.0,0.0,0.0,-0.0007752015953883529,0.007092812564224005,0.001528461347334087,0.9978241324424744,0.0,0.0,0.0,45.07861328125,6.985672473907471,2.4702296257019043,-8159.318359375,0
2174.845000000001,0.04222790524363518,-0.006919005420058966,0.0006563394563272595,0.0,0.0,0.0,0.0,2.0078168745385483e-06,0.000506203155964613,-0.0009477955754846334,0.999089241027832,0.0,0.0,0.0,45.03478240966797,6.983274459838867,2.4515035152435303,-8151.384765625,0
2184.729000000001,0.04215098172426224,-0.006849910598248243,0.0006323549314402044,0.0,0.0,0.0,0.0,0.000505934760440141,0.004663548432290554,-0.0027797985821962357,0.9992316365242004,0.0,0.0,0.0,45.1079216003418,6.985873222351074,2.462374210357666,-8164.62353515625,0
2194.616,0.04223008081316948,-0.0068888296373188496,0.0006246969569474459,0.0,0.0,0.0,0.0,-0.0010080793872475624,-0.0004325805348344147,0.00020744730136357248,0.9978910684585571,0.0,0.0,0.0,45.06391906738281,6.978388786315918,2.4466257095336914,-8156.6591796875,0
2204.4990000000016,0.0421462319791317,-0.006881390698254108,0.0006007156916894019,0.0,0.0,0.0,0.0,-1.587243787071202e-05,-0.0033564288169145584,0.0015476216794922948,0.9992755651473999,0.0,0.0,0.0,45.06617736816406,6.980814456939697,2.439316987991333,-8157.06787109375,0
2214.389000000001,0.042225081473588943,-0.006921717897057533,0.0005896732909604907,0.0,0.0,0.0,0.0,0.0058955480344593525,0.00037148239789530635,0.0009363567805849016,0.998123824596405,0.0,0.0,0.0,45.022274017333984,6.978244781494141,2.4458229541778564,-8149.12158203125,0
