timestamp,stateEstimate.x,stateEstimate.y,stateEstimate.z,controller.cmd_thrust,controller.cmd_roll,controller.cmd_pitch,controller.cmd_yaw,controller.r_roll,controller.r_pitch,controller.r_yaw,controller.accelz,controller.actuatorThrust,controller.roll,controller.pitch,controller.yaw,controller.rollRate,controller.pitchRate,controller.yawRate,controller.ctr_yaw
0.0,0.028503747656941414,-0.008984296582639217,2.857695653801784e-05,0.0,0.0,0.0,0.0,0.00230995356105268,-0.005604565143585205,-0.0025103515945374966,0.9980626106262207,0.0,0.0,0.0,18.6219539642334,7.809700965881348,-0.15984877943992615,-3370.61083984375,0
9.876000000000204,0.028370345011353493,-0.008940329775214195,2.6900641387328506e-05,0.0,0.0,0.0,0.0,-0.001191998366266489,-0.0019216601504012942,0.0020938573870807886,0.9995761513710022,0.0,0.0,0.0,18.59589958190918,7.821490287780762,-0.17301948368549347,-3365.894775390625,0
19.77599999999984,0.028410140424966812,-0.008958239108324051,8.202446042560041e-05,0.0,0.0,0.0,0.0,0.0012112668482586741,0.0028381620068103075,0.00072141969576478,1.0008938312530518,0.0,0.0,0.0,18.624048233032227,7.820564270019531,-0.162568598985672,-3370.989990234375,0
29.645000000000437,0.02829512394964695,-0.008921441622078419,8.08512486401014e-05,0.0,0.0,0.0,0.0,0.002420000731945038,0.0001430163683835417,-0.003400515764951706,0.9986730217933655,0.0,0.0,0.0,18.60475730895996,7.806596755981445,-0.1678546965122223,-3367.498046875,0
39.53900000000067,0.028355363756418228,-0.008924609050154686,0.00010785913764266297,0.0,0.0,0.0,0.0,-0.0009254044271074235,0.002439250238239765,0.0011933669447898865,1.0007864236831665,0.0,0.0,0.0,18.634252548217773,7.8038530349731445,-0.16430458426475525,-3372.8369140625,0
49.41599999999926,0.028267065063118935,-0.008904066868126392,0.0001100842491723597,0.0,0.0,0.0,0.0,-0.0033727288246154785,-0.004178464878350496,-0.0016870833933353424,1.0010050535202026,0.0,0.0,0.0,18.615680694580078,7.796635627746582,-0.17220036685466766,-3369.47509765625,0
59.30999999999949,0.02833031676709652,-0.008903183974325657,0.0001317743444815278,0.0,0.0,0.0,0.0,-0.0008060889085754752,0.0031771166250109673,-0.0027031321078538895,1.001326322555542,0.0,0.0,0.0,18.64061737060547,7.801680088043213,-0.15576426684856415,-3373.989013671875,0
69.1880000000001,0.0283843744546175,-0.00895780697464943,0.00014626234769821167,0.0,0.0,0.0,0.0,-0.0013990086736157537,0.0032459734939038754,-0.0010781920282170177,1.0002830028533936,0.0,0.0,0.0,18.621646881103516,7.796813488006592,-0.15552981197834015,-3370.555419921875,0
79.08499999999913,0.02846747264266014,-0.008945304900407791,0.00014955767255742103,0.0,0.0,0.0,0.0,-0.0003550211840774864,-0.002494469750672579,0.0006400659331120551,0.9999793767929077,0.0,0.0,0.0,18.638587951660156,7.801834583282471,-0.15206091105937958,-3373.621826171875,0
88.95900000000074,0.02833552658557892,-0.008910639211535454,0.00012659917410928756,0.0,0.0,0.0,0.0,-0.0018981387838721275,0.0025870068930089474,-0.00024248100817203522,1.0001740455627441,0.0,0.0,0.0,18.619720458984375,7.790083885192871,-0.15750478208065033,-3370.206298828125,0
98.85200000000077,0.02846786379814148,-0.008826583623886108,8.60198269947432e-05,0.0,0.0,0.0,0.0,0.0026713458355516195,0.0018777298973873258,-0.0007970081642270088,1.000370979309082,0.0,0.0,0.0,18.6481990814209,7.798051357269287,-0.1383257508277893,-3375.361083984375,0
108.73300000000017,0.028345096856355667,-0.008849519304931164,4.484654346015304e-05,0.0,0.0,0.0,0.0,0.0008170733344741166,0.0004580492968671024,0.0013154065236449242,0.9997494220733643,0.0,0.0,0.0,18.62970542907715,7.785685062408447,-0.13547848165035248,-3372.013916015625,0
118.625,0.028459986671805382,-0.008780327625572681,2.6442834496265277e-05,0.0,0.0,0.0,0.0,0.0004966722335666418,0.0027406741864979267,-0.004442375153303146,0.9992336630821228,0.0,0.0,0.0,18.648683547973633,7.793225288391113,-0.11957007646560669,-3375.448974609375,0
128.5010000000002,0.0283975787460804,-0.008823212236166,-1.3156982276996132e-06,0.0,0.0,0.0,0.0,-0.00018796444055624306,0.000609938520938158,0.001241837628185749,1.0028624534606934,0.0,0.0,0.0,18.621341705322266,7.792695045471191,-0.13416734337806702,-3370.500244140625,0
138.39500000000044,0.02854306809604168,-0.008711487986147404,-4.62152311229147e-05,0.0,0.0,0.0,0.0,-0.00322313723154366,-0.007209330797195435,6.731360917910933e-05,1.0003117322921753,0.0,0.0,0.0,18.640987396240234,7.806463718414307,-0.1104477196931839,-3374.055908203125,0
148.27200000000084,0.028424082323908806,-0.008746776729822159,-9.429603960597888e-05,0.0,0.0,0.0,0.0,0.0011637193383648992,-0.004677861463278532,0.0018580828327685595,1.00051748752594,0.0,0.0,0.0,18.622068405151367,7.805416584014893,-0.10157062113285065,-3370.631591796875,0
158.16300000000047,0.02853388898074627,-0.00871212687343359,-0.00012650048302020878,0.0,0.0,0.0,0.0,0.0003644870885182172,0.0019443155033513904,-0.0008433280745521188,1.000569462776184,0.0,0.0,0.0,18.64203453063965,7.807732582092285,-0.07727233320474625,-3374.245361328125,0
168.04299999999967,0.028471017256379128,-0.008737207390367985,-0.00015621015336364508,0.0,0.0,0.0,0.0,0.0022221538238227367,-0.0014298437163233757,-0.002002355409786105,0.9993458986282349,0.0,0.0,0.0,18.623313903808594,7.7987847328186035,-0.07998847961425781,-3370.85693359375,0
177.9339999999993,0.02853088267147541,-0.00875098817050457,-0.00013262819265946746,0.0,0.0,0.0,0.0,-6.31205111858435e-05,0.0024408709723502398,0.0014747044770047069,1.0017131567001343,0.0,0.0,0.0,18.639236450195312,7.794097423553467,-0.07807289808988571,-3373.739013671875,0
187.8150000000005,0.028510114178061485,-0.008803960867226124,-0.0001607049343874678,0.0,0.0,0.0,0.0,-0.0008596240077167749,0.0026884570252150297,-0.0021449595224112272,0.9992493391036987,0.0,0.0,0.0,18.621112823486328,7.782797336578369,-0.08655347675085068,-3370.458251953125,0
197.70600000000013,0.028524428606033325,-0.008888086304068565,-9.453653183300048e-05,0.0,0.0,0.0,0.0,-0.001643241848796606,-0.003200843231752515,0.0006737518706358969,0.9999158978462219,0.0,0.0,0.0,18.63872718811035,7.773375511169434,-0.09577519446611404,-3373.646728515625,0
207.58599999999933,0.028467489406466484,-0.008911322802305222,-0.00011415414337534457,0.0,0.0,0.0,0.0,-0.003829854540526867,-0.0021301819942891598,0.004035309888422489,1.0004351139068604,0.0,0.0,0.0,18.627138137817383,7.778250217437744,-0.09976686537265778,-3371.549072265625,0
217.47700000000077,0.028473272919654846,-0.008977830410003662,-2.1490142898983322e-05,0.0,0.0,0.0,0.0,-0.0011192848905920982,-0.0029448396526277065,0.0006780613912269473,1.0016602277755737,0.0,0.0,0.0,18.653615951538086,7.779263496398926,-0.10462412238121033,-3376.341552734375,0
227.35699999999997,0.028397686779499054,-0.008937640115618706,-7.16469730832614e-06,0.0,0.0,0.0,0.0,-0.000472733547212556,0.002458753529936075,-0.00045710665290243924,1.0012837648391724,0.0,0.0,0.0,18.634418487548828,7.771235942840576,-0.1020951047539711,-3372.866943359375,0
355.875,0.028500650078058243,-0.008904035203158855,0.00010919546912191436,0.0,0.0,0.0,0.0,-0.0031751543283462524,-0.00011076976079493761,0.001053525018505752,0.9982014894485474,0.0,0.0,0.0,18.635408401489258,7.804512023925781,-0.06941426545381546,-3373.046142578125,0
365.7569999999996,0.028395267203450203,-0.008913456462323666,9.322747064288706e-05,0.0,0.0,0.0,0.0,0.0008100525592453778,0.0038550780154764652,-0.004954128060489893,0.999052882194519,0.0,0.0,0.0,18.609636306762695,7.820593357086182,-0.07906194776296616,-3368.380859375,0
375.65400000000045,0.02852046862244606,-0.00889408215880394,5.614676410914399e-05,0.0,0.0,0.0,0.0,0.0011980734998360276,-0.003296143375337124,-0.0013885608641430736,0.9980560541152954,0.0,0.0,0.0,18.619958877563477,7.820294380187988,-0.07419923692941666,-3370.24951171875,0
385.52700000000004,0.028393328189849854,-0.008910946547985077,1.839830474636983e-05,0.0,0.0,0.0,0.0,0.0018818096723407507,-0.002665300853550434,0.0006079975864849985,0.9984402656555176,0.0,0.0,0.0,18.60085105895996,7.813985824584961,-0.06512725353240967,-3366.791015625,0
395.41300000000047,0.02850998006761074,-0.008901648223400116,-1.888477345346473e-05,0.0,0.0,0.0,0.0,0.002627270296216011,-0.0033059134148061275,0.0008275496074929833,1.0009773969650269,0.0,0.0,0.0,18.61832046508789,7.816166400909424,-0.04780532792210579,-3369.953369140625,0
405.2980000000007,0.028408268466591835,-0.00889420323073864,-3.850571738439612e-05,0.0,0.0,0.0,0.0,0.0038666408509016037,0.0022710140328854322,0.00239839730784297,1.0002098083496094,0.0,0.0,0.0,18.59221649169922,7.823943138122559,-0.07001949846744537,-3365.227783203125,0
415.1839999999993,0.028476689010858536,-0.008922181092202663,-1.735064506647177e-05,0.0,0.0,0.0,0.0,-0.0022283170837908983,-0.002365914173424244,-0.0017456664936617017,0.9996167421340942,0.0,0.0,0.0,18.612855911254883,7.814234256744385,-0.06699258834123611,-3368.964111328125,0
425.0689999999995,0.028422659263014793,-0.008910492062568665,-1.97049776033964e-05,0.0,0.0,0.0,0.0,-0.00036905836896039546,-0.004012846387922764,-0.0006992440321482718,0.9994083046913147,0.0,0.0,0.0,18.588220596313477,7.828185081481934,-0.07290679961442947,-3364.504638671875,0
434.96199999999953,0.028510592877864838,-0.008900182321667671,-3.868269232043531e-06,0.0,0.0,0.0,0.0,0.0011488464660942554,-0.0017131547210738063,-0.000905750144738704,1.0000284910202026,0.0,0.0,0.0,18.61844825744629,7.8310227394104,-0.04855020344257355,-3369.976318359375,0
444.84000000000015,0.028501182794570923,-0.008974753320217133,-3.498522346490063e-05,0.0,0.0,0.0,0.0,0.0028141560032963753,0.0020597418770194054,0.0008862928953021765,1.0015379190444946,0.0,0.0,0.0,18.608850479125977,7.822472095489502,-0.05743063613772392,-3368.23876953125,0
454.73099999999977,0.028580110520124435,-0.008999806828796864,-1.1797985280281864e-05,0.0,0.0,0.0,0.0,0.0009754421771503985,-0.0022891827393323183,-0.0017594881355762482,1.0012723207473755,0.0,0.0,0.0,18.634164810180664,7.814334869384766,-0.06067970395088196,-3372.821044921875,0
464.61199999999917,0.028541160747408867,-0.008990006521344185,-5.17948683409486e-06,0.0,0.0,0.0,0.0,-0.0005593278910964727,-0.004840699024498463,-0.000748207326978445,1.0010087490081787,0.0,0.0,0.0,18.603984832763672,7.827386379241943,-0.07662524282932281,-3367.3583984375,0
474.4969999999994,0.028620991855859756,-0.0090080127120018,2.866648355848156e-05,0.0,0.0,0.0,0.0,0.002793175633996725,0.006008696276694536,-0.001295002643018961,1.0013102293014526,0.0,0.0,0.0,18.62041664123535,7.830903053283691,-0.059204425662755966,-3370.33251953125,0
484.384,0.02842533029615879,-0.008950567804276943,1.1222722605452873e-05,0.0,0.0,0.0,0.0,-0.002646984299644828,-0.004265017341822386,-0.002636462915688753,1.0013617277145386,0.0,0.0,0.0,18.59318733215332,7.855623245239258,-0.09857814013957977,-3365.403564453125,0
494.27499999999964,0.028528833761811256,-0.008913427591323853,3.088311859755777e-05,0.0,0.0,0.0,0.0,0.0013670437037944794,-0.0026265319902449846,-1.6527204934391193e-05,0.9994329810142517,0.0,0.0,0.0,18.622129440307617,7.865454196929932,-0.07899419963359833,-3370.642578125,0
504.15400000000045,0.028382638469338417,-0.008874395862221718,1.8630402337294072e-05,0.0,0.0,0.0,0.0,-0.0005222759791649878,0.0011404049582779408,0.0018951504025608301,0.9995721578598022,0.0,0.0,0.0,18.603382110595703,7.857158660888672,-0.07067859917879105,-3367.2490234375,0
514.0470000000005,0.028460238128900528,-0.008907224051654339,3.714024933287874e-05,0.0,0.0,0.0,0.0,-0.00017030832532327622,0.00023696452262811363,4.691400317824446e-05,1.000260591506958,0.0,0.0,0.0,18.62607192993164,7.853271961212158,-0.0619550496339798,-3371.35595703125,0
523.9269999999997,0.028386417776346207,-0.008900642395019531,3.477100472082384e-05,0.0,0.0,0.0,0.0,-0.0027359083760529757,-0.004503124859184027,0.0002735423040576279,1.001501202583313,0.0,0.0,0.0,18.602378845214844,7.8590216636657715,-0.081633061170578,-3367.067626953125,0
533.8109999999997,0.028469065204262733,-0.008923875167965889,5.03237679367885e-05,0.0,0.0,0.0,0.0,0.0008616542327217758,-0.0002849667798727751,0.00023167397012002766,0.9998248815536499,0.0,0.0,0.0,18.61983871459961,7.860836029052734,-0.06954976171255112,-3370.22802734375,0
543.6980000000003,0.028370220214128494,-0.008915914222598076,3.869661668431945e-05,0.0,0.0,0.0,0.0,-0.0011719774920493364,0.00142239301931113,-0.002474385779350996,0.999281644821167,0.0,0.0,0.0,18.60774040222168,7.869997978210449,-0.09375888854265213,-3368.0380859375,0
553.5939999999991,0.028456447646021843,-0.008927552960813046,5.6148906878661364e-05,0.0,0.0,0.0,0.0,0.0014896293869242072,0.0041524674743413925,-0.0023505373392254114,0.9992247223854065,0.0,0.0,0.0,18.6248722076416,7.86823034286499,-0.10058629512786865,-3371.138916015625,0
563.4799999999996,0.028533732518553734,-0.008991335518658161,6.504228076664731e-05,0.0,0.0,0.0,0.0,0.0005189714720472693,0.00031417078571394086,0.0008540579583495855,0.9977819323539734,0.0,0.0,0.0,18.605247497558594,7.858185291290283,-0.11682803183794022,-3367.586669921875,0
573.3559999999998,0.0286223404109478,-0.008950820192694664,0.00010335697879781947,0.0,0.0,0.0,0.0,0.0007554865442216396,0.0033784571569412947,1.794316813175101e-05,1.000340461730957,0.0,0.0,0.0,18.634077072143555,7.874358654022217,-0.10775510966777802,-3372.80517578125,0
583.2420000000002,0.028689974918961525,-0.008972152136266232,0.00015449947386514395,0.0,0.0,0.0,0.0,0.0020529513712972403,0.0028111517895013094,-0.0010181475663557649,1.0031245946884155,0.0,0.0,0.0,18.6572208404541,7.873415470123291,-0.11890874803066254,-3376.994384765625,0
593.125,0.028773874044418335,-0.009032608941197395,0.00017009487783070654,0.0,0.0,0.0,0.0,-0.0023843066301196814,0.0027720252983272076,0.0008720573387108743,1.0012478828430176,0.0,0.0,0.0,18.638349533081055,7.863275527954102,-0.13694365322589874,-3373.57861328125,0
603.0169999999998,0.028384312987327576,-0.008873749524354935,3.5419790947344154e-05,0.0,0.0,0.0,0.0,0.0015292445896193385,0.001188762835226953,0.0008529085898771882,1.0004879236221313,0.0,0.0,0.0,18.62148094177246,7.948167324066162,-0.2567795217037201,-3370.525146484375,0
612.8989999999994,0.02845657430589199,-0.008844072930514812,6.422486330848187e-05,0.0,0.0,0.0,0.0,-0.0009844613960012794,5.793861055281013e-05,-0.00017629189824219793,0.9995960593223572,0.0,0.0,0.0,18.65518569946289,7.946371078491211,-0.24925434589385986,-3376.6259765625,0
622.7860000000001,0.028347134590148926,-0.008804144337773323,4.4468404666986316e-05,0.0,0.0,0.0,0.0,0.0010765198385342956,-0.0030481971334666014,-0.00034129450796172023,0.9990153312683105,0.0,0.0,0.0,18.670597076416016,7.942107677459717,-0.23825004696846008,-3379.415283203125,0
632.6669999999995,0.02840038202702999,-0.00885393749922514,5.310409324010834e-05,0.0,0.0,0.0,0.0,-0.0006962625775486231,0.0034007977228611708,0.0024952173698693514,0.9985341429710388,0.0,0.0,0.0,18.652372360229492,7.927470684051514,-0.23829233646392822,-3376.116455078125,0
642.5560000000005,0.0284053236246109,-0.008766338229179382,1.4941708286642097e-05,0.0,0.0,0.0,0.0,0.0016471646958962083,-0.0003871654043905437,-0.0026578069664537907,0.9972682595252991,0.0,0.0,0.0,18.665727615356445,7.942575454711914,-0.2382030487060547,-3378.533935546875,0
652.4400000000005,0.028460320085287094,-0.008816990070044994,1.7528747775941156e-05,0.0,0.0,0.0,0.0,0.0009864188032224774,0.000475077802548185,0.0016525671817362309,0.9986165165901184,0.0,0.0,0.0,18.646379470825195,7.932818412780762,-0.23963803052902222,-3375.03173828125,0
662.3299999999999,0.028406422585248947,-0.008821768686175346,2.120298995578196e-05,0.0,0.0,0.0,0.0,0.006486748345196247,-0.0025580350775271654,-0.000492533145006746,0.9971356391906738,0.0,0.0,0.0,18.67885398864746,7.9374589920043945,-0.24066944420337677,-3380.909912109375,0
672.2109999999993,0.028463812544941902,-0.00887288711965084,2.072073948511388e-05,0.0,0.0,0.0,0.0,0.0017004328547045588,0.0009647828992456198,-0.00039554235991090536,0.998332679271698,0.0,0.0,0.0,18.6600341796875,7.919670104980469,-0.23863092064857483,-3377.50341796875,0
682.0990000000002,0.02839025855064392,-0.00879632867872715,1.0574543921393342e-05,0.0,0.0,0.0,0.0,-0.00026608878397382796,-0.001360217691399157,-0.0019178716465830803,1.0002059936523438,0.0,0.0,0.0,18.6826229095459,7.935050964355469,-0.2412116676568985,-3381.591796875,0
691.9920000000002,0.028448419645428658,-0.008845058269798756,8.13072438177187e-06,0.0,0.0,0.0,0.0,-0.004741758573800325,-0.0019427709048613906,0.001417449675500393,1.002044439315796,0.0,0.0,0.0,18.663759231567383,7.926427841186523,-0.23887495696544647,-3378.177490234375,0
701.8700000000008,0.02840823493897915,-0.008823949843645096,1.74709566636011e-05,0.0,0.0,0.0,0.0,0.0038169350009411573,-0.0034132509026676416,-0.0026399814523756504,1.0015931129455566,0.0,0.0,0.0,18.695514678955078,7.931004524230957,-0.2252046763896942,-3383.92529296875,0
711.7520000000004,0.02846851944923401,-0.008874037303030491,1.9661078113131225e-05,0.0,0.0,0.0,0.0,-0.00021874732919968665,0.0005648673977702856,-0.0010195756331086159,0.9997549653053284,0.0,0.0,0.0,18.676177978515625,7.919508457183838,-0.2206781655550003,-3380.425537109375,0
721.6479999999992,0.0284104086458683,-0.008855991996824741,2.0280922399251722e-05,0.0,0.0,0.0,0.0,0.001988340402022004,-0.0018023597076535225,0.0010532952146604657,0.9977081418037415,0.0,0.0,0.0,18.71102523803711,7.9273223876953125,-0.22768668830394745,-3386.732421875,0
731.5239999999994,0.028470763936638832,-0.00890896562486887,2.1953519535600208e-05,0.0,0.0,0.0,0.0,0.0014903139090165496,0.004366136156022549,0.0004544785479083657,0.9982276558876038,0.0,0.0,0.0,18.692569732666016,7.920234203338623,-0.224842369556427,-3383.392333984375,0
741.4110000000001,0.028401948511600494,-0.008865240029990673,1.7601736544747837e-05,0.0,0.0,0.0,0.0,0.0020919693633913994,0.0005348413251340389,0.0031463480554521084,1.0004886388778687,0.0,0.0,0.0,18.69853401184082,7.927822589874268,-0.2402237206697464,-3384.4716796875,0
751.2980000000007,0.028460819274187088,-0.008918605744838715,1.7033746189554222e-05,0.0,0.0,0.0,0.0,0.0024584040511399508,-0.004163761623203754,0.003985228948295116,0.9991738200187683,0.0,0.0,0.0,18.68117332458496,7.916952133178711,-0.2566325068473816,-3381.329345703125,0
761.1900000000005,0.02844051830470562,-0.008814940229058266,3.9370796002913266e-05,0.0,0.0,0.0,0.0,-0.0013813491677865386,0.0013366942293941975,-0.0005738777690567076,1.0001550912857056,0.0,0.0,0.0,18.7012996673584,7.927884578704834,-0.2576299011707306,-3384.972412109375,0
771.0669999999991,0.028499530628323555,-0.008866890333592892,4.1330822568852454e-05,0.0,0.0,0.0,0.0,-0.0006266854470595717,0.002526227617636323,-0.002988644875586033,1.0007370710372925,0.0,0.0,0.0,18.68238067626953,7.918838024139404,-0.2749904692173004,-3381.5478515625,0
780.9539999999997,0.02846263162791729,-0.008764196187257767,1.3949392041467945e-06,0.0,0.0,0.0,0.0,0.00048534342204220593,-0.002651706337928772,-0.0010849180398508906,1.0000354051589966,0.0,0.0,0.0,18.698875427246094,7.928274631500244,-0.2698189318180084,-3384.53369140625,0
790.8379999999997,0.028521759435534477,-0.008814874105155468,1.7972123487197678e-06,0.0,0.0,0.0,0.0,-0.0006143219070509076,0.0029588639736175537,-0.0023564824368804693,0.9983565807342529,0.0,0.0,0.0,18.68032455444336,7.922773838043213,-0.2657787799835205,-3381.176025390625,0
800.723,0.028383802622556686,-0.008821126073598862,-2.5004397684824653e-05,0.0,0.0,0.0,0.0,-0.000889152695890516,0.0028456919826567173,-0.0013517888728529215,0.9995474815368652,0.0,0.0,0.0,18.70646095275879,7.917543411254883,-0.26983150839805603,-3385.90673828125,0
810.6110000000008,0.028441084548830986,-0.008876748383045197,-2.7261545255896635e-05,0.0,0.0,0.0,0.0,-0.0023325709626078606,0.000998166506178677,5.589738429989666e-05,1.0006861686706543,0.0,0.0,0.0,18.688678741455078,7.905308723449707,-0.2778526246547699,-3382.68798828125,0
820.4950000000008,0.028383811935782433,-0.008839456364512444,-2.5128310880973004e-06,0.0,0.0,0.0,0.0,-0.001855239737778902,0.00014084704162087291,-0.00274257711134851,1.0000447034835815,0.0,0.0,0.0,18.694467544555664,7.920129299163818,-0.2925803065299988,-3383.73583984375,0
830.3799999999992,0.02844264917075634,-0.008894921280443668,-1.5159666872932576e-06,0.0,0.0,0.0,0.0,-0.0031680448446422815,0.0036191982217133045,-0.000954437127802521,1.0011409521102905,0.0,0.0,0.0,18.674680709838867,7.911212921142578,-0.3010002374649048,-3380.154296875,0
840.2649999999994,0.028367547318339348,-0.00890443753451109,-2.1358813683036715e-05,0.0,0.0,0.0,0.0,0.0004915515892207623,-0.0050547318533062935,0.005021652206778526,1.0003256797790527,0.0,0.0,0.0,18.655902862548828,7.909482479095459,-0.30399295687675476,-3376.755615234375,0
850.1509999999998,0.028434766456484795,-0.00890955701470375,-8.892255209502764e-06,0.0,0.0,0.0,0.0,-0.0016122517408803105,-0.0010878605535253882,0.001247343490831554,0.9990178942680359,0.0,0.0,0.0,18.674610137939453,7.91115140914917,-0.28518497943878174,-3380.1416015625,0
860.0360000000001,0.028493396937847137,-0.008964300155639648,-6.8787358031840995e-06,0.0,0.0,0.0,0.0,-0.0008395130280405283,-0.0020940015092492104,0.0013942188816145062,0.9987829327583313,0.0,0.0,0.0,18.656435012817383,7.903872013092041,-0.283378541469574,-3376.851806640625,0
869.9239999999991,0.02851959690451622,-0.008991776965558529,6.46807748125866e-05,0.0,0.0,0.0,0.0,0.0027170057874172926,0.005946481134742498,-0.0016021623741835356,1.0004867315292358,0.0,0.0,0.0,18.686616897583008,7.905881404876709,-0.2810496389865875,-3382.314697265625,0
879.8079999999991,0.02857907861471176,-0.00905144028365612,7.203962013591081e-05,0.0,0.0,0.0,0.0,0.0004332382814027369,0.0024588971864432096,-0.0022884795907884836,1.000603437423706,0.0,0.0,0.0,18.667266845703125,7.89766788482666,-0.2945912182331085,-3378.8125,0
889.6939999999995,0.028636682778596878,-0.008980268612504005,0.00013976500486023724,0.0,0.0,0.0,0.0,0.00038144944119267166,-0.0011557743418961763,0.0022429462987929583,1.002319574356079,0.0,0.0,0.0,18.68705940246582,7.9238972663879395,-0.2843663692474365,-3382.394775390625,0
899.5799999999999,0.02869873121380806,-0.009038512594997883,0.00015459823771379888,0.0,0.0,0.0,0.0,-0.0014852926833555102,0.0015216278843581676,-0.0006664604879915714,1.0022495985031128,0.0,0.0,0.0,18.668848037719727,7.918133735656738,-0.2822873294353485,-3379.098876953125,0
909.4719999999998,0.028757501393556595,-0.009045625105500221,0.00020523926650639623,0.0,0.0,0.0,0.0,-0.0011844986584037542,-0.000433102686656639,-0.0008789318380877376,1.0009543895721436,0.0,0.0,0.0,18.702392578125,7.932149887084961,-0.2755991816520691,-3385.17041015625,0
919.3510000000006,0.02882351540029049,-0.00910452101379633,0.00022679117682855576,0.0,0.0,0.0,0.0,-0.0007022891077212989,-0.0007922871736809611,-0.0016954393358901143,1.0002387762069702,0.0,0.0,0.0,18.68379020690918,7.929636478424072,-0.27216777205467224,-3381.80322265625,0
929.2360000000008,0.028909016400575638,-0.009019440039992332,0.00028665215359069407,0.0,0.0,0.0,0.0,-0.00235756766051054,0.004367942456156015,0.0005726817762479186,0.9983207583427429,0.0,0.0,0.0,18.70823860168457,7.962403297424316,-0.23745885491371155,-3386.228515625,0
939.1239999999998,0.028980623930692673,-0.009069476276636124,0.00031132649746723473,0.0,0.0,0.0,0.0,-0.0007755905389785767,-0.0013212735066190362,-0.0012776533840224147,0.9991663694381714,0.0,0.0,0.0,18.689348220825195,7.9565253257751465,-0.24959836900234222,-3382.80908203125,0
949.0079999999998,0.029025619849562645,-0.009041305631399155,0.000409842177759856,0.0,0.0,0.0,0.0,-0.0016560603398829699,-0.0027742052916437387,-0.0012100854655727744,1.0012141466140747,0.0,0.0,0.0,18.72467803955078,7.972687244415283,-0.24141745269298553,-3389.2041015625,0
958.8989999999994,0.029097186401486397,-0.009088546968996525,0.00043972034472972155,0.0,0.0,0.0,0.0,0.0014737417222931981,-0.00068225635914132,-0.0004268582270015031,1.0002307891845703,0.0,0.0,0.0,18.705812454223633,7.969024658203125,-0.24149075150489807,-3385.789306640625,0
968.7790000000005,0.0291768629103899,-0.009043491445481777,0.0005118357948958874,0.0,0.0,0.0,0.0,-0.0026535799261182547,-0.0006945931818336248,-0.00043401302536949515,1.0008383989334106,0.0,0.0,0.0,18.73265838623047,7.982226848602295,-0.22359080612659454,-3390.6484375,0
978.6640000000007,0.02925274521112442,-0.00908569898456335,0.0005462747649289668,0.0,0.0,0.0,0.0,-0.0004882174252998084,0.0024218105245381594,-0.0036312902811914682,1.0007963180541992,0.0,0.0,0.0,18.71377944946289,7.977319240570068,-0.21706794202327728,-3387.2314453125,0
988.5499999999993,0.02929089590907097,-0.0091139767318964,0.0006378234247677028,0.0,0.0,0.0,0.0,0.0014070426113903522,-0.002115038689225912,0.0023492518812417984,1.0000921487808228,0.0,0.0,0.0,18.748167037963867,7.979431629180908,-0.2318001240491867,-3393.45556640625,0
998.4349999999995,0.029366353526711464,-0.009160568006336689,0.0006779451505281031,0.0,0.0,0.0,0.0,3.3272219297941774e-05,-0.0020962520502507687,0.0015431391075253487,0.9994975924491882,0.0,0.0,0.0,18.72991180419922,7.970155715942383,-0.22312398254871368,-3390.15087890625,0
1008.3209999999999,0.029413405805826187,-0.009193952195346355,0.0007579223020002246,0.0,0.0,0.0,0.0,-0.0008908743620850146,0.00024095749540720135,-0.00022304071171674877,1.000141978263855,0.0,0.0,0.0,18.75429344177246,7.971158981323242,-0.22614480555057526,-3394.564453125,0
1018.2060000000001,0.02948525920510292,-0.009245053865015507,0.0008011029567569494,0.0,0.0,0.0,0.0,0.0006579097826033831,-0.004948421847075224,-0.000549294869415462,1.0014848709106445,0.0,0.0,0.0,18.73563003540039,7.963354110717773,-0.2287936955690384,-3391.186279296875,0
1028.0920000000006,0.029539158567786217,-0.009226767346262932,0.0009060752927325666,0.0,0.0,0.0,0.0,0.0002058943355223164,-0.002673374256119132,0.0010218012612313032,1.0008167028427124,0.0,0.0,0.0,18.77046012878418,7.979657173156738,-0.20823046565055847,-3397.49072265625,0
1037.9779999999992,0.02961290255188942,-0.009276406839489937,0.0009560267208144069,0.0,0.0,0.0,0.0,-0.0017732190899550915,0.0031091489363461733,0.0013508365955203772,1.0018118619918823,0.0,0.0,0.0,18.751953125,7.972865581512451,-0.20288021862506866,-3394.14111328125,0
1047.8649999999998,0.02968793921172619,-0.009328233078122139,0.0010075424797832966,0.0,0.0,0.0,0.0,-0.0024819860700517893,-0.0029176759999245405,0.0024044064339250326,1.0027936697006226,0.0,0.0,0.0,18.73369789123535,7.96566915512085,-0.22105807065963745,-3390.83642578125,0
1057.7530000000006,0.029764385893940926,-0.009382659569382668,0.001061485381796956,0.0,0.0,0.0,0.0,0.00022071941930335015,0.0038067465648055077,-0.0005137224216014147,1.0033550262451172,0.0,0.0,0.0,18.71623420715332,7.963634967803955,-0.22135643661022186,-3387.67529296875,0
1067.6460000000006,0.02984199859201908,-0.009438436478376389,0.001118469750508666,0.0,0.0,0.0,0.0,-5.574913666350767e-05,0.004358621314167976,0.0031131464056670666,0.9998109340667725,0.0,0.0,0.0,18.696552276611328,7.9547224044799805,-0.22954677045345306,-3384.11279296875,0
1077.5259999999998,0.029921026900410652,-0.009495523758232594,0.001176759833469987,0.0,0.0,0.0,0.0,0.003201571758836508,0.0016921940259635448,-0.0009406182216480374,0.9976336359977722,0.0,0.0,0.0,18.679147720336914,7.939937114715576,-0.2275010347366333,-3380.962890625,0
1087.4130000000005,0.03000257909297943,-0.009555337019264698,0.0012340720277279615,0.0,0.0,0.0,0.0,0.0031643977854400873,0.002467096783220768,-0.002355599543079734,0.9989109039306641,0.0,0.0,0.0,18.660419464111328,7.92597770690918,-0.2360328584909439,-3377.57275390625,0
1097.3050000000003,0.028324557468295097,-0.008930301293730736,0.00019477593014016747,0.0,0.0,0.0,0.0,0.001232254202477634,-0.0015414573717862368,-0.0004001254856120795,1.0005022287368774,0.0,0.0,0.0,18.63352394104004,8.107681274414062,-0.462385356426239,-3372.704833984375,0
1107.1769999999997,0.028335662558674812,-0.008964788168668747,0.00021433300571516156,0.0,0.0,0.0,0.0,-0.0014780061319470406,-0.00802744459360838,0.0022000872995704412,1.0023137331008911,0.0,0.0,0.0,18.615278244018555,8.096837043762207,-0.4559948444366455,-3369.40234375,0
1117.0699999999997,0.028249109163880348,-0.008984225802123547,0.0002101411228068173,0.0,0.0,0.0,0.0,-0.0011386971455067396,-0.004207767080515623,0.0020403980743139982,0.9994686841964722,0.0,0.0,0.0,18.596946716308594,8.091951370239258,-0.4377632141113281,-3366.084228515625,0
1126.950999999999,0.02826150506734848,-0.00902229268103838,0.00023114588111639023,0.0,0.0,0.0,0.0,0.0013065815437585115,0.0028610059525817633,-0.0032354972790926695,0.9983118772506714,0.0,0.0,0.0,18.578630447387695,8.088595390319824,-0.42354169487953186,-3362.768798828125,0
1136.8410000000003,0.02818930521607399,-0.0090279346331954,0.00027257163310423493,0.0,0.0,0.0,0.0,-0.0027111652307212353,0.0032143634743988514,0.0022517135366797447,1.0001879930496216,0.0,0.0,0.0,18.558931350708008,8.078206062316895,-0.4291803240776062,-3359.203369140625,0
1146.7209999999995,0.028204504400491714,-0.009069237858057022,0.00029377249302342534,0.0,0.0,0.0,0.0,0.0036569104995578527,0.0020882696844637394,0.0014056599466130137,1.0005755424499512,0.0,0.0,0.0,18.5413818359375,8.072921752929688,-0.43820300698280334,-3356.027099609375,0
1156.625,0.028177063912153244,-0.009077969938516617,0.00034420585143379867,0.0,0.0,0.0,0.0,0.0026675458066165447,0.004272041842341423,-0.0017010994488373399,0.9995575547218323,0.0,0.0,0.0,18.523012161254883,8.06292724609375,-0.4443010985851288,-3352.702392578125,0
1166.4930000000004,0.028193382546305656,-0.009120731614530087,0.0003682115057017654,0.0,0.0,0.0,0.0,-0.0003983705537393689,-0.00033104312024079263,0.0006320241955108941,0.9977911710739136,0.0,0.0,0.0,18.503915786743164,8.051758766174316,-0.4535142183303833,-3349.245361328125,0
1176.3899999999994,0.02819542959332466,-0.00911780446767807,0.0004288561758585274,0.0,0.0,0.0,0.0,0.0018712846795096993,0.003243696875870228,0.00013891821436118335,0.9995279908180237,0.0,0.0,0.0,18.48527717590332,8.045785903930664,-0.4535553753376007,-3345.87158203125,0
1186.2620000000006,0.02821342833340168,-0.009160601533949375,0.0004537217319011688,0.0,0.0,0.0,0.0,0.0010423639323562384,0.005763933062553406,-0.0005436623468995094,0.997708261013031,0.0,0.0,0.0,18.466285705566406,8.03909969329834,-0.4594672918319702,-3342.434326171875,0
1196.1599999999999,0.028247583657503128,-0.009199632331728935,0.0004801786853931844,0.0,0.0,0.0,0.0,0.002116377465426922,-4.346775313024409e-05,-0.0009146425873041153,0.9985833168029785,0.0,0.0,0.0,18.46271324157715,8.030252456665039,-0.46180063486099243,-3341.787841796875,0
1206.0339999999997,0.028269531205296516,-0.009247549809515476,0.0005030366010032594,0.0,0.0,0.0,0.0,0.0032633489463478327,0.004906683694571257,-0.002814105013385415,0.9998996257781982,0.0,0.0,0.0,18.44447135925293,8.02292537689209,-0.4653991162776947,-3338.48583984375,0
1215.9269999999997,0.028201933950185776,-0.009248335845768452,0.0005425963317975402,0.0,0.0,0.0,0.0,-0.0009479676373302937,0.002405851148068905,0.005308245308697224,0.9992782473564148,0.0,0.0,0.0,18.440868377685547,8.041131973266602,-0.4974413514137268,-3337.833740234375,0
1225.8070000000007,0.028222400695085526,-0.009296360425651073,0.0005663401680067182,0.0,0.0,0.0,0.0,-0.0008869369048625231,-0.0014140002895146608,0.0051186238415539265,1.0005006790161133,0.0,0.0,0.0,18.42287254333496,8.031732559204102,-0.4942655563354492,-3334.576416015625,0
1235.7080000000005,0.028201129287481308,-0.009280991740524769,0.0006172119756229222,0.0,0.0,0.0,0.0,0.00039508339250460267,-0.0006988873356021941,0.00046133899013511837,0.9987515211105347,0.0,0.0,0.0,18.42339515686035,8.056913375854492,-0.5077119469642639,-3334.671142578125,0
1245.5779999999995,0.02822090871632099,-0.009326952509582043,0.0006435723043978214,0.0,0.0,0.0,0.0,0.0007454412989318371,0.005112878512591124,-0.0060614924877882,0.9999385476112366,0.0,0.0,0.0,18.40571403503418,8.045289039611816,-0.5052567720413208,-3331.470947265625,0
1255.473,0.028201665729284286,-0.009302043356001377,0.0006915148696862161,0.0,0.0,0.0,0.0,0.0004010582051705569,-0.006859783083200455,0.002140528056770563,1.001433253288269,0.0,0.0,0.0,18.4018497467041,8.068594932556152,-0.5317149758338928,-3330.771728515625,0
1265.3490000000002,0.028218844905495644,-0.009346187114715576,0.0007214737706817687,0.0,0.0,0.0,0.0,0.0016023567877709866,0.003997740801423788,-0.0016934984596446157,1.0011792182922363,0.0,0.0,0.0,18.384462356567383,8.062294960021973,-0.5177109837532043,-3327.624267578125,0
1275.2330000000002,0.028175998479127884,-0.009322252124547958,0.0007566575077362359,0.0,0.0,0.0,0.0,0.003071549581363797,-0.0016344527248293161,-0.0008424666593782604,1.0008121728897095,0.0,0.0,0.0,18.3847599029541,8.095163345336914,-0.5548112392425537,-3327.678466796875,0
1285.125,0.028469497337937355,-0.008854755200445652,-8.110824273899198e-05,0.0,0.0,0.0,0.0,0.0020002496894448996,0.0008783468510955572,-0.001837167190387845,0.9979931116104126,0.0,0.0,0.0,18.427532196044922,8.161914825439453,-0.4734668433666229,-3335.419921875,0
1295.0069999999996,0.028415340930223465,-0.008863013237714767,-0.0001036400135490112,0.0,0.0,0.0,0.0,-0.0012791918125003576,-0.0019304587040096521,0.001130367279984057,0.9987273812294006,0.0,0.0,0.0,18.428794860839844,8.153142929077148,-0.4812205731868744,-3335.648681640625,0
1304.8899999999994,0.028454286977648735,-0.008844335563480854,-0.00011955045920331031,0.0,0.0,0.0,0.0,-0.0001910697465064004,0.0004261608701199293,0.002139564836397767,1.0007591247558594,0.0,0.0,0.0,18.47069549560547,8.148752212524414,-0.4623952805995941,-3343.232666015625,0
1314.7819999999992,0.02837223745882511,-0.008810445666313171,-0.00012852204963564873,0.0,0.0,0.0,0.0,-0.0019678454846143723,0.0040392521768808365,0.0015430916100740433,1.000530481338501,0.0,0.0,0.0,18.46880531311035,8.14992904663086,-0.4637312591075897,-3342.890380859375,0
1324.6720000000005,0.02838733233511448,-0.00879221223294735,-7.726572221145034e-05,0.0,0.0,0.0,0.0,0.0008762903162278235,0.000546312250662595,-0.001488718786276877,0.9992786049842834,0.0,0.0,0.0,18.518342971801758,8.146012306213379,-0.4632353186607361,-3351.85693359375,0
1334.548999999999,0.028337949886918068,-0.008815309964120388,-0.00010293962259311229,0.0,0.0,0.0,0.0,-0.0009780707769095898,-0.0026551939081400633,2.4959728762041777e-05,0.997998058795929,0.0,0.0,0.0,18.511518478393555,8.138142585754395,-0.46731865406036377,-3350.621826171875,0
1344.4339999999993,0.028396237641572952,-0.008745125494897366,-0.00010279917478328571,0.0,0.0,0.0,0.0,0.00011161000293213874,-0.003992876969277859,0.0034816411789506674,0.9993345141410828,0.0,0.0,0.0,18.5382022857666,8.140403747558594,-0.457692950963974,-3355.451416015625,0
1354.3250000000007,0.028361337259411812,-0.008758657611906528,-0.00011240642197662964,0.0,0.0,0.0,0.0,-7.183438719948754e-05,-0.0021196301095187664,-0.0009004608727991581,0.9991579055786133,0.0,0.0,0.0,18.520498275756836,8.13381576538086,-0.455145001411438,-3352.247314453125,0
1364.2070000000003,0.028407439589500427,-0.00870838575065136,-9.933646651916206e-05,0.0,0.0,0.0,0.0,0.0013352520763874054,0.004808985628187656,-0.0005214823177084327,1.000011920928955,0.0,0.0,0.0,18.566993713378906,8.133631706237793,-0.4433123469352722,-3360.66259765625,0
1374.1020000000008,0.028354955837130547,-0.008765512146055698,-0.00013638573000207543,0.0,0.0,0.0,0.0,5.926006633671932e-05,-0.005101478658616543,-0.002616128185763955,1.000887393951416,0.0,0.0,0.0,18.548303604125977,8.121803283691406,-0.45362186431884766,-3357.27978515625,0
1383.9850000000006,0.028435522690415382,-0.008701816201210022,-0.00017172833031509072,0.0,0.0,0.0,0.0,0.001531221903860569,0.0036593847908079624,-0.0014700547326356173,0.9994474053382874,0.0,0.0,0.0,18.576196670532227,8.11960506439209,-0.43892502784729004,-3362.32861328125,0
1393.8799999999992,0.02837744541466236,-0.00872285757213831,-0.00019250005425419658,0.0,0.0,0.0,0.0,0.0008803137461654842,-0.0013118734350427985,0.0014136129757389426,1.0003952980041504,0.0,0.0,0.0,18.557435989379883,8.106213569641113,-0.44606178998947144,-3358.93310546875,0
1403.7459999999992,0.028407063335180283,-0.008716869167983532,-0.0001741496380418539,0.0,0.0,0.0,0.0,0.0016113956226035953,0.002159606898203492,0.001957239815965295,1.0000547170639038,0.0,0.0,0.0,18.586633682250977,8.101316452026367,-0.436552494764328,-3364.217529296875,0
1413.6399999999994,0.028405627235770226,-0.008740534074604511,-0.00017658696742728353,0.0,0.0,0.0,0.0,0.001978596206754446,-0.0009689294383861125,0.00029891257872805,1.0013420581817627,0.0,0.0,0.0,18.569021224975586,8.08796501159668,-0.44445160031318665,-3361.029541015625,0
1423.5190000000002,0.028404541313648224,-0.008774766698479652,-0.00012067511852364987,0.0,0.0,0.0,0.0,0.00267113302834332,0.0030472439248114824,-0.00024733037571422756,0.9991998076438904,0.0,0.0,0.0,18.60759735107422,8.078606605529785,-0.4405733644962311,-3368.01171875,0
1433.411,0.02836580201983452,-0.008786264806985855,-0.00011898085358552635,0.0,0.0,0.0,0.0,0.0008905158028937876,0.0015005841851234436,-0.0036361701786518097,0.9995211362838745,0.0,0.0,0.0,18.58076286315918,8.073810577392578,-0.458007276058197,-3363.155029296875,0
1443.2890000000007,0.02836787700653076,-0.008852838538587093,-7.767938222968951e-05,0.0,0.0,0.0,0.0,0.0022113448940217495,0.0012684134999290109,-0.002418388379737735,1.0013211965560913,0.0,0.0,0.0,18.617191314697266,8.064990997314453,-0.459129273891449,-3369.7490234375,0
1453.182999999999,0.02832641452550888,-0.008863174356520176,-7.371553510893136e-05,0.0,0.0,0.0,0.0,0.001425822381861508,0.00848696194589138,0.00270461174659431,1.0002455711364746,0.0,0.0,0.0,18.59778594970703,8.054927825927734,-0.45941585302352905,-3366.236083984375,0
1463.0589999999993,0.028315870091319084,-0.008919487707316875,2.9730572350672446e-06,0.0,0.0,0.0,0.0,1.967405842151493e-05,0.0025550508871674538,-0.0003408172633498907,1.0019084215164185,0.0,0.0,0.0,18.632648468017578,8.045262336730957,-0.4773574471473694,-3372.546630859375,0
1472.9539999999997,0.02828683704137802,-0.008908415213227272,3.7391422665677965e-05,0.0,0.0,0.0,0.0,-0.0022712741047143936,-0.005342746153473854,0.001530109322629869,1.0016406774520874,0.0,0.0,0.0,18.613439559936523,8.038407325744629,-0.4800502061843872,-3369.069580078125,0
1482.8320000000003,0.028300045058131218,-0.008938945829868317,9.611269342713058e-05,0.0,0.0,0.0,0.0,0.001599065843038261,0.0059721339493989944,0.0027439394034445286,1.0012876987457275,0.0,0.0,0.0,18.644296646118164,8.039301872253418,-0.46439388394355774,-3374.654541015625,0
1492.7270000000008,0.028307853266596794,-0.008947241120040417,0.00013719323033001274,0.0,0.0,0.0,0.0,-0.002027892041951418,0.00010756959818536416,-0.0016319870483130217,1.0000344514846802,0.0,0.0,0.0,18.62698745727539,8.027605056762695,-0.4801415503025055,-3371.52197265625,0
1502.6049999999996,0.02837723307311535,-0.008926795795559883,0.00013931895955465734,0.0,0.0,0.0,0.0,0.0006784686120226979,-0.0019986918196082115,-2.803856841637753e-05,0.9974628686904907,0.0,0.0,0.0,18.650297164916992,8.03319263458252,-0.46981024742126465,-3375.7412109375,0
1512.4989999999998,0.0284084752202034,-0.008979756385087967,0.00016714791127014905,0.0,0.0,0.0,0.0,0.0006425819010473788,0.0018078213324770331,0.001731071388348937,1.0007163286209106,0.0,0.0,0.0,18.620681762695312,8.022518157958984,-0.46109169721603394,-3370.380615234375,0
1522.3739999999998,0.028481321409344673,-0.008965125307440758,0.00016571985906921327,0.0,0.0,0.0,0.0,-0.0004243461007717997,-0.0007621306576766074,0.00045580798177979887,0.999487578868866,0.0,0.0,0.0,18.656116485595703,8.02245044708252,-0.44874393939971924,-3376.794189453125,0
1532.2659999999996,0.028360486030578613,-0.008952353149652481,0.00017511202895548195,0.0,0.0,0.0,0.0,0.0005010425229556859,-0.0011490985052660108,-0.00026991168851964176,0.9998369216918945,0.0,0.0,0.0,18.62583351135254,8.02915096282959,-0.46912267804145813,-3371.312744140625,0
1542.1470000000008,0.028479130938649178,-0.008856356143951416,0.0001395482977386564,0.0,0.0,0.0,0.0,-8.257122681243345e-05,-0.0034846782218664885,-0.0022996149491518736,1.0012776851654053,0.0,0.0,0.0,18.646717071533203,8.045613288879395,-0.44549456238746643,-3375.093017578125,0
1552.0370000000003,0.028341054916381836,-0.008872510865330696,0.00012009200872853398,0.0,0.0,0.0,0.0,0.002668102504685521,-0.001994124846532941,0.0014812180306762457,1.0009026527404785,0.0,0.0,0.0,18.62079620361328,8.055943489074707,-0.46308884024620056,-3370.4013671875,0
1561.9159999999993,0.028241731226444244,-0.008831718005239964,0.00010349239164497703,0.0,0.0,0.0,0.0,-0.0009265310363844037,0.0012116895522922277,-0.0018803448183462024,1.0004180669784546,0.0,0.0,0.0,18.640655517578125,8.053573608398438,-0.44473522901535034,-3373.995849609375,0
1571.807999999999,0.028271134942770004,-0.008890118449926376,0.00011841020022984594,0.0,0.0,0.0,0.0,0.0003183682856615633,0.0011550307972356677,0.00040436265408061445,1.0015068054199219,0.0,0.0,0.0,18.622182846069336,8.047746658325195,-0.45100653171539307,-3370.65234375,0
1581.687,0.02838190458714962,-0.008848979137837887,5.234656418906525e-05,0.0,0.0,0.0,0.0,0.00073884183075279,-0.0029508236330002546,0.0024400800466537476,0.9995782375335693,0.0,0.0,0.0,18.64149284362793,8.048584938049316,-0.4316326081752777,-3374.147216796875,0
1591.5879999999997,0.028414541855454445,-0.008907774463295937,6.255188054637983e-05,0.0,0.0,0.0,0.0,0.0014720538165420294,0.00037778637488372624,0.000280120613751933,0.9984179139137268,0.0,0.0,0.0,18.62325668334961,8.045695304870605,-0.4303550124168396,-3370.8466796875,0
1601.4580000000005,0.028462206944823265,-0.008866873569786549,9.708350989967585e-05,0.0,0.0,0.0,0.0,0.0022738638799637556,-0.0028505416121333838,-0.0010189334861934185,1.0017765760421753,0.0,0.0,0.0,18.65713119506836,8.05623722076416,-0.4268759489059448,-3376.97802734375,0
1611.3529999999992,0.028324667364358902,-0.008879060856997967,4.149504820816219e-05,0.0,0.0,0.0,0.0,0.0003008006315212697,-0.008027024567127228,-1.2252950909896754e-05,0.9996600151062012,0.0,0.0,0.0,18.645538330078125,8.067459106445312,-0.45717182755470276,-3374.879638671875,0
1621.2340000000004,0.028259264305233955,-0.008828646503388882,3.6267276300350204e-05,0.0,0.0,0.0,0.0,0.0005742390058003366,0.0028263882268220186,0.0016333659878000617,1.0007461309432983,0.0,0.0,0.0,18.667415618896484,8.070295333862305,-0.4298079013824463,-3378.839111328125,0
1631.1219999999994,0.02829236537218094,-0.008890616707503796,4.397367956698872e-05,0.0,0.0,0.0,0.0,-0.003406735835596919,-0.004273231606930494,0.0007246715249493718,0.9988845586776733,0.0,0.0,0.0,18.649028778076172,8.058942794799805,-0.43767085671424866,-3375.511474609375,0
1641.0110000000004,0.02831840142607689,-0.008834418840706348,3.198115882696584e-05,0.0,0.0,0.0,0.0,0.0015706234844401479,0.002571468474343419,0.002532440237700939,0.9990270137786865,0.0,0.0,0.0,18.685449600219727,8.067322731018066,-0.42663082480430603,-3382.103759765625,0
1650.902,0.028332019224762917,-0.008901691064238548,5.49492469872348e-05,0.0,0.0,0.0,0.0,0.002231381833553314,0.0009334941860288382,0.0007304867613129318,1.000327467918396,0.0,0.0,0.0,18.63971710205078,8.064329147338867,-0.4261897802352905,-3373.826171875,0
1660.7800000000007,0.028403103351593018,-0.008762907236814499,1.2952123142895289e-05,0.0,0.0,0.0,0.0,-0.0006701500387862325,-0.0034739042166620493,-0.0014604813186451793,1.0009337663650513,0.0,0.0,0.0,18.681352615356445,8.084186553955078,-0.40431323647499084,-3381.362060546875,0
1670.6669999999995,0.028309371322393417,-0.008825368247926235,-1.5207719116006047e-05,0.0,0.0,0.0,0.0,6.288402801146731e-05,-0.00257394602522254,-0.0008123700972646475,1.0012011528015137,0.0,0.0,0.0,18.644493103027344,8.059515953063965,-0.4024227261543274,-3374.6904296875,0
1680.545,0.02835938334465027,-0.00872145313769579,-4.067748523084447e-05,0.0,0.0,0.0,0.0,0.0015720532974228263,0.010641859844326973,-0.0012200946221128106,1.0012431144714355,0.0,0.0,0.0,18.68355369567871,8.074159622192383,-0.3860056698322296,-3381.76025390625,0
1690.446,0.02838253043591976,-0.008814326487481594,-4.094590985914692e-05,0.0,0.0,0.0,0.0,0.001464569359086454,0.0005461241817101836,0.002620514715090394,1.0010228157043457,0.0,0.0,0.0,18.632091522216797,8.062747955322266,-0.4176068603992462,-3372.445556640625,0
1700.3179999999993,0.028416307643055916,-0.008712444454431534,-4.2468993342481554e-05,0.0,0.0,0.0,0.0,5.120647983858362e-05,-0.001721434062346816,-0.00104291713796556,0.9996516704559326,0.0,0.0,0.0,18.687442779541016,8.077359199523926,-0.40204837918281555,-3382.46435546875,0
1710.214,0.028371980413794518,-0.008791464380919933,-5.626764686894603e-05,0.0,0.0,0.0,0.0,0.0005007278523407876,-0.007268414832651615,0.0012469165958464146,0.9988853931427002,0.0,0.0,0.0,18.63747787475586,8.0731782913208,-0.4225548505783081,-3373.420654296875,0
1720.0959999999995,0.02836158685386181,-0.008791464380919933,-3.993859718320891e-05,0.0,0.0,0.0,0.0,0.0009466789197176695,0.0076021309942007065,-0.0008108351612463593,0.9999218583106995,0.0,0.0,0.0,18.68632698059082,8.073202133178711,-0.418728768825531,-3382.26220703125,0
1729.9889999999996,0.02837228588759899,-0.008856537751853466,-2.7889738703379408e-05,0.0,0.0,0.0,0.0,0.0023085386492311954,0.004265662282705307,-0.0005973204970359802,0.9997828602790833,0.0,0.0,0.0,18.64862060546875,8.053142547607422,-0.4275195896625519,-3375.437255859375,0
1739.8619999999992,0.028383515775203705,-0.00878409668803215,-7.289992936421186e-06,0.0,0.0,0.0,0.0,0.00039298072806559503,-0.001997558865696192,-0.0012816085945814848,0.998629093170166,0.0,0.0,0.0,18.697925567626953,8.064508438110352,-0.4172082841396332,-3384.361572265625,0
1749.7520000000004,0.028358403593301773,-0.008837389759719372,1.8625537450134289e-06,0.0,0.0,0.0,0.0,0.002759363502264023,0.0014838727656751871,-0.0037886134814471006,0.9968763589859009,0.0,0.0,0.0,18.660520553588867,8.04090690612793,-0.41864708065986633,-3377.59130859375,0
1759.6290000000008,0.02837471105158329,-0.008771611377596855,9.91692559182411e-06,0.0,0.0,0.0,0.0,-0.00148942437954247,0.0006872797966934741,0.0017075615469366312,1.000517725944519,0.0,0.0,0.0,18.71082878112793,8.050873756408691,-0.4076119065284729,-3386.697021484375,0
1769.5319999999992,0.028347143903374672,-0.008847600780427456,5.094416337669827e-06,0.0,0.0,0.0,0.0,0.0003693981852848083,0.00728948088362813,-0.0029002174269407988,0.9999937415122986,0.0,0.0,0.0,18.659610748291016,8.040351867675781,-0.4341166615486145,-3377.4267578125,0
1779.4030000000002,0.028369376435875893,-0.008766278624534607,1.2302850336709525e-05,0.0,0.0,0.0,0.0,0.0012982940534129739,0.001899535534903407,0.0024368627928197384,0.9979262351989746,0.0,0.0,0.0,18.708036422729492,8.052791595458984,-0.42166468501091003,-3386.191650390625,0
1789.298999999999,0.02835094928741455,-0.00883691105991602,9.96079597825883e-06,0.0,0.0,0.0,0.0,-0.0012114527635276318,-0.00044144835555925965,-0.0016803517937660217,0.9987180829048157,0.0,0.0,0.0,18.659425735473633,8.053279876708984,-0.4586152732372284,-3377.393310546875,0
1799.1720000000005,0.02834802120923996,-0.008826037868857384,2.0541041521937586e-05,0.0,0.0,0.0,0.0,0.0008057092782109976,0.0017285028006881475,0.001253960537724197,1.0011789798736572,0.0,0.0,0.0,18.70121192932129,8.054811477661133,-0.4540899991989136,-3384.95654296875,0
1809.0660000000007,0.028252949938178062,-0.00881678145378828,1.3050557754468173e-05,0.0,0.0,0.0,0.0,-0.0011074019130319357,0.0045174467377364635,0.0021291463635861874,1.004581093788147,0.0,0.0,0.0,18.68108367919922,8.041295051574707,-0.45861396193504333,-3381.31298828125,0
1818.9429999999993,0.02830609679222107,-0.008814048953354359,1.1285842447250616e-05,0.0,0.0,0.0,0.0,0.0004866145900450647,0.002256725449115038,-0.001390678808093071,1.0008028745651245,0.0,0.0,0.0,18.698467254638672,8.038045883178711,-0.45690977573394775,-3384.4599609375,0
1828.8459999999995,0.02831929363310337,-0.00888917874544859,2.8359452699078247e-05,0.0,0.0,0.0,0.0,-0.0016155128832906485,0.003556610085070133,-0.003484009299427271,0.9981518387794495,0.0,0.0,0.0,18.65592384338379,8.036005020141602,-0.47154369950294495,-3376.759521484375,0
1838.7150000000001,0.02831929363310337,-0.00888917874544859,2.8359452699078247e-05,0.0,0.0,0.0,0.0,-0.0015582649502903223,0.004164848476648331,0.002400551689788699,1.0002305507659912,0.0,0.0,0.0,18.65592384338379,8.036005020141602,-0.47154369950294495,-3376.759521484375,0
1848.6129999999994,0.028290988877415657,-0.0088998107239604,4.9474725528853014e-05,0.0,0.0,0.0,0.0,0.0033365795388817787,0.0048655858263373375,-0.001636561588384211,1.0013232231140137,0.0,0.0,0.0,18.627023696899414,8.049636840820312,-0.47735798358917236,-3371.528564453125,0
1858.4860000000008,0.028406573459506035,-0.008805884048342705,-9.72177349467529e-06,0.0,0.0,0.0,0.0,-0.0008372269221581519,-0.002266704337671399,-0.0002860205131582916,1.0009074211120605,0.0,0.0,0.0,18.65753173828125,8.069939613342285,-0.46658191084861755,-3377.050537109375,0
1868.3819999999996,0.02833143249154091,-0.00881417840719223,-1.7366990505252033e-05,0.0,0.0,0.0,0.0,-7.488382834708318e-05,0.0014857857022434473,0.0010451250709593296,1.0017482042312622,0.0,0.0,0.0,18.630294799804688,8.075582504272461,-0.4792347252368927,-3372.120361328125,0
1878.2569999999996,0.028376629576086998,-0.008802859112620354,3.6969477150705643e-06,0.0,0.0,0.0,0.0,0.00439429609104991,0.0018284573452547193,0.0030573057010769844,0.9996687173843384,0.0,0.0,0.0,18.66595458984375,8.082219123840332,-0.4661145508289337,-3378.574951171875,0
1888.1499999999996,0.028333231806755066,-0.008813902735710144,9.086973477678839e-06,0.0,0.0,0.0,0.0,0.0012756874784827232,0.002777875168249011,0.002026014029979706,0.9983563423156738,0.0,0.0,0.0,18.63751220703125,8.08893871307373,-0.4744197428226471,-3373.427001953125,0
1898.0280000000002,0.028374120593070984,-0.008828260935842991,2.6166373572777957e-05,0.0,0.0,0.0,0.0,-0.0009551540133543313,-0.0025812333915382624,0.0010546467965468764,0.9996606111526489,0.0,0.0,0.0,18.65354347229004,8.077564239501953,-0.47987109422683716,-3376.328369140625,0
1907.9189999999999,0.028274381533265114,-0.0088398652151227,1.2903601600555703e-05,0.0,0.0,0.0,0.0,0.0014685849891975522,-0.0005207901704125106,0.0020080471877008677,1.0013208389282227,0.0,0.0,0.0,18.634702682495117,8.068498611450195,-0.48788803815841675,-3372.918212890625,0
1917.8009999999995,0.028328387066721916,-0.008835675194859505,1.4771047062822618e-05,0.0,0.0,0.0,0.0,0.0012751707108691335,-0.005048602353781462,-0.0032909787259995937,1.0020394325256348,0.0,0.0,0.0,18.661523818969727,8.066909790039062,-0.48725685477256775,-3377.773193359375,0
1927.6900000000005,0.028313787654042244,-0.008846437558531761,3.2989166356856003e-05,0.0,0.0,0.0,0.0,0.0006213835440576077,0.007756097242236137,0.0006520410533994436,1.0012476444244385,0.0,0.0,0.0,18.634031295776367,8.06525993347168,-0.48820486664772034,-3372.796875,0
1937.571,0.02837320975959301,-0.008807836100459099,4.973816976416856e-05,0.0,0.0,0.0,0.0,-0.003955925349146128,-0.0022733670193701982,0.0001403142377967015,0.999671220779419,0.0,0.0,0.0,18.66218376159668,8.067999839782715,-0.45811110734939575,-3377.892578125,0
1947.4650000000001,0.028328770771622658,-0.00881945714354515,5.7279557950096205e-05,0.0,0.0,0.0,0.0,-0.0009800730040296912,-0.005408922675997019,-0.0004304852045606822,0.9991157650947571,0.0,0.0,0.0,18.644262313842773,8.057149887084961,-0.4648209512233734,-3374.648681640625,0
1957.3430000000008,0.02837187424302101,-0.008838964626193047,7.221235136967152e-05,0.0,0.0,0.0,0.0,0.004077826626598835,0.0013345794286578894,-0.00040044955676421523,0.9989176392555237,0.0,0.0,0.0,18.664270401000977,8.05823802947998,-0.4605069160461426,-3378.27001953125,0
1967.2279999999992,0.028342336416244507,-0.008846488781273365,9.356501686852425e-05,0.0,0.0,0.0,0.0,0.0010582839604467154,0.0021009487099945545,0.0009665447287261486,0.9991734623908997,0.0,0.0,0.0,18.63443374633789,8.066849708557129,-0.4656714200973511,-3372.869873046875,0
1977.1149999999998,0.028394585475325584,-0.008860370144248009,9.560025500832126e-05,0.0,0.0,0.0,0.0,-0.00036781345261260867,-0.000468167825601995,-0.0008189891232177615,1.0006978511810303,0.0,0.0,0.0,18.651947021484375,8.055519104003906,-0.45886921882629395,-3376.039306640625,0
1987.0020000000004,0.028351571410894394,-0.008846974931657314,0.00012412497017066926,0.0,0.0,0.0,0.0,-0.00020018091890960932,-0.0023898754734545946,0.0024268741253763437,1.0014618635177612,0.0,0.0,0.0,18.623733520507812,8.063183784484863,-0.4729524850845337,-3370.932861328125,0
1996.8860000000004,0.028414512053132057,-0.008815295994281769,0.00013027670502196997,0.0,0.0,0.0,0.0,0.0011446939315646887,-0.000586668262258172,0.0015898981364443898,1.002942442893982,0.0,0.0,0.0,18.65069580078125,8.068887710571289,-0.4696795344352722,-3375.813232421875,0
2006.7739999999994,0.028305914252996445,-0.008836468681693077,0.0001248690823558718,0.0,0.0,0.0,0.0,-0.0001524498511571437,-0.0024222105275839567,0.0007973856409080327,1.0013712644577026,0.0,0.0,0.0,18.625064849853516,8.082406997680664,-0.48378297686576843,-3371.174072265625,0
2016.6769999999997,0.0282684788107872,-0.008855150081217289,0.0001214390285895206,0.0,0.0,0.0,0.0,0.0013646343722939491,-0.0010465136729180813,0.002901712665334344,1.0001072883605957,0.0,0.0,0.0,18.63347816467285,8.077552795410156,-0.4622490406036377,-3372.696533203125,0
2026.5419999999995,0.0282684788107872,-0.008855150081217289,0.0001214390285895206,0.0,0.0,0.0,0.0,0.0023445531260222197,1.6503208826179616e-06,-0.00043494871351867914,0.9990156292915344,0.0,0.0,0.0,18.63347816467285,8.077552795410156,-0.4622490406036377,-3372.696533203125,0
2036.4279999999999,0.028332211077213287,-0.008846046403050423,0.00011265440843999386,0.0,0.0,0.0,0.0,-0.00012586041702888906,-0.0008264305652119219,0.0004412378475535661,1.0004215240478516,0.0,0.0,0.0,18.647876739501953,8.078253746032715,-0.4569266736507416,-3375.302734375,0
2046.312,0.02826019935309887,-0.008871234953403473,0.00011544270819285884,0.0,0.0,0.0,0.0,0.0018268227577209473,0.003134799422696233,-0.003914376720786095,1.0023707151412964,0.0,0.0,0.0,18.62926483154297,8.071221351623535,-0.45813438296318054,-3371.93408203125,0
2056.1980000000003,0.028331488370895386,-0.008854630403220654,0.00010110778384841979,0.0,0.0,0.0,0.0,-0.0022271820344030857,0.0016917022876441479,-0.0016264003934338689,1.0015833377838135,0.0,0.0,0.0,18.644548416137695,8.070562362670898,-0.45314472913742065,-3374.7001953125,0
2066.084999999999,0.028225213289260864,-0.00885241199284792,0.00010691554052755237,0.0,0.0,0.0,0.0,1.620077819097787e-05,0.006008780095726252,0.001262144767679274,1.0001221895217896,0.0,0.0,0.0,18.62527847290039,8.060890197753906,-0.4556407928466797,-3371.212646484375,0
2075.9680000000008,0.028340080752968788,-0.008752988651394844,6.573692371603101e-05,0.0,0.0,0.0,0.0,-0.000552420737221837,-0.0015949176158756018,-0.0017102004494518042,0.9998434782028198,0.0,0.0,0.0,18.641456604003906,8.080133438110352,-0.4404459297657013,-3374.140625,0
2085.8539999999994,0.028322307392954826,-0.00880006980150938,7.212267519207671e-05,0.0,0.0,0.0,0.0,0.00011278296005912125,0.0005102773429825902,-0.0017763698706403375,1.0003782510757446,0.0,0.0,0.0,18.62196922302246,8.070724487304688,-0.44328394532203674,-3370.613525390625,0
2095.745999999999,0.028368275612592697,-0.008892805315554142,9.051948291016743e-05,0.0,0.0,0.0,0.0,-0.0012842759024351835,-0.0011309796245768666,-0.0014086004812270403,1.000555396080017,0.0,0.0,0.0,18.623363494873047,8.062637329101562,-0.43717727065086365,-3370.8662109375,0
2105.626,0.028368275612592697,-0.008892805315554142,9.051948291016743e-05,0.0,0.0,0.0,0.0,0.0013633195776492357,0.004743017256259918,-0.0033492823131382465,1.0003169775009155,0.0,0.0,0.0,18.623363494873047,8.062637329101562,-0.43717727065086365,-3370.8662109375,0
2115.518,0.028321899473667145,-0.008864316157996655,9.441221482120454e-05,0.0,0.0,0.0,0.0,0.0012574344873428345,0.0036830815952271223,0.000187247249414213,1.0002118349075317,0.0,0.0,0.0,18.651180267333984,8.059051513671875,-0.4324665367603302,-3375.900634765625,0
2125.4030000000002,0.028351236134767532,-0.008934563025832176,0.00010735835530795157,0.0,0.0,0.0,0.0,0.0019569569267332554,0.004315326455980539,0.0020233795512467623,0.9982209801673889,0.0,0.0,0.0,18.63197898864746,8.047630310058594,-0.4315405488014221,-3372.425537109375,0
2135.2829999999994,0.028278207406401634,-0.008862906135618687,8.440403325948864e-05,0.0,0.0,0.0,0.0,-0.0014156511751934886,0.002133437432348728,0.0023389102425426245,1.0002645254135132,0.0,0.0,0.0,18.662586212158203,8.0498685836792,-0.4260357916355133,-3377.96533203125,0
2145.1679999999997,0.0283036045730114,-0.008930572308599949,9.459869761485606e-05,0.0,0.0,0.0,0.0,0.002143129473552108,-0.002312723081558943,0.0015601594932377338,0.9984282851219177,0.0,0.0,0.0,18.643497467041016,8.038187980651855,-0.43077874183654785,-3374.51025390625,0
2155.054,0.02834220603108406,-0.008802499622106552,4.0740596887189895e-05,0.0,0.0,0.0,0.0,0.0009978808229789138,-0.005576878320425749,0.0006554023711942136,0.9970092177391052,0.0,0.0,0.0,18.6572208404541,8.054166793823242,-0.40962034463882446,-3376.994384765625,0
2164.9390000000003,0.028368353843688965,-0.008864855393767357,4.5272296119946986e-05,0.0,0.0,0.0,0.0,0.0009608016698621213,0.0008065021829679608,0.001269951811991632,0.9983135461807251,0.0,0.0,0.0,18.637712478637695,8.041675567626953,-0.4126453995704651,-3373.462890625,0
2174.825999999999,0.028355181217193604,-0.008786199614405632,-2.1234748146525817e-06,0.0,0.0,0.0,0.0,0.0013078132178634405,0.002063664374873042,0.002878807717934251,0.9996424913406372,0.0,0.0,0.0,18.650554656982422,8.054612159729004,-0.39145123958587646,-3375.78759765625,0
2184.709999999999,0.028383806347846985,-0.008846957236528397,-4.548900506051723e-06,0.0,0.0,0.0,0.0,0.0018384680151939392,-0.0033090789802372456,-0.0007379293092526495,1.0005217790603638,0.0,0.0,0.0,18.631816864013672,8.046810150146484,-0.390105277299881,-3372.396240234375,0
2194.598,0.02833051234483719,-0.008830833248794079,1.1059737516916357e-05,0.0,0.0,0.0,0.0,0.001666731433942914,0.002798788482323289,0.0022273841314017773,1.0002890825271606,0.0,0.0,0.0,18.64854621887207,8.037596702575684,-0.3855164647102356,-3375.424072265625,0
2204.4809999999998,0.028360914438962936,-0.008891349658370018,1.0816662324941717e-05,0.0,0.0,0.0,0.0,0.0001686475588940084,0.004623360000550747,-0.005837456788867712,1.0003271102905273,0.0,0.0,0.0,18.629621505737305,8.024808883666992,-0.4031442403793335,-3371.998779296875,0
2214.370000000001,0.028267471119761467,-0.008884718641638756,5.264252104097977e-05,0.0,0.0,0.0,0.0,-0.0016421852633357048,0.004636642523109913,-0.0015027617337182164,1.001503825187683,0.0,0.0,0.0,18.655963897705078,8.023307800292969,-0.41234445571899414,-3376.7666015625,0
2224.2530000000006,0.028295407071709633,-0.008947188034653664,5.7550940255168825e-05,0.0,0.0,0.0,0.0,-0.001981847919523716,-0.0008924105786718428,0.00026789199910126626,0.9998003840446472,0.0,0.0,0.0,18.63709259033203,8.004332542419434,-0.4171596169471741,-3373.350830078125,0
2234.1450000000004,0.02827472612261772,-0.00890418142080307,0.00010865278454730287,0.0,0.0,0.0,0.0,-0.0002997746632900089,0.003705540206283331,-0.0013729524798691273,0.9972769618034363,0.0,0.0,0.0,18.658349990844727,8.004722595214844,-0.41681987047195435,-3377.19873046875,0
2244.0280000000002,0.028302593156695366,-0.008969069458544254,0.00011885879939654842,0.0,0.0,0.0,0.0,0.0011431677266955376,0.001807569875381887,0.0008654868579469621,0.996554434299469,0.0,0.0,0.0,18.63856315612793,8.005277633666992,-0.4083937406539917,-3373.616943359375,0
2253.91,0.028317993506789207,-0.008861469104886055,0.00010045313683804125,0.0,0.0,0.0,0.0,-0.0005917359376326203,0.0028907330706715584,-0.0005039459792897105,0.9989551305770874,0.0,0.0,0.0,18.66252326965332,8.01109504699707,-0.4069160223007202,-3377.95361328125,0
2263.795,0.028345059603452682,-0.00892682559788227,0.00010468547407072037,0.0,0.0,0.0,0.0,0.0007215919904410839,0.005372969433665276,0.0008511219639331102,0.9986950755119324,0.0,0.0,0.0,18.643068313598633,8.001822471618652,-0.403861403465271,-3374.4326171875,0
