timestamp,stateEstimate.x,stateEstimate.y,stateEstimate.z,controller.cmd_thrust,controller.cmd_roll,controller.cmd_pitch,controller.cmd_yaw,controller.r_roll,controller.r_pitch,controller.r_yaw,controller.accelz,controller.actuatorThrust,controller.roll,controller.pitch,controller.yaw,controller.rollRate,controller.pitchRate,controller.yawRate,controller.ctr_yaw
0.0,0.060863979160785675,0.0007696104003116488,0.0013698199763894081,0.0,0.0,0.0,0.0,0.0018909398932009935,0.0035129007883369923,0.0010449303081259131,0.9961429834365845,0.0,0.0,0.0,-27.937206268310547,12.48504638671875,1.089943766593933,5056.689453125,0
9.895000000000437,0.0609123520553112,0.000867694616317749,0.0013219536049291492,0.0,0.0,0.0,0.0,-0.0008675936260260642,-0.001955814193934202,0.0006435331306420267,0.9981509447097778,0.0,0.0,0.0,-27.91678237915039,12.500011444091797,1.0822668075561523,5052.99267578125,0
19.769000000000233,0.060873765498399734,0.0007827088702470064,0.0013231812044978142,0.0,0.0,0.0,0.0,-0.00018142593035008758,-0.0015716932248324156,-0.0015979628078639507,0.9992064237594604,0.0,0.0,0.0,-27.92830467224121,12.489851951599121,1.0942230224609375,5055.07861328125,0
29.665999999999258,0.06086933985352516,0.0008333955775015056,0.0013216822408139706,0.0,0.0,0.0,0.0,0.0012195840245112777,-0.006472743581980467,0.0024203872308135033,0.9980682730674744,0.0,0.0,0.0,-27.91399574279785,12.499409675598145,1.0908406972885132,5052.48828125,0
39.53700000000026,0.06081105396151543,0.0007796005229465663,0.0013315980322659016,0.0,0.0,0.0,0.0,-0.0002781893708743155,-0.006940644234418869,-0.002702930709347129,0.9994134306907654,0.0,0.0,0.0,-27.92997169494629,12.49018669128418,1.1031174659729004,5055.3798828125,0
49.43199999999888,0.060853708535432816,0.0008887335425242782,0.0012781735276803374,0.0,0.0,0.0,0.0,-9.903778845909983e-05,-0.0018909224309027195,1.299352243222529e-05,0.9983359575271606,0.0,0.0,0.0,-27.914287567138672,12.51049518585205,1.1173326969146729,5052.54150390625,0
59.3119999999999,0.06085461378097534,0.0007967135752551258,0.0012862117728218436,0.0,0.0,0.0,0.0,0.000853118603117764,0.0008808093261905015,0.0006310836179181933,0.998920738697052,0.0,0.0,0.0,-27.928211212158203,12.503121376037598,1.131676197052002,5055.0615234375,0
69.19999999999891,0.0608377568423748,0.0008218211587518454,0.0012834591325372458,0.0,0.0,0.0,0.0,0.00183195061981678,0.005760657601058483,0.0019549767021089792,0.9984933733940125,0.0,0.0,0.0,-27.913053512573242,12.502728462219238,1.1288588047027588,5052.318359375,0
79.07699999999932,0.06081413850188255,0.0007754629477858543,0.0013069446431472898,0.0,0.0,0.0,0.0,-0.0006327336886897683,0.000963381549809128,0.0005312442663125694,1.0000419616699219,0.0,0.0,0.0,-27.930320739746094,12.496621131896973,1.1249971389770508,5055.44384765625,0
88.97799999999916,0.06085238978266716,0.0008873463957570493,0.0012600991176441312,0.0,0.0,0.0,0.0,0.000719504663720727,-0.000964812352322042,-0.001804698957130313,1.000298023223877,0.0,0.0,0.0,-27.912330627441406,12.51325798034668,1.1203070878982544,5052.1875,0
98.84799999999996,0.060783322900533676,0.0008264511707238853,0.0012593454448506236,0.0,0.0,0.0,0.0,-0.0011156901018694043,-0.0063697341829538345,0.0029070854652673006,0.9999841451644897,0.0,0.0,0.0,-27.92801284790039,12.495853424072266,1.1216048002243042,5055.025390625,0
108.74099999999999,0.06080573424696922,0.000912566960323602,0.0012258179485797882,0.0,0.0,0.0,0.0,-0.0009289620793424547,-0.003797134617343545,0.00401111226528883,0.997292160987854,0.0,0.0,0.0,-27.913137435913086,12.515647888183594,1.1254806518554688,5052.33349609375,0
118.61999999999898,0.06081996113061905,0.000795666768681258,0.0012216797331348062,0.0,0.0,0.0,0.0,-0.0031294829677790403,0.00315417954698205,-0.0023383451625704765,0.9976171851158142,0.0,0.0,0.0,-27.927255630493164,12.504340171813965,1.1463972330093384,5054.888671875,0
128.51000000000022,0.0608493834733963,0.0009035873226821423,0.0011883726110681891,0.0,0.0,0.0,0.0,0.0017202250892296433,-0.002390087116509676,0.0014597566332668066,0.9979828000068665,0.0,0.0,0.0,-27.913375854492188,12.521872520446777,1.1280715465545654,5052.37646484375,0
138.387999999999,0.06080285459756851,0.0008533588843420148,0.0011904591228812933,0.0,0.0,0.0,0.0,0.00012810116459149867,0.0014805388636887074,-8.532076753908768e-05,0.9992250800132751,0.0,0.0,0.0,-27.928569793701172,12.508537292480469,1.1332321166992188,5055.12646484375,0
148.27999999999884,0.06081947311758995,0.0009004298481158912,0.0011496806982904673,0.0,0.0,0.0,0.0,0.0021560974419116974,-0.001445185043849051,-0.0015777087537571788,1.0001369714736938,0.0,0.0,0.0,-27.9130802154541,12.518205642700195,1.1308175325393677,5052.32275390625,0
158.15699999999924,0.060838159173727036,0.0008396803168579936,0.0011651171371340752,0.0,0.0,0.0,0.0,0.001160395797342062,-0.0038106106221675873,-0.0028570962604135275,1.0003561973571777,0.0,0.0,0.0,-27.927953720092773,12.508182525634766,1.1483685970306396,5055.01513671875,0
168.05299999999988,0.06084631010890007,0.0009140451438724995,0.001152310986071825,0.0,0.0,0.0,0.0,0.0024592806585133076,0.0035514170303940773,-0.0022694251965731382,0.9989606142044067,0.0,0.0,0.0,-27.912975311279297,12.5178804397583,1.1593022346496582,5052.30419921875,0
177.92599999999948,0.06087299436330795,0.0008479997050017118,0.0011754658771678805,0.0,0.0,0.0,0.0,-0.00016662332927808166,-0.0001062838127836585,0.00021506358461920172,0.9988600015640259,0.0,0.0,0.0,-27.93138885498047,12.509729385375977,1.1624938249588013,5055.63671875,0
187.8189999999995,0.06084387004375458,0.0008642507600598037,0.0011992306681349874,0.0,0.0,0.0,0.0,-0.0009306658175773919,0.001751044881530106,-0.0023793503642082214,0.998896062374115,0.0,0.0,0.0,-27.91596794128418,12.50739860534668,1.1538166999816895,5052.84521484375,0
197.69900000000052,0.06091436371207237,0.000741157098673284,0.0012122585903853178,0.0,0.0,0.0,0.0,0.0012599484762176871,0.0023938780650496483,4.399759563966654e-05,0.999197244644165,0.0,0.0,0.0,-27.929393768310547,12.493510246276855,1.1745038032531738,5055.275390625,0
207.60000000000036,0.06094321608543396,0.0008384911343455315,0.001190325478091836,0.0,0.0,0.0,0.0,0.002328893868252635,-5.190053707337938e-05,-0.004749928135424852,1.0004336833953857,0.0,0.0,0.0,-27.91141700744629,12.50027084350586,1.1599783897399902,5052.021484375,0
217.46600000000035,0.06086859852075577,0.0008119231788441539,0.0012001678114756942,0.0,0.0,0.0,0.0,0.0016286111203953624,-1.5175650332821533e-05,-0.00010937615297734737,0.9972386956214905,0.0,0.0,0.0,-27.929235458374023,12.483776092529297,1.1563694477081299,5055.24658203125,0
227.36299999999937,0.060848187655210495,0.0008339887717738748,0.0012150555849075317,0.0,0.0,0.0,0.0,-0.0007261800928972661,-0.00042239984031766653,0.0034102248027920723,0.9991833567619324,0.0,0.0,0.0,-27.91254997253418,12.479084968566895,1.152055025100708,5052.2265625,0
355.85599999999977,0.06077292189002037,0.0008704509818926454,0.001211638213135302,0.0,0.0,0.0,0.0,0.0007761937449686229,0.004298771265894175,0.0004750085645355284,1.0009160041809082,0.0,0.0,0.0,-27.921039581298828,12.463488578796387,1.146059274673462,5053.763671875,0
365.7510000000002,0.06075454503297806,0.0008878893568180501,0.0012184269726276398,0.0,0.0,0.0,0.0,-0.0027327577117830515,-0.0005654868436977267,-0.000577528728172183,0.9992151260375977,0.0,0.0,0.0,-27.907241821289062,12.461162567138672,1.1353687047958374,5051.26611328125,0
375.6270000000004,0.06081460416316986,0.0008041097316890955,0.0012477398850023746,0.0,0.0,0.0,0.0,-0.0004634360084310174,0.0003215335018467158,0.0015455500688403845,0.998587429523468,0.0,0.0,0.0,-27.923959732055664,12.456884384155273,1.167590618133545,5054.29248046875,0
385.51800000000003,0.06080963462591171,0.0008419177611358464,0.0012498884461820126,0.0,0.0,0.0,0.0,0.0008579191053286195,0.0014186304761096835,-0.0012745038839057088,0.9987100958824158,0.0,0.0,0.0,-27.911434173583984,12.460724830627441,1.1606413125991821,5052.025390625,0
395.396999999999,0.06082497909665108,0.0007817849982529879,0.0012777040246874094,0.0,0.0,0.0,0.0,-0.0023690236266702414,-0.006364924367517233,-0.0016299153212457895,0.9985432624816895,0.0,0.0,0.0,-27.92691993713379,12.447335243225098,1.1587247848510742,5054.82763671875,0
405.28800000000047,0.06083475053310394,0.0008464319398626685,0.0012730994494631886,0.0,0.0,0.0,0.0,-0.0001680862478679046,-8.915457874536514e-05,-3.1508108804700896e-05,1.0007655620574951,0.0,0.0,0.0,-27.90876007080078,12.457525253295898,1.1573145389556885,5051.541015625,0
415.16599999999926,0.060826681554317474,0.0007815727731212974,0.0012931441888213158,0.0,0.0,0.0,0.0,0.0002575050457380712,0.00042250085971318185,-0.0025830052327364683,0.9971008896827698,0.0,0.0,0.0,-27.926576614379883,12.447747230529785,1.1662609577178955,5054.76611328125,0
425.0630000000001,0.06086411699652672,0.0008822813397273421,0.001261057797819376,0.0,0.0,0.0,0.0,0.0016018720343708992,0.004245040938258171,-0.0008407371933571994,0.9987637996673584,0.0,0.0,0.0,-27.912315368652344,12.465469360351562,1.1585339307785034,5052.1845703125,0
434.9359999999997,0.06089533865451813,0.0008048720192164183,0.001283292192965746,0.0,0.0,0.0,0.0,-7.174206257332116e-05,0.000836100138258189,-1.7260263120988384e-05,0.9992384910583496,0.0,0.0,0.0,-27.923465728759766,12.45325756072998,1.1663920879364014,5054.203125,0
444.8339999999989,0.06088486313819885,0.0008397694327868521,0.001291246386244893,0.0,0.0,0.0,0.0,0.0004630382754839957,-0.0006108813104219735,-0.0010046790121123195,0.9989877343177795,0.0,0.0,0.0,-27.910385131835938,12.457743644714355,1.1681013107299805,5051.83544921875,0
454.70600000000013,0.060814496129751205,0.0007646302110515535,0.0012849688064306974,0.0,0.0,0.0,0.0,-0.000980778131633997,-0.0027272512670606375,0.0022024414502084255,0.9972684383392334,0.0,0.0,0.0,-27.926544189453125,12.43880844116211,1.1745816469192505,5054.759765625,0
464.59900000000016,0.06085621565580368,0.0008544441079720855,0.001235885196365416,0.0,0.0,0.0,0.0,-0.001584155485033989,-0.006141387391835451,0.0010424944339320064,0.9962294697761536,0.0,0.0,0.0,-27.911375045776367,12.45022201538086,1.186180830001831,5052.01416015625,0
474.47599999999875,0.06088165566325188,0.0008224805351346731,0.0012726930435746908,0.0,0.0,0.0,0.0,-0.0025024237111210823,-0.00297756539657712,0.0010652507189661264,0.9998762607574463,0.0,0.0,0.0,-27.927906036376953,12.453310012817383,1.2142086029052734,5055.00634765625,0
484.3729999999996,0.06090893968939781,0.0008707024971954525,0.0012312588514760137,0.0,0.0,0.0,0.0,0.0007216291269287467,-0.0005063536809757352,0.00115489331074059,0.997252345085144,0.0,0.0,0.0,-27.910547256469727,12.464468955993652,1.2156507968902588,5051.86474609375,0
494.244999999999,0.06092185899615288,0.0007499259081669152,0.0012200858909636736,0.0,0.0,0.0,0.0,-0.0021634772419929504,-0.00376083143055439,0.0008941440610215068,0.9979534149169922,0.0,0.0,0.0,-27.92179298400879,12.450159072875977,1.23616361618042,5053.89990234375,0
504.1389999999992,0.0609467513859272,0.0008484538411721587,0.0012000943534076214,0.0,0.0,0.0,0.0,0.00042047136230394244,0.0023362780921161175,0.0014153002994135022,1.0001987218856812,0.0,0.0,0.0,-27.904844284057617,12.46744155883789,1.2418782711029053,5050.83251953125,0
514.0149999999994,0.06092274934053421,0.0008157879929058254,0.0011898241937160492,0.0,0.0,0.0,0.0,-0.00025674240896478295,0.0005737040773965418,-0.001716985716484487,0.9973256587982178,0.0,0.0,0.0,-27.8764705657959,12.450307846069336,1.2458292245864868,5045.6962890625,0
523.9079999999994,0.06089029461145401,0.0008477033115923405,0.0012152062263339758,0.0,0.0,0.0,0.0,-0.0017389168497174978,-0.0029417886398732662,0.0016800666926428676,0.9959712028503418,0.0,0.0,0.0,-27.86536407470703,12.453851699829102,1.241531252861023,5043.6865234375,0
533.7849999999999,0.06086508929729462,0.0008144358871504664,0.0012041397858411074,0.0,0.0,0.0,0.0,-0.0021473653614521027,-0.003645862452685833,0.002420178847387433,0.9995266199111938,0.0,0.0,0.0,-27.837888717651367,12.450987815856934,1.2493953704833984,5038.712890625,0
543.6779999999999,0.06083003431558609,0.0008571782382205129,0.0012263399548828602,0.0,0.0,0.0,0.0,-0.0016171063762158155,0.002230800921097398,0.0010241731069982052,0.9997996091842651,0.0,0.0,0.0,-27.826770782470703,12.460846900939941,1.2370128631591797,5036.70068359375,0
553.5550000000003,0.06080180034041405,0.0008271945989690721,0.0012169120600447059,0.0,0.0,0.0,0.0,-0.00028446613578125834,-0.004658406134694815,0.0015894146636128426,0.9990049004554749,0.0,0.0,0.0,-27.79875373840332,12.454134941101074,1.2347272634506226,5031.6298828125,0
563.4509999999991,0.06077025458216667,0.0008935588411986828,0.0012371037155389786,0.0,0.0,0.0,0.0,0.00020682944159489125,0.0021259887143969536,-0.0031524396035820246,0.9986265301704407,0.0,0.0,0.0,-27.79000473022461,12.467220306396484,1.2300288677215576,5030.04638671875,0
573.3259999999991,0.06074020266532898,0.0008654858102090657,0.0012294631451368332,0.0,0.0,0.0,0.0,-0.0005367841804400086,-0.0042540873400866985,0.0016795651754364371,0.9983393549919128,0.0,0.0,0.0,-27.763967514038086,12.455280303955078,1.2323625087738037,5025.333984375,0
583.2199999999993,0.06074832007288933,0.0009356255177408457,0.001202310319058597,0.0,0.0,0.0,0.0,0.001361328992061317,-0.000138479023007676,0.0014953537611290812,1.0001235008239746,0.0,0.0,0.0,-27.750097274780273,12.479503631591797,1.2386443614959717,5022.82275390625,0
593.0959999999995,0.06071954593062401,0.0009104808559641242,0.0011928211897611618,0.0,0.0,0.0,0.0,0.0005376018234528601,0.0029521682299673557,-0.004536888562142849,1.0002989768981934,0.0,0.0,0.0,-27.72265625,12.466174125671387,1.2392303943634033,5017.85595703125,0
602.9899999999998,0.060723043978214264,0.0009564462234266102,0.0011690789833664894,0.0,0.0,0.0,0.0,-0.0012042761081829667,0.0025940719060599804,0.0007568416185677052,0.9982181787490845,0.0,0.0,0.0,-27.71933937072754,12.482063293457031,1.2338004112243652,5017.255859375,0
612.866,0.060695406049489975,0.0009322465630248189,0.001158988568931818,0.0,0.0,0.0,0.0,-0.0013144463300704956,0.0006148872780613601,-0.0010382436448708177,0.9975986480712891,0.0,0.0,0.0,-27.69174575805664,12.465925216674805,1.236208200454712,5012.2607421875,0
622.7649999999994,0.06070058047771454,0.0009838951518759131,0.0011361289070919156,0.0,0.0,0.0,0.0,-0.0031686672009527683,-0.005227266810834408,0.002507055876776576,0.9984179139137268,0.0,0.0,0.0,-27.688562393188477,12.484842300415039,1.230907917022705,5011.6845703125,0
632.6350000000002,0.06067100912332535,0.0009605877567082644,0.0011226051719859242,0.0,0.0,0.0,0.0,0.0004167983715888113,0.004319526720792055,0.0004993575857952237,0.997332751750946,0.0,0.0,0.0,-27.6605281829834,12.476258277893066,1.2386881113052368,5006.61083984375,0
642.5280000000002,0.060673438012599945,0.000995671027339995,0.001094186445698142,0.0,0.0,0.0,0.0,-3.636785186245106e-05,0.0011458437656983733,0.00038355973083525896,0.9996238946914673,0.0,0.0,0.0,-27.658857345581055,12.486960411071777,1.2209138870239258,5006.30810546875,0
652.405999999999,0.060642607510089874,0.0009729505400173366,0.0010774286929517984,0.0,0.0,0.0,0.0,-0.0029135020449757576,0.0005443760310299695,0.002602578606456518,0.999183177947998,0.0,0.0,0.0,-27.63086700439453,12.472552299499512,1.2254235744476318,5001.24169921875,0
662.3079999999991,0.0606357641518116,0.000992097076959908,0.001052647246979177,0.0,0.0,0.0,0.0,-0.0016593815525993705,-0.0009978453163057566,0.000594699289649725,0.9985159039497375,0.0,0.0,0.0,-27.630525588989258,12.48318862915039,1.2180176973342896,5001.1796875,0
672.1749999999993,0.060605283826589584,0.0009674683678895235,0.0010343929752707481,0.0,0.0,0.0,0.0,-0.0017039879458025098,-0.0012786887818947434,0.00042778722126968205,0.9999925494194031,0.0,0.0,0.0,-27.602746963500977,12.474044799804688,1.220715880393982,4996.15234375,0
682.0730000000003,0.06058649346232414,0.0010181671241298318,0.0010304589523002505,0.0,0.0,0.0,0.0,0.001394303748384118,0.002294771606102586,-0.0016218260861933231,0.9994076490402222,0.0,0.0,0.0,-27.602571487426758,12.495285987854004,1.2085645198822021,4996.1201171875,0
691.9449999999997,0.060552556067705154,0.000996156013570726,0.0010134235490113497,0.0,0.0,0.0,0.0,-0.0028061065822839737,-0.0019715626258403063,-0.0006067421636544168,1.0009398460388184,0.0,0.0,0.0,-27.575559616088867,12.482240676879883,1.203538179397583,4991.23095703125,0
701.8379999999997,0.06052859127521515,0.001036405679769814,0.0010083939414471388,0.0,0.0,0.0,0.0,-0.0024075282271951437,0.001359991729259491,-0.0006442951271310449,1.0004607439041138,0.0,0.0,0.0,-27.576255798339844,12.49616813659668,1.1980918645858765,4991.35693359375,0
711.7150000000001,0.06049284711480141,0.0010156788630411029,0.0009938627481460571,0.0,0.0,0.0,0.0,0.0005512185744009912,0.00021904503228142858,0.003046490950509906,0.9985296726226807,0.0,0.0,0.0,-27.550012588500977,12.487922668457031,1.196811556816101,4986.607421875,0
721.607,0.06045525148510933,0.0009923860197886825,0.0009796754457056522,0.0,0.0,0.0,0.0,0.0003813590155914426,-0.00010318690328858793,-0.0005891512264497578,0.9996527433395386,0.0,0.0,0.0,-27.522193908691406,12.469648361206055,1.2019962072372437,4981.572265625,0
731.4849999999988,0.0604156032204628,0.0009666273253969848,0.0009655579924583435,0.0,0.0,0.0,0.0,-0.00016098952619358897,0.0033180543687194586,0.0007454321021214128,0.997874915599823,0.0,0.0,0.0,-27.495468139648438,12.452906608581543,1.2021925449371338,4976.734375,0
741.384,0.060373399406671524,0.0009384139557369053,0.0009511463576927781,0.0,0.0,0.0,0.0,0.0017173372907564044,0.002480457304045558,0.002023897832259536,1.0015311241149902,0.0,0.0,0.0,-27.469196319580078,12.444025039672852,1.2020057439804077,4971.97900390625,0
751.2559999999994,0.06086675822734833,0.0007098354399204254,0.0013156267814338207,0.0,0.0,0.0,0.0,0.00046925811329856515,-0.005132523365318775,0.002075976226478815,1.0016038417816162,0.0,0.0,0.0,-27.517488479614258,12.438617706298828,1.2791045904159546,4980.72021484375,0
761.1499999999996,0.06084473803639412,0.0006713104667142034,0.0013168944278731942,0.0,0.0,0.0,0.0,0.0005902113625779748,0.0007121603121049702,0.0001674653176451102,0.9979618191719055,0.0,0.0,0.0,-27.48943328857422,12.424569129943848,1.2902421951293945,4975.64208984375,0
771.0249999999996,0.06086747720837593,0.0006221292424015701,0.0013638908276334405,0.0,0.0,0.0,0.0,0.0006579993641935289,-0.002216314198449254,0.0018115043640136719,1.000419020652771,0.0,0.0,0.0,-27.533279418945312,12.418216705322266,1.2960946559906006,4983.578125,0
780.9249999999993,0.06084664538502693,0.0005809183930978179,0.001367691671475768,0.0,0.0,0.0,0.0,0.00012203484220663086,0.0023040184751152992,0.0009715722408145666,1.000783085823059,0.0,0.0,0.0,-27.506568908691406,12.405959129333496,1.3003175258636475,4978.744140625,0
790.7939999999999,0.06084928661584854,0.0005778740742243826,0.0014159355778247118,0.0,0.0,0.0,0.0,0.00013221673725638539,0.0010800942545756698,-0.0012605353258550167,0.9998620748519897,0.0,0.0,0.0,-27.5538387298584,12.409152030944824,1.2880455255508423,4987.2998046875,0
800.6880000000001,0.06082926690578461,0.0005359755014069378,0.0014245561324059963,0.0,0.0,0.0,0.0,0.004049751441925764,0.00038322535692714155,0.002350318944081664,1.0002987384796143,0.0,0.0,0.0,-27.5267333984375,12.400019645690918,1.2892664670944214,4982.39404296875,0
810.5650000000005,0.060758691281080246,0.0005347469705156982,0.0014625980984419584,0.0,0.0,0.0,0.0,-0.004561562556773424,-0.004660468082875013,-0.0006969792884774506,0.9999424815177917,0.0,0.0,0.0,-27.568010330200195,12.392223358154297,1.2624497413635254,4989.865234375,0
820.4609999999993,0.0607384517788887,0.0004912364529445767,0.001474900171160698,0.0,0.0,0.0,0.0,0.00107187672983855,0.0014883253024891019,-0.0006539087626151741,0.9996501803398132,0.0,0.0,0.0,-27.54048728942871,12.383901596069336,1.265281319618225,4984.88330078125,0
830.3349999999991,0.060725223273038864,0.0005115271196700633,0.0015388611936941743,0.0,0.0,0.0,0.0,-0.001839173841290176,0.002729172818362713,-0.001619223621673882,0.997763991355896,0.0,0.0,0.0,-27.58735466003418,12.386862754821777,1.2394284009933472,4993.36572265625,0
840.2279999999992,0.06070482358336449,0.00046730920439586043,0.0015547428047284484,0.0,0.0,0.0,0.0,0.0011151055805385113,0.005656660534441471,-0.002457160037010908,0.9978166818618774,0.0,0.0,0.0,-27.56089973449707,12.379688262939453,1.2295488119125366,4988.57763671875,0
850.1049999999996,0.06069055199623108,0.00045711651910096407,0.0015990278916433454,0.0,0.0,0.0,0.0,0.000362114398740232,-0.003623519791290164,0.001460484811104834,0.9998321533203125,0.0,0.0,0.0,-27.60478973388672,12.380145072937012,1.2040425539016724,4996.52197265625,0
859.9969999999994,0.0606674924492836,0.0004094545729458332,0.0016154198674485087,0.0,0.0,0.0,0.0,-0.000887740810867399,-0.0019694985821843147,-0.0007811839459463954,0.9978209733963013,0.0,0.0,0.0,-27.577259063720703,12.366990089416504,1.2129442691802979,4991.53857421875,0
869.875,0.0606430284678936,0.0004291436052881181,0.001675196224823594,0.0,0.0,0.0,0.0,-0.0002967216423712671,-0.001648476580157876,-2.196144123445265e-05,0.9981272220611572,0.0,0.0,0.0,-27.62202262878418,12.38077449798584,1.1937980651855469,4999.640625,0
879.771999999999,0.060618847608566284,0.00038693862734362483,0.0016930627170950174,0.0,0.0,0.0,0.0,0.002051889430731535,-0.0009066153434105217,-0.002973502967506647,0.9979809522628784,0.0,0.0,0.0,-27.59487533569336,12.370277404785156,1.211382269859314,4994.7275390625,0
889.6440000000002,0.06061670929193497,0.00040648007416166365,0.001756698009558022,0.0,0.0,0.0,0.0,0.0009849549969658256,0.001903326716274023,-0.0013846722431480885,0.9989956021308899,0.0,0.0,0.0,-27.636873245239258,12.379735946655273,1.1946382522583008,5002.32861328125,0
899.5370000000003,0.06058589741587639,0.00036453368375077844,0.001777078490704298,0.0,0.0,0.0,0.0,0.0014098972314968705,0.003962107468396425,-0.0008192229433916509,0.9982463121414185,0.0,0.0,0.0,-27.609933853149414,12.363606452941895,1.1887155771255493,4997.45263671875,0
909.4139999999989,0.060618530958890915,0.0003551406553015113,0.001853622612543404,0.0,0.0,0.0,0.0,-0.001773994998075068,-0.004418486729264259,-0.002511638216674328,0.9991952180862427,0.0,0.0,0.0,-27.649938583374023,12.372318267822266,1.204258918762207,5004.693359375,0
919.3089999999993,0.060586970299482346,0.0003072535328101367,0.001878291368484497,0.0,0.0,0.0,0.0,-0.004518465604633093,-0.005567552987486124,0.0009517769212834537,0.9987332224845886,0.0,0.0,0.0,-27.62377166748047,12.362569808959961,1.2136268615722656,4999.95751953125,0
929.1849999999995,0.06059398129582405,0.00030139152659103274,0.001955023966729641,0.0,0.0,0.0,0.0,-0.0007324563339352608,-0.0008584777824580669,-0.004232339095324278,0.9988368153572083,0.0,0.0,0.0,-27.661914825439453,12.381853103637695,1.2201298475265503,5006.86181640625,0
939.0820000000003,0.060823243111371994,0.0006949484231881797,0.001199708553031087,0.0,0.0,0.0,0.0,-0.0009855731623247266,0.0012799298856407404,0.0003969418175984174,0.9993319511413574,0.0,0.0,0.0,-27.667348861694336,12.479202270507812,1.2112984657287598,5007.8447265625,0
948.9549999999999,0.06084151566028595,0.0006907454808242619,0.0012847387697547674,0.0,0.0,0.0,0.0,0.00342719373293221,-0.0034466285724192858,-0.003177694045007229,0.9986659288406372,0.0,0.0,0.0,-27.705400466918945,12.489409446716309,1.2133522033691406,5014.732421875,0
958.848,0.06090144068002701,0.0008082205313257873,0.0011805130634456873,0.0,0.0,0.0,0.0,-0.0030360522214323282,-0.00557342916727066,-0.0005775292520411313,0.9976654052734375,0.0,0.0,0.0,-27.703916549682617,12.499180793762207,1.217386245727539,5014.4638671875,0
968.7250000000004,0.060850027948617935,0.0007863132632337511,0.0012121808249503374,0.0,0.0,0.0,0.0,-0.001038707559928298,-0.0038019169587641954,-0.0022386268246918917,0.9985583424568176,0.0,0.0,0.0,-27.737245559692383,12.504112243652344,1.2294827699661255,5020.49658203125,0
978.6180000000004,0.06084678694605827,0.0008592032827436924,0.0012296212371438742,0.0,0.0,0.0,0.0,-0.0002651409013196826,-0.0025155730545520782,0.0017110835760831833,0.9987230896949768,0.0,0.0,0.0,-27.73137664794922,12.509824752807617,1.2394684553146362,5019.4345703125,0
988.4939999999988,0.060835011303424835,0.0008047345909290016,0.001260532415471971,0.0,0.0,0.0,0.0,0.0015783413546159863,-0.0028450607787817717,-0.001613536849617958,0.9986962080001831,0.0,0.0,0.0,-27.7635555267334,12.502833366394043,1.247059941291809,5025.25927734375,0
998.3889999999992,0.06086597591638565,0.000889189075678587,0.0012313565239310265,0.0,0.0,0.0,0.0,-0.0003520218306221068,-0.0019573094323277473,0.002052320633083582,0.9987961649894714,0.0,0.0,0.0,-27.757404327392578,12.495849609375,1.2422518730163574,5024.1455078125,0
1008.2709999999988,0.06089656427502632,0.000815379258710891,0.0012636950705200434,0.0,0.0,0.0,0.0,0.002015036065131426,-0.0037906200159341097,-0.0007197270751930773,0.9996166825294495,0.0,0.0,0.0,-27.779706954956055,12.487276077270508,1.255271315574646,5028.18212890625,0
1018.1589999999997,0.060922086238861084,0.000864235742483288,0.0012374678626656532,0.0,0.0,0.0,0.0,-0.0025016888976097107,-0.003023747121915221,-0.0032441613730043173,1.0010310411453247,0.0,0.0,0.0,-27.77287483215332,12.484468460083008,1.2592917680740356,5026.94580078125,0
1028.0429999999997,0.060923054814338684,0.0007479991181753576,0.0012381342239677906,0.0,0.0,0.0,0.0,0.0019684405997395515,0.005249655805528164,-0.0031889567617326975,1.000797152519226,0.0,0.0,0.0,-27.795637130737305,12.475604057312012,1.2683446407318115,5031.06591796875,0
1037.9279999999999,0.06091953068971634,0.0007915367605164647,0.0012534563429653645,0.0,0.0,0.0,0.0,0.0009002853184938431,0.0009185255039483309,0.00211448036134243,0.9980944991111755,0.0,0.0,0.0,-27.78963279724121,12.469594955444336,1.2547637224197388,5029.97900390625,0
1047.8099999999995,0.060871392488479614,0.000756468391045928,0.0012823177967220545,0.0,0.0,0.0,0.0,0.003988348413258791,0.0005840196390636265,0.002472551306709647,0.9979984164237976,0.0,0.0,0.0,-27.81395721435547,12.460226058959961,1.2543549537658691,5034.38134765625,0
1057.6970000000001,0.06087740138173103,0.000811717240139842,0.0012918227585032582,0.0,0.0,0.0,0.0,0.0008800944779068232,0.0018877234542742372,-0.0006886512273922563,0.998231828212738,0.0,0.0,0.0,-27.806821823120117,12.456254959106445,1.252040982246399,5033.08984375,0
1067.5830000000005,0.060866862535476685,0.0007701661670580506,0.0013293592492118478,0.0,0.0,0.0,0.0,-0.0010980217484757304,-0.0007853513234294951,-0.0006553290295414627,0.9999822974205017,0.0,0.0,0.0,-27.82857894897461,12.449960708618164,1.248175859451294,5037.0283203125,0
1077.4709999999995,0.06083888188004494,0.0007703054579906166,0.0013676534872502089,0.0,0.0,0.0,0.0,-0.0008990740752778947,-0.004601509775966406,0.0005708352546207607,0.9987678527832031,0.0,0.0,0.0,-27.818723678588867,12.446927070617676,1.2513436079025269,5035.244140625,0
1087.3559999999998,0.06079215183854103,0.0007240355480462313,0.0013980719959363341,0.0,0.0,0.0,0.0,0.0015264458488672972,0.004056284669786692,-0.003260710509493947,0.9982261657714844,0.0,0.0,0.0,-27.841941833496094,12.444198608398438,1.261285662651062,5039.447265625,0
1097.2369999999992,0.060823578387498856,0.0007672980427742004,0.0013665605802088976,0.0,0.0,0.0,0.0,-5.693207276635803e-05,-0.0024091447703540325,0.003304168349131942,0.9963259696960449,0.0,0.0,0.0,-27.829429626464844,12.442954063415527,1.2536494731903076,5037.18212890625,0
1107.1209999999992,0.0608353428542614,0.0006973723066039383,0.001403188332915306,0.0,0.0,0.0,0.0,-0.0012904842151328921,-0.0031168765854090452,-0.0007967319106683135,0.9981381297111511,0.0,0.0,0.0,-27.84788703918457,12.43263053894043,1.2712327241897583,5040.52294921875,0
1117.0049999999992,0.06086820736527443,0.0007514322060160339,0.0013706361642107368,0.0,0.0,0.0,0.0,0.0029737327713519335,0.0011516038794070482,-0.0011201957240700722,0.9987343549728394,0.0,0.0,0.0,-27.83374786376953,12.44167423248291,1.273977518081665,5037.96337890625,0
1126.9030000000002,0.06080172210931778,0.0007104650139808655,0.0013925384264439344,0.0,0.0,0.0,0.0,-0.002612027572467923,-0.00291829789057374,0.005398839246481657,1.000227451324463,0.0,0.0,0.0,-27.85733413696289,12.428815841674805,1.2711336612701416,5042.23291015625,0
1136.7780000000002,0.060844529420137405,0.0007965739350765944,0.001357957487925887,0.0,0.0,0.0,0.0,-0.00016887937090359628,0.0024977109860628843,-0.00325396447442472,1.0010883808135986,0.0,0.0,0.0,-27.843477249145508,12.444635391235352,1.2832475900650024,5039.72509765625,0
1146.6630000000005,0.06075911223888397,0.0007438791217282414,0.001368530560284853,0.0,0.0,0.0,0.0,-0.0023680112790316343,0.006004312075674534,-0.0010027404641732574,1.0012972354888916,0.0,0.0,0.0,-27.864429473876953,12.437582015991211,1.2760308980941772,5043.51708984375,0
1156.5409999999993,0.060788024216890335,0.0008130226051434875,0.0013478726614266634,0.0,0.0,0.0,0.0,-0.0027634717989712954,0.005420847330242395,0.00015305531269405037,0.9986420273780823,0.0,0.0,0.0,-27.854434967041016,12.453011512756348,1.2610307931900024,5041.7080078125,0
1166.438,0.06077508255839348,0.000706132035702467,0.0013559034559875727,0.0,0.0,0.0,0.0,-0.002028038492426276,-0.0006771410116925836,-0.0009555524447932839,0.9992826581001282,0.0,0.0,0.0,-27.872873306274414,12.444330215454102,1.2582732439041138,5045.04541015625,0
1176.3179999999993,0.060808513313531876,0.0007853192510083318,0.001329127000644803,0.0,0.0,0.0,0.0,-0.0022746804170310497,0.0017155169043689966,-0.004911236930638552,0.9993538856506348,0.0,0.0,0.0,-27.861074447631836,12.45667839050293,1.2530031204223633,5042.90966796875,0
1186.2109999999993,0.06080399453639984,0.0007231615018099546,0.0013594544725492597,0.0,0.0,0.0,0.0,-0.0036588592920452356,-0.0017769481055438519,0.0014213031390681863,1.0007187128067017,0.0,0.0,0.0,-27.88161849975586,12.451077461242676,1.2611082792282104,5046.6279296875,0
1196.083999999999,0.06090075522661209,0.0008753875154070556,0.0012710082810372114,0.0,0.0,0.0,0.0,3.7890793464612216e-05,6.466000195359811e-05,0.0030096794944256544,0.9991099834442139,0.0,0.0,0.0,-27.867883682250977,12.476821899414062,1.267205834388733,5044.142578125,0
1205.9740000000002,0.06083511933684349,0.0007747184135951102,0.0012559184106066823,0.0,0.0,0.0,0.0,-0.0007139574736356735,0.002855937695130706,-0.00020536738156806678,0.9976871609687805,0.0,0.0,0.0,-27.88304328918457,12.45909595489502,1.2614654302597046,5046.88623046875,0
1215.851999999999,0.0608685277402401,0.0008444032282568514,0.001218133489601314,0.0,0.0,0.0,0.0,0.0008640073356218636,0.004283824935555458,-0.002706429222598672,0.9999648332595825,0.0,0.0,0.0,-27.87223243713379,12.468944549560547,1.2550208568572998,5044.92919921875,0
1225.7399999999998,0.06087347865104675,0.0007691247737966478,0.0012343956623226404,0.0,0.0,0.0,0.0,-0.0002438600640743971,0.0005598575226031244,-0.002097338205203414,0.9992454648017883,0.0,0.0,0.0,-27.887691497802734,12.458706855773926,1.2579141855239868,5047.7275390625,0
1235.6189999999988,0.060911983251571655,0.0008565129246562719,0.001197494799271226,0.0,0.0,0.0,0.0,-0.0010012368438765407,4.8264479119097814e-05,0.002305872505530715,0.9987531900405884,0.0,0.0,0.0,-27.869232177734375,12.469137191772461,1.2557307481765747,5044.38623046875,0
1245.5069999999996,0.060852210968732834,0.0007658168906345963,0.0011850157752633095,0.0,0.0,0.0,0.0,0.002687014639377594,-0.002159970812499523,-0.001662879018113017,1.0006591081619263,0.0,0.0,0.0,-27.885562896728516,12.4593505859375,1.2571052312850952,5047.34228515625,0
1255.3909999999996,0.060847871005535126,0.0008068367606028914,0.0011896879877895117,0.0,0.0,0.0,0.0,0.0013778838329017162,-0.0003752178163267672,-0.0017481199465692043,0.9995891451835632,0.0,0.0,0.0,-27.872968673706055,12.457862854003906,1.2529644966125488,5045.0625,0
1265.2749999999996,0.06078680604696274,0.0007759099826216698,0.0012098245788365602,0.0,0.0,0.0,0.0,-0.0021818012464791536,0.004310943651944399,-0.00011307593376841396,0.9974748492240906,0.0,0.0,0.0,-27.890905380249023,12.453272819519043,1.2507803440093994,5048.30908203125,0
1275.1659999999993,0.06079437583684921,0.0008255258435383439,0.0011996738612651825,0.0,0.0,0.0,0.0,0.0003950327809434384,0.008357579819858074,0.0007164960261434317,1.0014150142669678,0.0,0.0,0.0,-27.877534866333008,12.457866668701172,1.2337285280227661,5045.88916015625,0
1285.048999999999,0.060821786522865295,0.0007644742727279663,0.0012335211504250765,0.0,0.0,0.0,0.0,-0.001402878318913281,-0.0038062611129134893,-0.0011707325465977192,0.9992889761924744,0.0,0.0,0.0,-27.895524978637695,12.452285766601562,1.2257617712020874,5049.14501953125,0
1294.9300000000003,0.06082645058631897,0.0008160346769727767,0.0012318401131778955,0.0,0.0,0.0,0.0,0.0020718437153846025,0.004560542292892933,-0.00282080564647913,0.9991705417633057,0.0,0.0,0.0,-27.88165855407715,12.461305618286133,1.2208646535873413,5046.6357421875,0
1304.83,0.060824859887361526,0.0007641292759217322,0.0012647781986743212,0.0,0.0,0.0,0.0,-0.0016999642830342054,-0.005179758183658123,0.0010356464190408587,0.9993929266929626,0.0,0.0,0.0,-27.900426864624023,12.454093933105469,1.2261042594909668,5050.0322265625,0
1314.6990000000005,0.060822743922472,0.0007853340357542038,0.001261984696611762,0.0,0.0,0.0,0.0,0.001723306835629046,-0.0013957149349153042,-0.0005718040047213435,1.000685453414917,0.0,0.0,0.0,-27.885339736938477,12.460847854614258,1.2321546077728271,5047.3017578125,0
1324.5910000000003,0.060894034802913666,0.0007035753224045038,0.0013078234624117613,0.0,0.0,0.0,0.0,0.0014913619961589575,-0.0031676369253546,-0.0001667415926931426,1.001061201095581,0.0,0.0,0.0,-27.901931762695312,12.456875801086426,1.2455980777740479,5050.3046875,0
1334.4759999999987,0.060947760939598083,0.0008278997847810388,0.0012736450880765915,0.0,0.0,0.0,0.0,0.00018066893971990794,-0.00044676210382021964,0.00046847175690345466,0.9999000430107117,0.0,0.0,0.0,-27.885387420654297,12.473432540893555,1.2477346658706665,5047.310546875,0
1344.3619999999992,0.06086188182234764,0.0007908186526037753,0.0012888574274256825,0.0,0.0,0.0,0.0,-0.001889321836642921,-0.0034548465628176928,0.0009381237905472517,0.9975152015686035,0.0,0.0,0.0,-27.904708862304688,12.46340560913086,1.2421929836273193,5050.8076171875,0
1354.2389999999996,0.06085601821541786,0.0008195015252567828,0.0012991976691409945,0.0,0.0,0.0,0.0,8.264390635304153e-05,8.769260603003204e-05,-0.0004178797535132617,1.0011169910430908,0.0,0.0,0.0,-27.892066955566406,12.466877937316895,1.2501150369644165,5048.51953125,0
1364.1350000000002,0.06085536256432533,0.0007534056785516441,0.0013305782340466976,0.0,0.0,0.0,0.0,0.0013505297247320414,0.0029303005430847406,0.0011478862725198269,0.9998648762702942,0.0,0.0,0.0,-27.907655715942383,12.458745956420898,1.2484991550445557,5051.3408203125,0
1374.009,0.06091737374663353,0.0008838342037051916,0.0012939820298925042,0.0,0.0,0.0,0.0,2.389917972323019e-05,-0.001222961232997477,0.0020079577807337046,1.0008764266967773,0.0,0.0,0.0,-27.890798568725586,12.472086906433105,1.2418235540390015,5048.28955078125,0
1383.905999999999,0.06088218837976456,0.000800947193056345,0.0013024527579545975,0.0,0.0,0.0,0.0,-0.0027407438028603792,0.0032585870940238237,0.0014183545717969537,0.9994724988937378,0.0,0.0,0.0,-27.90351676940918,12.455039978027344,1.2459042072296143,5050.591796875,0
1393.7870000000003,0.06092004477977753,0.0008457369985990226,0.0012731482274830341,0.0,0.0,0.0,0.0,0.000891081232111901,0.00010314647806808352,-0.0025148154236376286,0.9981381297111511,0.0,0.0,0.0,-27.889589309692383,12.472306251525879,1.240293264389038,5048.07080078125,0
1403.673999999999,0.06089358031749725,0.0007813069969415665,0.0012928284704685211,0.0,0.0,0.0,0.0,-0.0001296136324526742,-0.001530747045762837,-0.0017641064478084445,0.999358594417572,0.0,0.0,0.0,-27.90536117553711,12.465860366821289,1.2511001825332642,5050.92578125,0
1413.554,0.060938697308301926,0.0008405102998949587,0.0012623965740203857,0.0,0.0,0.0,0.0,-0.0013127836864441633,0.00037156042526476085,0.0018934478284791112,1.0016863346099854,0.0,0.0,0.0,-27.890594482421875,12.478157043457031,1.259445071220398,5048.25341796875,0
1423.449999999999,0.06087145209312439,0.0007962800445966423,0.001278711250051856,0.0,0.0,0.0,0.0,0.0019091638969257474,-0.0032302227336913347,-0.0009634345187805593,1.0008995532989502,0.0,0.0,0.0,-27.907787322998047,12.466641426086426,1.2557947635650635,5051.36474609375,0
1433.3220000000001,0.060910072177648544,0.0008704434148967266,0.0012633963488042355,0.0,0.0,0.0,0.0,-0.0009234650060534477,-0.004903648514300585,-0.0018882221775129437,1.0009034872055054,0.0,0.0,0.0,-27.893617630004883,12.476531982421875,1.2566441297531128,5048.80029296875,0
1443.2219999999998,0.06085389852523804,0.0007824880303815007,0.0012649173149839044,0.0,0.0,0.0,0.0,0.0019107351545244455,-0.001702039153315127,-0.0027777752839028835,0.9981845021247864,0.0,0.0,0.0,-27.909496307373047,12.463863372802734,1.2700591087341309,5051.67431640625,0
1453.0920000000006,0.06085413321852684,0.0008267359808087349,0.0012880431022495031,0.0,0.0,0.0,0.0,0.002551271114498377,-0.00031924183713272214,-0.0016542255179956555,0.9979668259620667,0.0,0.0,0.0,-27.892871856689453,12.466837882995605,1.2721606492996216,5048.66552734375,0
1462.991,0.06088107451796532,0.00079145043855533,0.0013409443199634552,0.0,0.0,0.0,0.0,0.0004873013240285218,-0.0022262618876993656,-0.0025461227633059025,0.9986228942871094,0.0,0.0,0.0,-27.908994674682617,12.46468448638916,1.2802364826202393,5051.58349609375,0
1472.8680000000004,0.0608854740858078,0.0007865845691412687,0.0013369210064411163,0.0,0.0,0.0,0.0,-0.002363919746130705,-0.003946657292544842,0.001875256304629147,0.9986162781715393,0.0,0.0,0.0,-27.89194107055664,12.460000038146973,1.2873893976211548,5048.49658203125,0
1482.753999999999,0.06083177402615547,0.000745360623113811,0.001359901623800397,0.0,0.0,0.0,0.0,9.94190777419135e-05,-0.0008989663911052048,-0.0005415419000200927,0.9983927011489868,0.0,0.0,0.0,-27.909311294555664,12.45666217803955,1.293715476989746,5051.64111328125,0
1492.628999999999,0.060846827924251556,0.0007704961462877691,0.0013484860537573695,0.0,0.0,0.0,0.0,-0.0003577113966457546,-0.0025699278339743614,0.0014404773246496916,0.9989106059074402,0.0,0.0,0.0,-27.894176483154297,12.463228225708008,1.2930793762207031,5048.9013671875,0
1502.5280000000002,0.060846906155347824,0.0007426099618896842,0.0013926764950156212,0.0,0.0,0.0,0.0,-0.002517949091270566,4.513566454988904e-05,0.003072500927373767,0.9975601434707642,0.0,0.0,0.0,-27.91080093383789,12.462010383605957,1.297525405883789,5051.91015625,0
1512.4079999999994,0.06087575852870941,0.0008121071732603014,0.0013796661514788866,0.0,0.0,0.0,0.0,0.0039304764941334724,-0.0016734974924474955,-0.0002817342756316066,0.9991028904914856,0.0,0.0,0.0,-27.896926879882812,12.476675033569336,1.2931207418441772,5049.39892578125,0
1522.2909999999993,0.06082183122634888,0.0007504518725909293,0.0013898444594815373,0.0,0.0,0.0,0.0,-0.0003672669699881226,-0.0013872425770387053,0.0010616451036185026,0.9983099102973938,0.0,0.0,0.0,-27.913619995117188,12.459135055541992,1.299895167350769,5052.4208984375,0
1532.1800000000003,0.06088471785187721,0.0008639008738100529,0.0013403241755440831,0.0,0.0,0.0,0.0,-0.0005058093229308724,-0.0019556712359189987,-0.002742040902376175,0.9984056949615479,0.0,0.0,0.0,-27.89815330505371,12.481115341186523,1.3005659580230713,5049.62109375,0
1542.0609999999997,0.06084371358156204,0.0008017352083697915,0.0013473490253090858,0.0,0.0,0.0,0.0,-0.0005091028870083392,-0.0044166892766952515,-0.001308898557908833,0.9987694025039673,0.0,0.0,0.0,-27.914648056030273,12.46810245513916,1.3080995082855225,5052.6064453125,0
1551.9390000000003,0.060889434069395065,0.0008748127147555351,0.0013018238823860884,0.0,0.0,0.0,0.0,0.0016138256760314107,-0.0021735394839197397,-0.0002416203496977687,0.9998116493225098,0.0,0.0,0.0,-27.903339385986328,12.481358528137207,1.311596393585205,5050.5595703125,0
1561.833999999999,0.06085478141903877,0.0008016973733901978,0.0013034625444561243,0.0,0.0,0.0,0.0,0.0018975511193275452,0.005647347774356604,0.0002946022432297468,1.0001893043518066,0.0,0.0,0.0,-27.920366287231445,12.468478202819824,1.3208669424057007,5053.6416015625,0
1571.708999999999,0.060892313718795776,0.0008929155301302671,0.001273689209483564,0.0,0.0,0.0,0.0,0.0020307127851992846,0.0042196656577289104,-0.001015400281175971,1.0011463165283203,0.0,0.0,0.0,-27.9058837890625,12.478110313415527,1.3019013404846191,5051.0205078125,0
1581.607,0.06085427105426788,0.0008285015355795622,0.0012760255485773087,0.0,0.0,0.0,0.0,-0.0018647187389433384,0.0029061862733215094,0.0002615197154227644,1.0008645057678223,0.0,0.0,0.0,-27.922006607055664,12.464187622070312,1.291002869606018,5053.93896484375,0
1591.4779999999992,0.060889825224876404,0.0009099834132939577,0.001248332904651761,0.0,0.0,0.0,0.0,0.0029893831815570593,0.0009436327964067459,0.0013848879607394338,0.999740481376648,0.0,0.0,0.0,-27.905414581298828,12.475281715393066,1.277712345123291,5050.935546875,0
1601.369999999999,0.06085945665836334,0.0008391415467485785,0.0012518811272457242,0.0,0.0,0.0,0.0,-0.00421809870749712,-0.0039941356517374516,0.0029686475172638893,0.9988024830818176,0.0,0.0,0.0,-27.923402786254883,12.458099365234375,1.2871739864349365,5054.19140625,0
1611.262999999999,0.0608476847410202,0.0008624701877124608,0.0012700727675110102,0.0,0.0,0.0,0.0,-0.00339436624199152,0.0005358820781111717,0.002114766277372837,0.9973859786987305,0.0,0.0,0.0,-27.911357879638672,12.463863372802734,1.302695631980896,5052.01123046875,0
1621.143,0.06083457171916962,0.000799947592895478,0.00128445983864367,0.0,0.0,0.0,0.0,-0.001096343738026917,0.0030758557841181755,0.0010040758643299341,0.9978396892547607,0.0,0.0,0.0,-27.929628372192383,12.459525108337402,1.3096239566802979,5055.31787109375,0
1631.0299999999988,0.060848038643598557,0.0008758634212426841,0.0012878210982307792,0.0,0.0,0.0,0.0,0.0045100487768650055,0.0038819927722215652,-0.0038144083227962255,1.0003840923309326,0.0,0.0,0.0,-27.912607192993164,12.467374801635742,1.291715383529663,5052.2373046875,0
1640.911,0.06085644289851189,0.0008112064097076654,0.0013085901737213135,0.0,0.0,0.0,0.0,0.0009156721644103527,-0.002756659174337983,0.0009783897548913956,0.9991026520729065,0.0,0.0,0.0,-27.93225860595703,12.450961112976074,1.2853403091430664,5055.79443359375,0
1650.7889999999989,0.06086340174078941,0.0008689813548699021,0.00131798698566854,0.0,0.0,0.0,0.0,0.0018894135719165206,0.0021987068466842175,0.0014300680486485362,1.0003736019134521,0.0,0.0,0.0,-27.914731979370117,12.457511901855469,1.2833806276321411,5052.62158203125,0
1660.6849999999995,0.06083996221423149,0.0008007606375031173,0.0013261958956718445,0.0,0.0,0.0,0.0,-0.0013358568539842963,0.0004048870468977839,-0.002661690814420581,0.9999807476997375,0.0,0.0,0.0,-27.930538177490234,12.444059371948242,1.2777172327041626,5055.482421875,0
1670.5609999999997,0.06085476651787758,0.000871477706823498,0.0013293067459017038,0.0,0.0,0.0,0.0,0.0020682208705693483,0.0019788360223174095,0.002792386570945382,0.9984750151634216,0.0,0.0,0.0,-27.915374755859375,12.450154304504395,1.2656832933425903,5052.73828125,0
1680.4529999999995,0.06083554029464722,0.000807381235063076,0.0013441795017570257,0.0,0.0,0.0,0.0,-0.0019378145225346088,0.00039753710734657943,-0.0024246005341410637,0.9988682866096497,0.0,0.0,0.0,-27.93141746520996,12.436592102050781,1.2625348567962646,5055.6416015625,0
1690.3279999999995,0.06085246801376343,0.0008665997884236276,0.001339408801868558,0.0,0.0,0.0,0.0,-0.00014170061331242323,-0.002363531617447734,0.0019487752579152584,1.0009270906448364,0.0,0.0,0.0,-27.91460418701172,12.445451736450195,1.2505378723144531,5052.59912109375,0
1700.232,0.06083647906780243,0.0008023777045309544,0.001356676104478538,0.0,0.0,0.0,0.0,-0.002103508682921529,0.004609500057995319,0.0005251491675153375,1.000566840171814,0.0,0.0,0.0,-27.933141708374023,12.43521499633789,1.254517674446106,5055.95361328125,0
1710.1049999999996,0.06089148670434952,0.0008990008500404656,0.0013123380485922098,0.0,0.0,0.0,0.0,0.0006925783818587661,-0.0012658782070502639,0.0018574271816760302,1.00270414352417,0.0,0.0,0.0,-27.914838790893555,12.4530611038208,1.2436641454696655,5052.6416015625,0
1720.0029999999988,0.06081273406744003,0.0008438606164418161,0.0013151613529771566,0.0,0.0,0.0,0.0,-0.002477893140166998,-6.808031230320921e-06,-0.0012103572953492403,0.9993346929550171,0.0,0.0,0.0,-27.931018829345703,12.439998626708984,1.2471405267715454,5055.56982421875,0
1729.869999999999,0.060886818915605545,0.0009506444912403822,0.0012489061336964369,0.0,0.0,0.0,0.0,-0.0019015665166079998,-0.0040445271879434586,-0.00023487297585234046,0.9984968304634094,0.0,0.0,0.0,-27.9206485748291,12.462099075317383,1.2601745128631592,5053.69287109375,0
1739.7709999999988,0.060823872685432434,0.0008816550252959132,0.0012444197200238705,0.0,0.0,0.0,0.0,0.0002296099701197818,-0.0031810044310986996,-0.0027626699302345514,0.9971516132354736,0.0,0.0,0.0,-27.939546585083008,12.449774742126465,1.264795184135437,5057.11328125,0
1749.6459999999988,0.06084916740655899,0.0009491655509918928,0.001224032836034894,0.0,0.0,0.0,0.0,0.0014065937139093876,-0.0003048629150725901,0.0015289777657017112,0.9975511431694031,0.0,0.0,0.0,-27.924989700317383,12.460012435913086,1.270145058631897,5054.478515625,0
1759.539999999999,0.06086456775665283,0.0008642603061161935,0.0012325156712904572,0.0,0.0,0.0,0.0,0.000904378539416939,-0.0013627251610159874,0.0007874438888393342,0.9965551495552063,0.0,0.0,0.0,-27.9454345703125,12.443957328796387,1.2855126857757568,5058.1787109375,0
1769.4130000000005,0.060888271778821945,0.0009233012096956372,0.0012072462122887373,0.0,0.0,0.0,0.0,0.0025082407519221306,-0.0025776962283998728,-0.002642137696966529,0.9989893436431885,0.0,0.0,0.0,-27.928085327148438,12.450888633728027,1.2915483713150024,5055.03857421875,0
1779.3060000000005,0.06090908497571945,0.0008339129853993654,0.0012143028434365988,0.0,0.0,0.0,0.0,0.0012539137387648225,0.002613641554489732,-0.0008949350449256599,1.0012661218643188,0.0,0.0,0.0,-27.942886352539062,12.432019233703613,1.306726336479187,5057.7177734375,0
1789.1810000000005,0.06089482456445694,0.0008379180799238384,0.001225961372256279,0.0,0.0,0.0,0.0,-0.000929140136577189,0.0011795117752626538,-0.0022256241645663977,1.000977635383606,0.0,0.0,0.0,-27.926347732543945,12.428338050842285,1.2891767024993896,5054.72412109375,0
1799.0769999999993,0.06093684956431389,0.0007525013061240315,0.0012509095249697566,0.0,0.0,0.0,0.0,-0.0017079839017242193,-0.0019364345353096724,-0.0010110196890309453,0.9983517527580261,0.0,0.0,0.0,-27.94593620300293,12.417793273925781,1.295149564743042,5058.27001953125,0
1808.9529999999995,0.06093953177332878,0.000813596008811146,0.001273180590942502,0.0,0.0,0.0,0.0,0.000653493800200522,0.004603226203471422,0.0006454429822042584,0.997690737247467,0.0,0.0,0.0,-27.9268741607666,12.426777839660645,1.2967360019683838,5054.8193359375,0
1818.842999999999,0.06091809272766113,0.0007252597133629024,0.0012776015792042017,0.0,0.0,0.0,0.0,0.0016212656628340483,-0.0017059920355677605,0.001159507199190557,1.0007387399673462,0.0,0.0,0.0,-27.94536781311035,12.415194511413574,1.2997771501541138,5058.1669921875,0
1828.7199999999993,0.060927849262952805,0.0007751346565783024,0.0012910596560686827,0.0,0.0,0.0,0.0,0.0014842805685475469,0.00319302873685956,0.00034131581196561456,1.0000478029251099,0.0,0.0,0.0,-27.93221092224121,12.423145294189453,1.299492597579956,5055.78564453125,0
1838.6119999999992,0.06087400019168854,0.0007273780647665262,0.0013051279820501804,0.0,0.0,0.0,0.0,0.0001181008483399637,0.001231755712069571,0.00038052056333981454,0.998202383518219,0.0,0.0,0.0,-27.94611930847168,12.413805961608887,1.2900280952453613,5058.302734375,0
1848.4869999999992,0.06089361011981964,0.0007641524425707757,0.0012961511965841055,0.0,0.0,0.0,0.0,-0.0002602683671284467,-0.005552617367357016,-0.00026576558593660593,1.000292181968689,0.0,0.0,0.0,-27.929710388183594,12.41431999206543,1.284122347831726,5055.3330078125,0
1858.3799999999992,0.06085127219557762,0.0007567263091914356,0.0013365133199840784,0.0,0.0,0.0,0.0,-0.00025707980967126787,0.004938657861202955,0.0011666500940918922,0.9973927140235901,0.0,0.0,0.0,-27.944013595581055,12.40874195098877,1.2909566164016724,5057.921875,0
1868.271999999999,0.06087280064821243,0.0008335890015587211,0.0013403943739831448,0.0,0.0,0.0,0.0,-0.0010570524027571082,-0.003111648140475154,-0.00029138874378986657,0.998353898525238,0.0,0.0,0.0,-27.927637100219727,12.420616149902344,1.2715916633605957,5054.9580078125,0
1878.152,0.060780856758356094,0.0007848996901884675,0.001344288233667612,0.0,0.0,0.0,0.0,0.00016702714492566884,0.006718738935887814,-0.0007894375594332814,1.0012043714523315,0.0,0.0,0.0,-27.94449234008789,12.410826683044434,1.2715641260147095,5058.00830078125,0
1888.0280000000002,0.06083569675683975,0.0008876235806383193,0.0013044965453445911,0.0,0.0,0.0,0.0,0.0025915137957781553,-0.004247778560966253,-0.0020970876794308424,1.000014305114746,0.0,0.0,0.0,-27.930204391479492,12.425209045410156,1.2592195272445679,5055.42236328125,0
1897.9130000000005,0.06078524887561798,0.0008242736221291125,0.001316484296694398,0.0,0.0,0.0,0.0,0.00055238779168576,-0.009121796116232872,0.000705583777744323,0.9968844652175903,0.0,0.0,0.0,-27.95319938659668,12.410796165466309,1.2725070714950562,5059.58447265625,0
1907.8089999999993,0.060826584696769714,0.0009047883795574307,0.001285830046981573,0.0,0.0,0.0,0.0,0.003424278926104307,0.0030858851969242096,0.0011870285961776972,0.9972293376922607,0.0,0.0,0.0,-27.939584732055664,12.423685073852539,1.2842355966567993,5057.12060546875,0
1917.6839999999993,0.06084844097495079,0.0008177069248631597,0.0013014969881623983,0.0,0.0,0.0,0.0,-0.0008225163328461349,-0.00011374925816198811,-0.0018025371246039867,1.0008994340896606,0.0,0.0,0.0,-27.958576202392578,12.408279418945312,1.2859647274017334,5060.55810546875,0
1927.574999999999,0.06090124323964119,0.0008797110058367252,0.0012514155823737383,0.0,0.0,0.0,0.0,0.0008753484580665827,0.006987951695919037,0.0014840501826256514,0.9986267685890198,0.0,0.0,0.0,-27.9437255859375,12.417094230651855,1.279099702835083,5057.8701171875,0
1937.4539999999997,0.06087225675582886,0.0008248407975770533,0.0012603977229446173,0.0,0.0,0.0,0.0,-0.002139928750693798,-0.002214288804680109,-0.0011325558880344033,0.9982348084449768,0.0,0.0,0.0,-27.96368408203125,12.400762557983398,1.2627789974212646,5061.48291015625,0
1947.3449999999993,0.0609467588365078,0.0009333593770861626,0.0011971775675192475,0.0,0.0,0.0,0.0,0.00026703643379732966,0.0032701189629733562,0.00018859561532735825,0.9986425042152405,0.0,0.0,0.0,-27.952383041381836,12.422137260437012,1.26259446144104,5059.4365234375,0
1957.2279999999992,0.06090189889073372,0.0008633200777694583,0.0011870921589434147,0.0,0.0,0.0,0.0,0.003008352592587471,0.0019148762803524733,8.511387568432838e-05,0.9981603026390076,0.0,0.0,0.0,-27.971830368041992,12.413125038146973,1.26382315158844,5062.95703125,0
1967.1080000000002,0.06091707572340965,0.0009035478578880429,0.0011768843978643417,0.0,0.0,0.0,0.0,0.0004578784282784909,-0.0025318043772131205,-0.0014629856450483203,0.9976819753646851,0.0,0.0,0.0,-27.95319175720215,12.410615921020508,1.2556356191635132,5059.5830078125,0
1976.9989999999998,0.060859307646751404,0.0008206396014429629,0.0011582779698073864,0.0,0.0,0.0,0.0,-0.0002825880073942244,-0.006525176111608744,-0.00017174157255794853,0.9992703795433044,0.0,0.0,0.0,-27.977781295776367,12.395655632019043,1.260288953781128,5064.0341796875,0
1986.8809999999994,0.06083948165178299,0.000793977698776871,0.001170272589661181,0.0,0.0,0.0,0.0,-0.00075370172271505,-0.0019588693976402283,0.0010727421613410115,1.00197434425354,0.0,0.0,0.0,-27.9592342376709,12.389962196350098,1.2749143838882446,5060.67724609375,0
1996.7639999999992,0.06084192171692848,0.000766872544772923,0.001203463296405971,0.0,0.0,0.0,0.0,0.0006113860290497541,0.0020031991880387068,-0.0013820219319313765,1.0015085935592651,0.0,0.0,0.0,-27.978445053100586,12.38762378692627,1.2788907289505005,5064.154296875,0
2006.646999999999,0.0608455091714859,0.0008257162990048528,0.0012243364471942186,0.0,0.0,0.0,0.0,-0.0003606648533605039,-0.0058061350136995316,0.00014228108921088278,0.9982513785362244,0.0,0.0,0.0,-27.961132049560547,12.392337799072266,1.2639131546020508,5061.0205078125,0
2016.5329999999994,0.060891296714544296,0.0007290866342373192,0.0012452093651518226,0.0,0.0,0.0,0.0,0.0017353584989905357,0.0049625965766608715,-0.0024817190133035183,0.9980480074882507,0.0,0.0,0.0,-27.976327896118164,12.383834838867188,1.2931182384490967,5063.77099609375,0
2026.4179999999997,0.060906536877155304,0.0007758275605738163,0.0012494816910475492,0.0,0.0,0.0,0.0,3.343404387123883e-05,0.004439733922481537,0.0014313996070995927,0.9993665218353271,0.0,0.0,0.0,-27.96084213256836,12.382935523986816,1.271018624305725,5060.96826171875,0
2036.3060000000005,0.06090732663869858,0.0006789619801566005,0.0012583555653691292,0.0,0.0,0.0,0.0,-0.000619807280600071,0.0019225138239562511,-0.0010199907701462507,1.0010815858840942,0.0,0.0,0.0,-27.976036071777344,12.370869636535645,1.2689725160598755,5063.71875,0
2046.188,0.060928601771593094,0.0007731295772828162,0.0012776687508448958,0.0,0.0,0.0,0.0,-0.00232883938588202,-0.001408793032169342,0.0008711741538718343,0.9983591437339783,0.0,0.0,0.0,-27.957988739013672,12.386643409729004,1.26067054271698,5060.4521484375,0
2056.0740000000005,0.060940973460674286,0.0007038073381409049,0.0013073942391201854,0.0,0.0,0.0,0.0,0.0017725195502862334,0.001564927282743156,0.0006789956241846085,0.9995009899139404,0.0,0.0,0.0,-27.975576400756836,12.384861946105957,1.277592658996582,5063.63525390625,0
2065.9580000000005,0.06096833571791649,0.0007704861927777529,0.0013135215267539024,0.0,0.0,0.0,0.0,-0.0026491263415664434,0.00016180836246348917,0.0023330338299274445,0.9988252520561218,0.0,0.0,0.0,-27.96194839477539,12.38631534576416,1.2659038305282593,5061.16845703125,0
2075.8459999999995,0.060902174562215805,0.0007187479641288519,0.0013285637833178043,0.0,0.0,0.0,0.0,-0.0001586172147653997,0.0018278375500813127,-0.0012635166058316827,0.9988434910774231,0.0,0.0,0.0,-27.97503662109375,12.37786865234375,1.2681005001068115,5063.537109375,0
2085.7299999999996,0.060929473489522934,0.0007671573548577726,0.0013249574694782495,0.0,0.0,0.0,0.0,-0.0006460585864260793,-0.003177115460857749,-0.0015287561109289527,0.9981651902198792,0.0,0.0,0.0,-27.960071563720703,12.383567810058594,1.2600396871566772,5060.82861328125,0
2095.6139999999996,0.06091608852148056,0.0006993568385951221,0.0013506663963198662,0.0,0.0,0.0,0.0,0.00143767602276057,0.004978344310075045,-0.0001792534749256447,0.9985599517822266,0.0,0.0,0.0,-27.98185920715332,12.376232147216797,1.265292763710022,5064.7724609375,0
2105.4979999999996,0.06097482889890671,0.0008011963218450546,0.0013192695332691073,0.0,0.0,0.0,0.0,0.002913830569013953,-0.004626865964382887,-0.0022718338295817375,1.0002893209457397,0.0,0.0,0.0,-27.964624404907227,12.390278816223145,1.255458950996399,5061.65283203125,0
2115.383,0.06088143587112427,0.0007452323334291577,0.00131998211145401,0.0,0.0,0.0,0.0,-0.0032278194557875395,-0.003785522887483239,-0.00016235010116361082,0.9993497729301453,0.0,0.0,0.0,-27.97871971130371,12.371801376342773,1.258499026298523,5064.20458984375,0
2125.2739999999994,0.060902319848537445,0.0007953366730362177,0.0013196395011618733,0.0,0.0,0.0,0.0,-0.003269145730882883,-0.0005878082010895014,0.0032504661940038204,0.997740626335144,0.0,0.0,0.0,-27.96420669555664,12.38659381866455,1.2638293504714966,5061.5771484375,0
2135.1579999999994,0.06087462604045868,0.0007219629478640854,0.0013349822256714106,0.0,0.0,0.0,0.0,0.0003828339104074985,-0.0053578815422952175,0.0025750540662556887,0.9988198280334473,0.0,0.0,0.0,-27.978357315063477,12.381946563720703,1.265023946762085,5064.13818359375,0
2145.0370000000003,0.060936760157346725,0.0007983422838151455,0.001286444952711463,0.0,0.0,0.0,0.0,-0.00033792617614381015,-0.0014765033265575767,-0.004319168161600828,0.9995419979095459,0.0,0.0,0.0,-27.9616641998291,12.396707534790039,1.280185341835022,5061.1171875,0
2154.9220000000005,0.06086227297782898,0.0007408866076730192,0.0012909525539726019,0.0,0.0,0.0,0.0,0.0006750634638592601,-0.004454537760466337,0.0034881068859249353,0.9993298649787903,0.0,0.0,0.0,-27.979875564575195,12.380060195922852,1.2734699249267578,5064.41357421875,0
2164.807999999999,0.060912251472473145,0.0008341262582689524,0.0012607689714059234,0.0,0.0,0.0,0.0,0.0016558774514123797,-0.0036980868317186832,-0.002972546499222517,1.0002868175506592,0.0,0.0,0.0,-27.963356018066406,12.399279594421387,1.2776110172271729,5061.42333984375,0
2174.7019999999993,0.060902856290340424,0.0007936164038255811,0.001297646900638938,0.0,0.0,0.0,0.0,0.0009735471103340387,0.0008431809255853295,0.0030496197286993265,1.0001612901687622,0.0,0.0,0.0,-27.981674194335938,12.40108871459961,1.2824763059616089,5064.7392578125,0
2184.5789999999997,0.06093335524201393,0.0008510543848387897,0.001281054224818945,0.0,0.0,0.0,0.0,0.00017055115313269198,-0.0028720637783408165,-0.00028471200494095683,0.9971169829368591,0.0,0.0,0.0,-27.963804244995117,12.414421081542969,1.2827792167663574,5061.50439453125,0
2194.4619999999995,0.060867853462696075,0.00078258675057441,0.0012869618367403746,0.0,0.0,0.0,0.0,-0.0006342833512462676,0.002565561793744564,-0.0007673369836993515,0.9981866478919983,0.0,0.0,0.0,-27.982908248901367,12.405902862548828,1.2846277952194214,5064.9619140625,0
2204.3469999999998,0.060873646289110184,0.0008265218348242342,0.0012952451361343265,0.0,0.0,0.0,0.0,-0.00029630865901708603,-0.000719700416084379,0.002102604368701577,1.001291036605835,0.0,0.0,0.0,-27.96502685546875,12.41083812713623,1.272491455078125,5061.7255859375,0
2214.232,0.06087132915854454,0.0007412251434288919,0.001317132031545043,0.0,0.0,0.0,0.0,-0.0008935019723139703,-0.0007818138692528009,0.004034693352878094,0.9976491928100586,0.0,0.0,0.0,-27.98023796081543,12.396430969238281,1.2827720642089844,5064.47900390625,0
2224.117,0.06087501347064972,0.0007454495062120259,0.001316211186349392,0.0,0.0,0.0,0.0,-0.0001347327051917091,-0.004787960089743137,-0.0010515130124986172,0.9993619918823242,0.0,0.0,0.0,-27.961591720581055,12.39978313446045,1.2852534055709839,5061.10400390625,0
2234.0110000000004,0.060825664550065994,0.0007044033845886588,0.0013450572732836008,0.0,0.0,0.0,0.0,0.0006329716416075826,-0.002421105280518532,-0.0003839487908408046,0.9996511340141296,0.0,0.0,0.0,-27.98173713684082,12.397747993469238,1.300299048423767,5064.75048828125,0
2243.886999999999,0.06085934489965439,0.0008001828100532293,0.0013359310105443,0.0,0.0,0.0,0.0,-0.0006847690674476326,-0.002723338082432747,-0.003585388185456395,0.9988492131233215,0.0,0.0,0.0,-27.964397430419922,12.414228439331055,1.2975294589996338,5061.61181640625,0
2253.772000000001,0.06085624173283577,0.000713388726580888,0.0013560696970671415,0.0,0.0,0.0,0.0,0.0011411240557208657,-0.0020793869625777006,-0.0004657834942918271,0.9988847970962524,0.0,0.0,0.0,-27.97706413269043,12.408839225769043,1.3129228353500366,5063.904296875,0
2263.6569999999992,0.060924481600522995,0.0008286128286272287,0.0013058349722996354,0.0,0.0,0.0,0.0,-0.0016503578517585993,-0.005247870925813913,0.0008076482336036861,0.9998759031295776,0.0,0.0,0.0,-27.958984375,12.429915428161621,1.3126273155212402,5060.6318359375,0
2273.543999999998,0.06084614619612694,0.0008810892468318343,0.0012918456923216581,0.0,0.0,0.0,0.0,0.0007763324538245797,0.004668323788791895,-0.001721321837976575,0.9984874725341797,0.0,0.0,0.0,-27.987443923950195,12.43897819519043,1.295670747756958,5065.78369140625,0
2283.4269999999997,0.06084614619612694,0.0008810892468318343,0.0012918456923216581,0.0,0.0,0.0,0.0,-0.0006582415662705898,-0.0024592385161668062,0.00217098998837173,0.9995626211166382,0.0,0.0,0.0,-27.987443923950195,12.43897819519043,1.295670747756958,5065.78369140625,0
