timestamp,stateEstimate.x,stateEstimate.y,stateEstimate.z,controller.cmd_thrust,controller.cmd_roll,controller.cmd_pitch,controller.cmd_yaw,controller.r_roll,controller.r_pitch,controller.r_yaw,controller.accelz,controller.actuatorThrust,controller.roll,controller.pitch,controller.yaw,controller.rollRate,controller.pitchRate,controller.yawRate,controller.ctr_yaw
0.0,0.05150361359119415,0.01435328833758831,-0.05009593069553375,0.0,0.0,0.0,0.0,-0.0006508115911856294,-0.0007617186638526618,-0.0020530815236270428,0.9991065859794617,0.0,0.0,0.0,39.29902267456055,9.642516136169434,3.3577139377593994,-7113.20068359375,0
9.876999999998588,0.052040863782167435,0.015474923886358738,-0.052110522985458374,0.0,0.0,0.0,0.0,-0.0015886496985331178,-0.0036782328970730305,-0.0012819867115467787,0.9980494976043701,0.0,0.0,0.0,39.70446014404297,9.712117195129395,3.416893243789673,-7186.5859375,0
19.77299999999923,0.0519908145070076,0.01537824422121048,-0.05193629488348961,0.0,0.0,0.0,0.0,0.0014638546854257584,-0.005460389424115419,0.0005623163306154311,0.9987652897834778,0.0,0.0,0.0,39.6650390625,9.710418701171875,3.4138336181640625,-7179.451171875,0
29.64099999999962,0.05232897400856018,0.015917329117655754,-0.05302296206355095,0.0,0.0,0.0,0.0,0.0022745749447494745,-0.0007808785885572433,-0.001230817986652255,1.000977873802185,0.0,0.0,0.0,39.991886138916016,9.711956977844238,3.468963384628296,-7238.61083984375,0
39.52799999999843,0.05228305608034134,0.01582540199160576,-0.052857015281915665,0.0,0.0,0.0,0.0,-0.0003359271213412285,0.000278904422884807,-0.0013453615829348564,0.9973757266998291,0.0,0.0,0.0,39.95331573486328,9.703362464904785,3.4740846157073975,-7231.62939453125,0
49.409999999999854,0.05223802104592323,0.01573060266673565,-0.052691299468278885,0.0,0.0,0.0,0.0,-0.0005339060444384813,0.004187877755612135,-0.0006433556554839015,0.9968469738960266,0.0,0.0,0.0,39.91446304321289,9.69672679901123,3.4694736003875732,-7224.59716796875,0
59.30199999999968,0.05219411849975586,0.015633368864655495,-0.05252765491604805,0.0,0.0,0.0,0.0,-0.00012664498353842646,-0.002058610552921891,0.002846668241545558,0.9989122152328491,0.0,0.0,0.0,39.87529373168945,9.689658164978027,3.4545047283172607,-7217.5078125,0
69.18399999999929,0.052152153104543686,0.01553390733897686,-0.052365951240062714,0.0,0.0,0.0,0.0,-0.0006722489488311112,0.0008031322504393756,-0.003109074430540204,1.0005338191986084,0.0,0.0,0.0,39.83660888671875,9.685874938964844,3.4567179679870605,-7210.5048828125,0
79.0739999999987,0.052112825214862823,0.015432164072990417,-0.05220426619052887,0.0,0.0,0.0,0.0,0.0015351094771176577,0.0022289836779236794,0.003077218309044838,1.0010977983474731,0.0,0.0,0.0,39.797386169433594,9.678751945495605,3.4492452144622803,-7203.40576171875,0
88.9489999999987,0.05207614228129387,0.015327906236052513,-0.05204140767455101,0.0,0.0,0.0,0.0,-3.969556564697996e-05,-0.006691326387226582,0.0004798969312105328,1.0009074211120605,0.0,0.0,0.0,39.75908660888672,9.66820240020752,3.439711570739746,-7196.47412109375,0
98.83799999999974,0.0520419105887413,0.015220778062939644,-0.05187719687819481,0.0,0.0,0.0,0.0,-0.00033881637500599027,-0.008914411067962646,0.0004743696190416813,1.0001448392868042,0.0,0.0,0.0,39.719688415527344,9.661524772644043,3.4480600357055664,-7189.34326171875,0
108.72599999999875,0.05200956389307976,0.015110625885426998,-0.05171208456158638,0.0,0.0,0.0,0.0,-0.0019323448650538921,-0.002222777111455798,-0.0009552465635351837,0.9990656971931458,0.0,0.0,0.0,39.681060791015625,9.656991958618164,3.4626762866973877,-7182.35107421875,0
118.61399999999958,0.05197850987315178,0.014997550286352634,-0.05154662951827049,0.0,0.0,0.0,0.0,0.0022695744410157204,-0.0027190041728317738,0.003775745863094926,0.997536301612854,0.0,0.0,0.0,39.64221954345703,9.652872085571289,3.4603993892669678,-7175.32080078125,0
128.4920000000002,0.05194830894470215,0.014882520772516727,-0.05138186737895012,0.0,0.0,0.0,0.0,-0.0009577618329785764,0.0031337994150817394,-0.0014679096639156342,0.9960948824882507,0.0,0.0,0.0,39.60449981689453,9.643256187438965,3.465379238128662,-7168.49267578125,0
138.3819999999996,0.051919158548116684,0.014766122214496136,-0.051219481974840164,0.0,0.0,0.0,0.0,0.0008767791441641748,-0.004888850264251232,0.0007632315973751247,0.9968655109405518,0.0,0.0,0.0,39.56541061401367,9.635553359985352,3.4538774490356445,-7161.41845703125,0
148.2619999999988,0.051892198622226715,0.01464877650141716,-0.05105987563729286,0.0,0.0,0.0,0.0,0.0005433874321170151,-0.00244446424767375,-0.005528708919882774,0.9980103373527527,0.0,0.0,0.0,39.527408599853516,9.625106811523438,3.454758405685425,-7154.53955078125,0
158.15499999999884,0.05186782032251358,0.014530676417052746,-0.050902385264635086,0.0,0.0,0.0,0.0,0.0007961781229823828,-0.0024722646921873093,-0.0008797525078989565,0.9990248680114746,0.0,0.0,0.0,39.48710250854492,9.611689567565918,3.449589729309082,-7147.244140625,0
168.03999999999905,0.05184498429298401,0.014411198906600475,-0.050746068358421326,0.0,0.0,0.0,0.0,-0.0030822281260043383,0.006336600054055452,0.002223851392045617,1.000529408454895,0.0,0.0,0.0,39.44880676269531,9.6052885055542,3.444631576538086,-7140.3125,0
177.92799999999988,0.05182308331131935,0.01428945455700159,-0.05058978870511055,0.0,0.0,0.0,0.0,-0.0009683680254966021,0.0030011378694325686,-0.0007158528314903378,1.0000215768814087,0.0,0.0,0.0,39.410728454589844,9.604164123535156,3.425175905227661,-7133.419921875,0
187.79999999999927,0.0518033541738987,0.014165978878736496,-0.05043289437890053,0.0,0.0,0.0,0.0,-0.0021861132699996233,4.569537486531772e-05,-0.001997946295887232,0.9976409077644348,0.0,0.0,0.0,39.371986389160156,9.595760345458984,3.4221317768096924,-7126.40771484375,0
197.6909999999989,0.05178595706820488,0.014041231945157051,-0.05027628317475319,0.0,0.0,0.0,0.0,0.0019367842469364405,0.0008035471546463668,0.0011183151509612799,0.9977728128433228,0.0,0.0,0.0,39.3325080871582,9.595830917358398,3.4236936569213867,-7119.2626953125,0
207.5709999999999,0.05176982656121254,0.013914164155721664,-0.05012116581201553,0.0,0.0,0.0,0.0,-0.0010797497816383839,-0.0016730407951399684,0.005530280526727438,0.9998173117637634,0.0,0.0,0.0,39.295166015625,9.58289909362793,3.43031644821167,-7112.50341796875,0
217.45199999999932,0.051754724234342575,0.013784839771687984,-0.049966756254434586,0.0,0.0,0.0,0.0,-0.00023646242334507406,0.002064038533717394,-0.0014650167431682348,1.00029718875885,0.0,0.0,0.0,39.258644104003906,9.580089569091797,3.428032398223877,-7105.892578125,0
227.33699999999953,0.051741886883974075,0.0136534683406353,-0.0498117171227932,0.0,0.0,0.0,0.0,0.001280900207348168,-0.0021190037950873375,0.0016512832371518016,0.999259889125824,0.0,0.0,0.0,39.21936798095703,9.57137680053711,3.4127309322357178,-7098.7841796875,0
237.22899999999936,0.0517314076423645,0.013518338091671467,-0.04965629428625107,0.0,0.0,0.0,0.0,-0.0006173881120048463,-0.0033653879072517157,-0.0010492999572306871,0.9994817972183228,0.0,0.0,0.0,39.18125915527344,9.565091133117676,3.409320116043091,-7091.8857421875,0
247.10899999999856,0.0517217218875885,0.01337825320661068,-0.04950104281306267,0.0,0.0,0.0,0.0,0.00064102653414011,-0.003460697131231427,-0.0004222544957883656,0.9986473321914673,0.0,0.0,0.0,39.14324951171875,9.560431480407715,3.4030535221099854,-7085.00537109375,0
257.0,0.0517125278711319,0.01323559321463108,-0.04934639111161232,0.0,0.0,0.0,0.0,-0.0010883151553571224,0.00011819700011983514,0.0033474103547632694,0.9983208775520325,0.0,0.0,0.0,39.10477828979492,9.550969123840332,3.4043469429016113,-7078.04296875,0
266.884,0.05170489847660065,0.01309173833578825,-0.04919267073273659,0.0,0.0,0.0,0.0,0.0012922909809276462,-0.003431488061323762,0.000976155570242554,1.0012929439544678,0.0,0.0,0.0,39.06735610961914,9.546632766723633,3.3967232704162598,-7071.26953125,0
276.77499999999964,0.051700036972761154,0.012945768423378468,-0.049038756638765335,0.0,0.0,0.0,0.0,-0.0027933467645198107,-0.0020869062282145023,0.0028470568358898163,1.0004541873931885,0.0,0.0,0.0,39.02842712402344,9.536869049072266,3.395782709121704,-7064.22314453125,0
286.6459999999988,0.052149467170238495,0.015458942390978336,-0.052128639072179794,0.0,0.0,0.0,0.0,0.000591812829952687,-0.00020966488227713853,0.001304428093135357,1.0018236637115479,0.0,0.0,0.0,39.47064208984375,9.753114700317383,3.462252378463745,-7144.2646484375,0
296.54699999999866,0.05213305354118347,0.015365674160420895,-0.05198587104678154,0.0,0.0,0.0,0.0,-0.003159266896545887,-0.002400854369625449,-0.000943874882068485,0.9989478588104248,0.0,0.0,0.0,39.43161392211914,9.743736267089844,3.462493896484375,-7137.201171875,0
306.41599999999926,0.05211798846721649,0.015270066447556019,-0.05184219405055046,0.0,0.0,0.0,0.0,0.0016539269126951694,0.004885884001851082,-0.00010853248386410996,0.9992908239364624,0.0,0.0,0.0,39.39342498779297,9.736199378967285,3.465898275375366,-7130.28759765625,0
316.3089999999993,0.05210450291633606,0.015172446146607399,-0.05169862508773804,0.0,0.0,0.0,0.0,0.0015956683782860637,0.001366735901683569,-0.0021589836105704308,0.9981436133384705,0.0,0.0,0.0,39.35574722290039,9.726837158203125,3.457534074783325,-7123.46826171875,0
326.1899999999987,0.052092961966991425,0.015073967166244984,-0.05155586823821068,0.0,0.0,0.0,0.0,0.0005871367757208645,-0.0021070409566164017,3.592404755181633e-05,0.998822808265686,0.0,0.0,0.0,39.31639862060547,9.719337463378906,3.442800998687744,-7116.3466796875,0
336.0799999999999,0.052082791924476624,0.014973331242799759,-0.05141425505280495,0.0,0.0,0.0,0.0,-0.0009314154158346355,-0.0026294225826859474,0.0015064714243635535,0.9959213137626648,0.0,0.0,0.0,39.277889251708984,9.713725090026855,3.4294962882995605,-7109.3759765625,0
345.9599999999991,0.05207373946905136,0.01486986968666315,-0.05127454921603203,0.0,0.0,0.0,0.0,0.001453066011890769,-0.0006084355409257114,-0.0004972148453816772,0.9961696267127991,0.0,0.0,0.0,39.239681243896484,9.711148262023926,3.4287185668945312,-7102.46044921875,0
355.85099999999875,0.0520654059946537,0.014764582738280296,-0.05113805830478668,0.0,0.0,0.0,0.0,0.0015825474401935935,0.002680080011487007,0.003097591223195195,0.9991351962089539,0.0,0.0,0.0,39.20180130004883,9.700297355651855,3.4204578399658203,-7095.6044921875,0
365.72599999999875,0.052678391337394714,0.0161412563174963,-0.053597766906023026,0.0,0.0,0.0,0.0,-0.0030556756537407637,-0.0017753393622115254,-0.0020864654798060656,0.9995604157447815,0.0,0.0,0.0,39.61056137084961,9.777124404907227,3.449265480041504,-7169.59033203125,0
375.6229999999996,0.05266869440674782,0.01605663076043129,-0.05347881838679314,0.0,0.0,0.0,0.0,-0.0020158635452389717,0.0032079035881906748,0.00031835256959311664,0.9980519413948059,0.0,0.0,0.0,39.570804595947266,9.775851249694824,3.443355083465576,-7162.39404296875,0
385.494999999999,0.052660565823316574,0.01596931181848049,-0.05336051434278488,0.0,0.0,0.0,0.0,-0.002042201580479741,-0.0034154742024838924,-0.00020373017468955368,0.9974667429924011,0.0,0.0,0.0,39.53200149536133,9.771524429321289,3.4296364784240723,-7155.37109375,0
395.39400000000023,0.052653517574071884,0.015880558639764786,-0.0532437302172184,0.0,0.0,0.0,0.0,-0.0030706184916198254,0.0039176251739263535,0.004000703804194927,0.9981312155723572,0.0,0.0,0.0,39.49324417114258,9.763643264770508,3.4311439990997314,-7148.35595703125,0
405.2699999999986,0.052916884422302246,0.01658116653561592,-0.0546097457408905,0.0,0.0,0.0,0.0,0.002318917540833354,-3.720708264154382e-05,-0.00038343959022313356,0.9987022876739502,0.0,0.0,0.0,39.844642639160156,9.82487678527832,3.4262912273406982,-7211.95947265625,0
415.15699999999924,0.05290037393569946,0.01650172844529152,-0.05450606718659401,0.0,0.0,0.0,0.0,-0.002804048825055361,0.0008147026528604329,-0.00315208756364882,0.9986270666122437,0.0,0.0,0.0,39.804107666015625,9.817288398742676,3.423776626586914,-7204.62255859375,0
425.03499999999985,0.05288391932845116,0.016420233994722366,-0.054403528571128845,0.0,0.0,0.0,0.0,-0.0014894024934619665,-0.0010533785680308938,0.0025192047469317913,0.999314546585083,0.0,0.0,0.0,39.76434326171875,9.816779136657715,3.4211206436157227,-7197.4248046875,0
434.9369999999999,0.052868302911520004,0.0163364727050066,-0.05430177226662636,0.0,0.0,0.0,0.0,-7.396223372779787e-05,-0.006738919764757156,0.001212137402035296,0.9994693398475647,0.0,0.0,0.0,39.72613525390625,9.81147575378418,3.418144941329956,-7190.509765625,0
444.8049999999985,0.052853669971227646,0.016250552609562874,-0.054200321435928345,0.0,0.0,0.0,0.0,-0.0013136593624949455,0.003710672026500106,-0.0002597816346678883,0.9999107718467712,0.0,0.0,0.0,39.68760299682617,9.807971954345703,3.4262638092041016,-7183.53515625,0
454.7019999999993,0.05284031853079796,0.016163449734449387,-0.05409882217645645,0.0,0.0,0.0,0.0,0.00012345150753390044,-0.008093014359474182,0.002059333957731724,1.0001933574676514,0.0,0.0,0.0,39.648956298828125,9.79879093170166,3.4066691398620605,-7176.53955078125,0
464.5779999999995,0.05299259349703789,0.016832290217280388,-0.055069953203201294,0.0,0.0,0.0,0.0,0.00229851552285254,0.002296752529218793,-0.0026165840681642294,0.9994552135467529,0.0,0.0,0.0,39.96756362915039,9.906262397766113,3.4531173706054688,-7234.20849609375,0
504.1149999999998,0.05296935513615608,0.01691080629825592,-0.05506779998540878,0.0,0.0,0.0,0.0,0.0009033041424117982,-0.0038931546732783318,0.00045259649050422013,0.9990820288658142,0.0,0.0,0.0,40.13943099975586,9.931246757507324,3.463892698287964,-7265.31640625,0
514.0079999999998,0.052949484437704086,0.016855759546160698,-0.05497407913208008,0.0,0.0,0.0,0.0,-0.0022880539763718843,0.001256363932043314,0.003395026782527566,0.9983830451965332,0.0,0.0,0.0,40.09992218017578,9.92360782623291,3.4674088954925537,-7258.166015625,0
523.8859999999986,0.05293085798621178,0.016799770295619965,-0.05488105118274689,0.0,0.0,0.0,0.0,0.0023600608110427856,-0.0028380888979882,0.0003504763881210238,0.9991692900657654,0.0,0.0,0.0,40.06219482421875,9.920148849487305,3.4524598121643066,-7251.33642578125,0
533.7829999999994,0.0529133565723896,0.016741661354899406,-0.05478841811418533,0.0,0.0,0.0,0.0,0.0021404230501502752,-0.004338783212006092,-0.0008976030512712896,0.9992645382881165,0.0,0.0,0.0,40.02347946166992,9.909156799316406,3.44500470161438,-7244.3291015625,0
543.6619999999984,0.052896056324243546,0.016681188717484474,-0.05469593405723572,0.0,0.0,0.0,0.0,0.0013469852274283767,-0.003744865767657757,-0.001435843063518405,0.9987114071846008,0.0,0.0,0.0,39.984256744384766,9.90027904510498,3.4419145584106445,-7237.22998046875,0
553.5529999999999,0.052879057824611664,0.01661933958530426,-0.05460377410054207,0.0,0.0,0.0,0.0,-0.0009760958491824567,0.00015309738228097558,-0.0017383205704391003,0.9998612403869629,0.0,0.0,0.0,39.944828033447266,9.889863967895508,3.448861598968506,-7230.09326171875,0
563.4339999999993,0.05286410450935364,0.016556676477193832,-0.05451188236474991,0.0,0.0,0.0,0.0,-0.0003389952762518078,0.00037608525599353015,-0.0014646658673882484,0.9995269179344177,0.0,0.0,0.0,39.90529251098633,9.884746551513672,3.4419102668762207,-7222.9365234375,0
573.3179999999993,0.0528511106967926,0.01649329625070095,-0.05442009121179581,0.0,0.0,0.0,0.0,-0.004145841579884291,-0.0004969714791513979,-0.0016597232315689325,0.9998102784156799,0.0,0.0,0.0,39.86600112915039,9.87545394897461,3.4402029514312744,-7215.8251953125,0
583.2019999999993,0.05283910036087036,0.016428904607892036,-0.054328497499227524,0.0,0.0,0.0,0.0,-0.0024359049275517464,-0.006720975507050753,-0.001333191990852356,0.9977822303771973,0.0,0.0,0.0,39.82681655883789,9.876500129699707,3.4281156063079834,-7208.7333984375,0
593.0900000000001,0.052828386425971985,0.01636393927037716,-0.0542377233505249,0.0,0.0,0.0,0.0,0.002341989893466234,0.0012259447248652577,0.00019055145094171166,1.0015710592269897,0.0,0.0,0.0,39.78683853149414,9.872865676879883,3.439831018447876,-7201.4970703125,0
602.9719999999998,0.05281859636306763,0.016298798844218254,-0.05414704605937004,0.0,0.0,0.0,0.0,0.0026761041954159737,-0.0025312139187008142,0.0009010872454382479,0.999134361743927,0.0,0.0,0.0,39.74761962890625,9.861634254455566,3.4405198097229004,-7194.3984375,0
612.8589999999986,0.052809227257966995,0.016234418377280235,-0.05405571311712265,0.0,0.0,0.0,0.0,-0.0029341496992856264,0.0028338732663542032,-0.0007855649455450475,1.0011234283447266,0.0,0.0,0.0,39.70871353149414,9.849684715270996,3.438688278198242,-7187.3564453125,0
622.7549999999992,0.05280059576034546,0.016171537339687347,-0.05396384373307228,0.0,0.0,0.0,0.0,0.0022603815887123346,0.0016964594833552837,-0.0009038738207891583,1.0009347200393677,0.0,0.0,0.0,39.669036865234375,9.850042343139648,3.4307682514190674,-7180.17431640625,0
632.6329999999998,0.05279316008090973,0.016109051182866096,-0.05387071147561073,0.0,0.0,0.0,0.0,-0.0011150066275149584,0.005429415963590145,0.0005788372945971787,0.9989088773727417,0.0,0.0,0.0,39.62861251831055,9.836225509643555,3.4192168712615967,-7172.85693359375,0
642.5109999999986,0.052787430584430695,0.016046419739723206,-0.05377707630395889,0.0,0.0,0.0,0.0,-0.000720321957487613,0.003358303103595972,-0.0007275514071807265,0.9995273351669312,0.0,0.0,0.0,39.590633392333984,9.837471961975098,3.4060823917388916,-7165.98388671875,0
652.3940000000002,0.05278284475207329,0.01598365791141987,-0.05368378758430481,0.0,0.0,0.0,0.0,0.0015049182111397386,-0.004103732295334339,0.0038893811870366335,0.9990799427032471,0.0,0.0,0.0,39.551910400390625,9.83059024810791,3.398780107498169,-7158.974609375,0
662.280999999999,0.05287054181098938,0.01688265986740589,-0.054923541843891144,0.0,0.0,0.0,0.0,-0.0012038779677823186,0.00042378791840747,0.0024446044117212296,0.9993168115615845,0.0,0.0,0.0,39.88618087768555,9.933748245239258,3.4217567443847656,-7219.47802734375,0
672.1700000000001,0.05285381153225899,0.016839798539876938,-0.05483916029334068,0.0,0.0,0.0,0.0,-0.0025453779380768538,-0.003787682158872485,0.0015887938207015395,0.9995359778404236,0.0,0.0,0.0,39.847900390625,9.931349754333496,3.4160804748535156,-7212.54931640625,0
682.0529999999999,0.05283830314874649,0.0167950801551342,-0.05475499480962753,0.0,0.0,0.0,0.0,-0.0008577776025049388,0.0014524977887049317,5.913911445531994e-05,0.9987008571624756,0.0,0.0,0.0,39.80900955200195,9.931506156921387,3.4207723140716553,-7205.509765625,0
691.9369999999999,0.05282435193657875,0.016750061884522438,-0.05467110872268677,0.0,0.0,0.0,0.0,2.481737465132028e-05,-0.00452019926160574,-0.0003858072741422802,0.9976816177368164,0.0,0.0,0.0,39.76982116699219,9.925785064697266,3.416584014892578,-7198.4169921875,0
701.8239999999987,0.05281227454543114,0.01670478656888008,-0.0545882023870945,0.0,0.0,0.0,0.0,0.0014436878263950348,-0.0010463198414072394,-8.938041719375178e-05,0.9967988729476929,0.0,0.0,0.0,39.72966384887695,9.919130325317383,3.4158613681793213,-7191.14794921875,0
711.7039999999997,0.05280212685465813,0.016658717766404152,-0.05450727045536041,0.0,0.0,0.0,0.0,0.0012198082404211164,0.00533766346052289,0.0017648249631747603,0.9996135234832764,0.0,0.0,0.0,39.69069290161133,9.91318130493164,3.410463809967041,-7184.0947265625,0
721.5909999999985,0.052794165909290314,0.01661205105483532,-0.054427728056907654,0.0,0.0,0.0,0.0,-0.0021731797605752945,-0.0017560806591063738,-0.0006302539259195328,0.9987215995788574,0.0,0.0,0.0,39.652339935302734,9.90279483795166,3.3893189430236816,-7177.15234375,0
731.476999999999,0.052787888795137405,0.01656457968056202,-0.05434855818748474,0.0,0.0,0.0,0.0,-0.0043420614674687386,0.00013109964493196458,0.0030734622851014137,0.9995061755180359,0.0,0.0,0.0,39.613948822021484,9.901324272155762,3.386111259460449,-7170.203125,0
741.3580000000002,0.05278242751955986,0.01651674136519432,-0.05426959693431854,0.0,0.0,0.0,0.0,0.0010489089181646705,-0.0043615493923425674,-0.0021999890450388193,0.9994809627532959,0.0,0.0,0.0,39.57661437988281,9.903636932373047,3.3879597187042236,-7163.44580078125,0
751.2559999999994,0.05277774855494499,0.016468409448862076,-0.054190754890441895,0.0,0.0,0.0,0.0,-0.0012123893247917295,0.00011835613258881494,0.0006101544131524861,0.9980181455612183,0.0,0.0,0.0,39.53694534301758,9.891257286071777,3.393928289413452,-7156.26611328125,0
761.1279999999988,0.05277390778064728,0.016418110579252243,-0.05411278083920479,0.0,0.0,0.0,0.0,0.0011339662596583366,-0.001337984693236649,-0.0008976887329481542,0.999077320098877,0.0,0.0,0.0,39.49846267700195,9.881157875061035,3.382169008255005,-7149.30029296875,0
771.0169999999998,0.05277138203382492,0.016365444287657738,-0.054035913199186325,0.0,0.0,0.0,0.0,-0.0007881470373831689,-0.003520258469507098,0.0017970126355066895,0.9985811114311218,0.0,0.0,0.0,39.45970916748047,9.872570037841797,3.3792948722839355,-7142.2861328125,0
780.9029999999984,0.052771009504795074,0.01631033979356289,-0.05395990237593651,0.0,0.0,0.0,0.0,-2.481099363649264e-05,-0.005371750798076391,0.002009985037147999,1.0004113912582397,0.0,0.0,0.0,39.421173095703125,9.866220474243164,3.377833366394043,-7135.310546875,0
790.7889999999989,0.052772317081689835,0.016253186389803886,-0.053883977234363556,0.0,0.0,0.0,0.0,-0.0014589963247999549,-0.0006088108639232814,0.0021592171397060156,0.9995013475418091,0.0,0.0,0.0,39.38258361816406,9.857111930847168,3.3815832138061523,-7128.32568359375,0
800.6749999999993,0.05277371406555176,0.0161941759288311,-0.05380747467279434,0.0,0.0,0.0,0.0,-0.001621802570298314,-0.007922820746898651,0.00016091245925053954,0.9981442093849182,0.0,0.0,0.0,39.344451904296875,9.850784301757812,3.3809916973114014,-7121.423828125,0
810.5589999999993,0.05277466028928757,0.01613319106400013,-0.053731370717287064,0.0,0.0,0.0,0.0,-0.0004162518016528338,-0.0007260250276885927,0.0001538555370643735,0.999710738658905,0.0,0.0,0.0,39.30569076538086,9.84945011138916,3.386593818664551,-7114.40771484375,0
820.4449999999997,0.05277585610747337,0.016070598736405373,-0.0536557175219059,0.0,0.0,0.0,0.0,-0.0013114713365212083,-0.0013466003583744168,0.0015296036144718528,0.9997001886367798,0.0,0.0,0.0,39.267704010009766,9.841683387756348,3.382967710494995,-7107.533203125,0
830.3299999999999,0.05277771130204201,0.01600564457476139,-0.05357988923788071,0.0,0.0,0.0,0.0,-0.002678344724699855,-0.00011531620111782104,0.0026731016114354134,0.9986860156059265,0.0,0.0,0.0,39.22990036010742,9.838388442993164,3.3785808086395264,-7100.68994140625,0
840.2129999999997,0.053038038313388824,0.01697404310107231,-0.055330727249383926,0.0,0.0,0.0,0.0,-1.293065997742815e-05,0.005221248604357243,-0.0002907648158725351,1.0005849599838257,0.0,0.0,0.0,39.6247444152832,9.907455444335938,3.392026424407959,-7172.1572265625,0
850.0919999999987,0.05303192883729935,0.016920777037739754,-0.05526721850037575,0.0,0.0,0.0,0.0,0.0021748526487499475,-0.0019227958982810378,-0.0004774166736751795,0.999545693397522,0.0,0.0,0.0,39.585201263427734,9.895421028137207,3.3769168853759766,-7165.0,0
859.982,0.053355082869529724,0.01741873100399971,-0.05623474344611168,0.0,0.0,0.0,0.0,-0.00012135053111705929,-0.0010446594096720219,0.0013501656940206885,0.9985649585723877,0.0,0.0,0.0,39.909603118896484,9.89370346069336,3.425435781478882,-7223.71728515625,0
869.8629999999994,0.05335479602217674,0.017372876405715942,-0.0561775267124176,0.0,0.0,0.0,0.0,-0.0010234612273052335,0.004872772376984358,-0.0025567279662936926,0.9998340606689453,0.0,0.0,0.0,39.87016677856445,9.888500213623047,3.427565097808838,-7216.57958984375,0
879.7569999999996,0.053354281932115555,0.01732463203370571,-0.056120388209819794,0.0,0.0,0.0,0.0,-0.0007396996370516717,-0.006784377153962851,-0.0016976266633719206,1.0000414848327637,0.0,0.0,0.0,39.83034133911133,9.887093544006348,3.417459011077881,-7209.37109375,0
889.6359999999986,0.05335332453250885,0.017272865399718285,-0.05606270208954811,0.0,0.0,0.0,0.0,1.1374778296158183e-05,-0.001315191388130188,-0.00302506098523736,0.9983431696891785,0.0,0.0,0.0,39.79084014892578,9.877580642700195,3.421419143676758,-7202.2216796875,0
899.5209999999988,0.05335409939289093,0.017218509688973427,-0.05600518733263016,0.0,0.0,0.0,0.0,0.0010437716264277697,-0.002158022252842784,-0.0005733700818382204,0.9985450506210327,0.0,0.0,0.0,39.750850677490234,9.86633586883545,3.4144041538238525,-7194.98291015625,0
909.4099999999999,0.05335768312215805,0.017162330448627472,-0.05594861879944801,0.0,0.0,0.0,0.0,-0.0022911401465535164,-0.0009242944070138037,0.0008613188401795924,0.998689591884613,0.0,0.0,0.0,39.712303161621094,9.85550594329834,3.409890651702881,-7188.005859375,0
919.2950000000001,0.05343180149793625,0.017534004524350166,-0.05647066608071327,0.0,0.0,0.0,0.0,0.0014688031515106559,-0.0048262388445436954,-0.000244457129156217,0.9991766810417175,0.0,0.0,0.0,40.01824188232422,9.909290313720703,3.4406654834747314,-7243.380859375,0
929.1719999999987,0.05342920869588852,0.017486507073044777,-0.05641932412981987,0.0,0.0,0.0,0.0,0.0012114272685721517,-0.0013826170470565557,0.0026721928734332323,1.00077486038208,0.0,0.0,0.0,39.978721618652344,9.901544570922852,3.4542486667633057,-7236.228515625,0
939.0669999999991,0.053402937948703766,0.017483843490481377,-0.056326501071453094,0.0,0.0,0.0,0.0,-0.00028602289967238903,-0.0038820633199065924,0.0023730844259262085,0.9996926188468933,0.0,0.0,0.0,40.23637008666992,9.906230926513672,3.4767308235168457,-7282.86279296875,0
948.9439999999995,0.05339987576007843,0.01743910275399685,-0.05627446249127388,0.0,0.0,0.0,0.0,0.0009768814779818058,0.0006407609907910228,0.0024863388389348984,0.9995589256286621,0.0,0.0,0.0,40.19832992553711,9.896454811096191,3.4808237552642822,-7275.97802734375,0
958.8319999999985,0.05325543135404587,0.01725841499865055,-0.05587536096572876,0.0,0.0,0.0,0.0,0.0019036796875298023,0.003466906026005745,-0.0020914804190397263,0.9981904625892639,0.0,0.0,0.0,40.414207458496094,9.897042274475098,3.478813648223877,-7315.052734375,0
968.7189999999991,0.05325179547071457,0.017212072387337685,-0.0558224581182003,0.0,0.0,0.0,0.0,0.0015438756672665477,-0.00020750364637933671,0.000269535172265023,0.9995113611221313,0.0,0.0,0.0,40.3745231628418,9.886656761169434,3.469280958175659,-7307.86865234375,0
978.6129999999994,0.05324924364686012,0.017164448276162148,-0.05576999485492706,0.0,0.0,0.0,0.0,0.0009326051222160459,-0.000295388454105705,-0.00036560220178216696,0.9998347759246826,0.0,0.0,0.0,40.33576583862305,9.877552032470703,3.460113048553467,-7300.85400390625,0
988.4979999999996,0.053247448056936264,0.01711675338447094,-0.05571739375591278,0.0,0.0,0.0,0.0,-0.0019812157843261957,-0.006321089342236519,0.002137558301910758,1.000313401222229,0.0,0.0,0.0,40.29603576660156,9.869458198547363,3.452284574508667,-7293.6630859375,0
998.384,0.053246598690748215,0.017069555819034576,-0.055664341896772385,0.0,0.0,0.0,0.0,0.0017158896662294865,0.005448097828775644,0.003550583263859153,1.001111626625061,0.0,0.0,0.0,40.25716018676758,9.864197731018066,3.461460590362549,-7286.62646484375,0
1008.262999999999,0.05324742943048477,0.01702299527823925,-0.05561000108718872,0.0,0.0,0.0,0.0,-0.0002158212591893971,-0.0044479635544121265,0.00036544378963299096,0.9989827871322632,0.0,0.0,0.0,40.21883773803711,9.84984016418457,3.4465460777282715,-7279.68994140625,0
1018.1449999999986,0.0532500259578228,0.016977133229374886,-0.055554646998643875,0.0,0.0,0.0,0.0,-0.00012081825116183609,0.002097911899909377,0.002261917106807232,1.0017575025558472,0.0,0.0,0.0,40.180015563964844,9.844948768615723,3.4551188945770264,-7272.66259765625,0
1028.0299999999988,0.05325428396463394,0.016931867226958275,-0.05549846962094307,0.0,0.0,0.0,0.0,0.001610927633009851,0.007112184539437294,-0.0009305756539106369,0.9983329176902771,0.0,0.0,0.0,40.14149856567383,9.834973335266113,3.449723958969116,-7265.69091796875,0
1037.92,0.053260982036590576,0.01688697375357151,-0.05544184520840645,0.0,0.0,0.0,0.0,-0.003212941810488701,0.0007407221710309386,0.0005559111014008522,0.9988396763801575,0.0,0.0,0.0,40.10251235961914,9.824844360351562,3.4326870441436768,-7258.634765625,0
1047.7939999999999,0.05326991528272629,0.01684144325554371,-0.055386021733284,0.0,0.0,0.0,0.0,-0.0009765052818693221,-0.0038098557852208614,0.002880788641050458,1.0004441738128662,0.0,0.0,0.0,40.06404495239258,9.81601619720459,3.421936511993408,-7251.671875,0
1057.6899999999987,0.0532793290913105,0.016794390976428986,-0.055330391973257065,0.0,0.0,0.0,0.0,0.0008134595700539649,-0.002235425403341651,-0.0006399154663085938,0.9992015361785889,0.0,0.0,0.0,40.025474548339844,9.805747985839844,3.415428400039673,-7244.6904296875,0
1067.5699999999997,0.053288135677576065,0.01674642600119114,-0.055274490267038345,0.0,0.0,0.0,0.0,0.0006804272416047752,0.0013975105248391628,0.003231482347473502,0.9985354542732239,0.0,0.0,0.0,39.9859504699707,9.795424461364746,3.409773826599121,-7237.53662109375,0
1077.4609999999993,0.053279899060726166,0.01715337671339512,-0.05573691800236702,0.0,0.0,0.0,0.0,0.0032605009619146585,0.0008856704807840288,-0.0001579119561938569,0.9979894757270813,0.0,0.0,0.0,40.23188400268555,9.865697860717773,3.4186103343963623,-7282.05126953125,0
1087.3469999999998,0.05327753350138664,0.017117634415626526,-0.05568587779998779,0.0,0.0,0.0,0.0,-0.0012783943675458431,0.002500740811228752,0.000980314682237804,1.0012041330337524,0.0,0.0,0.0,40.192161560058594,9.854267120361328,3.4088993072509766,-7274.861328125,0
1097.226999999999,0.053276386111974716,0.017078794538974762,-0.05563465133309364,0.0,0.0,0.0,0.0,0.001538329292088747,0.005399151239544153,0.0010905186645686626,0.9991962909698486,0.0,0.0,0.0,40.15394973754883,9.850480079650879,3.397852659225464,-7267.94482421875,0
1107.1119999999992,0.053277935832738876,0.017038095742464066,-0.05558284372091293,0.0,0.0,0.0,0.0,-0.0013452048879116774,-0.0016367927892133594,-0.0022603021934628487,0.996802031993866,0.0,0.0,0.0,40.11492919921875,9.838072776794434,3.3808488845825195,-7260.88134765625,0
1116.9920000000002,0.0532817617058754,0.016996076330542564,-0.05553235486149788,0.0,0.0,0.0,0.0,-0.004704355262219906,-0.0005059235845692456,0.0009733374463394284,0.9987515211105347,0.0,0.0,0.0,40.075130462646484,9.831015586853027,3.3750710487365723,-7253.67822265625,0
1126.878999999999,0.05328814685344696,0.016952097415924072,-0.055483654141426086,0.0,0.0,0.0,0.0,-0.001521188416518271,0.0021319794468581676,-0.00021703231323044747,0.9984754920005798,0.0,0.0,0.0,40.03581619262695,9.83139419555664,3.363769769668579,-7246.56201171875,0
1136.768,0.053297724574804306,0.016905659809708595,-0.05543600395321846,0.0,0.0,0.0,0.0,-5.332660293788649e-05,0.005113074090331793,-0.0002292962308274582,0.9978695511817932,0.0,0.0,0.0,39.9959602355957,9.823653221130371,3.3522696495056152,-7239.34814453125,0
1146.661,0.05330946668982506,0.016856687143445015,-0.055389612913131714,0.0,0.0,0.0,0.0,-0.0034500162582844496,-0.0028129906859248877,-0.0005604801117442548,0.9990748763084412,0.0,0.0,0.0,39.956939697265625,9.812695503234863,3.335855007171631,-7232.28564453125,0
1156.5349999999999,0.05324489623308182,0.01730685867369175,-0.05595811828970909,0.0,0.0,0.0,0.0,-0.0030457722023129463,0.0035742323379963636,7.730565994279459e-05,0.9992061853408813,0.0,0.0,0.0,40.215511322021484,9.906447410583496,3.3397269248962402,-7279.08740234375,0
1166.42,0.05324520543217659,0.017268769443035126,-0.05591766908764839,0.0,0.0,0.0,0.0,-0.001063992502167821,0.002234154846519232,-0.0025065757799893618,0.9983155131340027,0.0,0.0,0.0,40.17656326293945,9.90119743347168,3.325498104095459,-7272.03857421875,0
1176.3009999999995,0.05324726179242134,0.017229607328772545,-0.055877771228551865,0.0,0.0,0.0,0.0,0.000289986259303987,-0.0006864987662993371,0.003282984020188451,0.9992383122444153,0.0,0.0,0.0,40.13558578491211,9.891845703125,3.3178672790527344,-7264.6201171875,0
1186.179,0.05325206369161606,0.01719002053141594,-0.05583851784467697,0.0,0.0,0.0,0.0,0.0017054732888936996,0.004082264844328165,-0.00353355729021132,1.0010887384414673,0.0,0.0,0.0,40.09733200073242,9.885627746582031,3.3109195232391357,-7257.697265625,0
1196.071,0.053259674459695816,0.017149921506643295,-0.05579884350299835,0.0,0.0,0.0,0.0,-0.0008093640790320933,-0.0010221224511042237,0.0021260404027998447,1.0011042356491089,0.0,0.0,0.0,40.05729675292969,9.879841804504395,3.297213554382324,-7250.4501953125,0
1205.9560000000001,0.053268104791641235,0.017109258100390434,-0.055757787078619,0.0,0.0,0.0,0.0,0.0003982534690294415,0.0052774325013160706,-0.0020858377683907747,0.9978995323181152,0.0,0.0,0.0,40.01787185668945,9.874195098876953,3.2934656143188477,-7243.31494140625,0
1215.8469999999998,0.053276121616363525,0.017067505046725273,-0.05571641027927399,0.0,0.0,0.0,0.0,0.00021003723668400198,-0.008036536164581776,0.002978675998747349,1.0000836849212646,0.0,0.0,0.0,39.977294921875,9.864654541015625,3.278644561767578,-7235.97021484375,0
1225.7209999999995,0.05328468978404999,0.017024269327521324,-0.05567555129528046,0.0,0.0,0.0,0.0,-0.0007471246062777936,0.0009156130836345255,0.0007960392395034432,1.0005459785461426,0.0,0.0,0.0,39.93819046020508,9.859678268432617,3.296468734741211,-7228.8916015625,0
1235.6089999999986,0.05329499393701553,0.016979265958070755,-0.05563418194651604,0.0,0.0,0.0,0.0,-0.0006176382303237915,0.006617685779929161,-0.0008122126455418766,1.000002145767212,0.0,0.0,0.0,39.89957809448242,9.852667808532715,3.2940006256103516,-7221.9033203125,0
1245.4889999999996,0.053306691348552704,0.016932103782892227,-0.05559195950627327,0.0,0.0,0.0,0.0,0.0012183948419988155,0.0006551388651132584,-0.001143798348493874,0.9993459582328796,0.0,0.0,0.0,39.86024856567383,9.843825340270996,3.277998685836792,-7214.7841796875,0
1255.3809999999994,0.05331926792860031,0.016882428899407387,-0.055549707263708115,0.0,0.0,0.0,0.0,0.0034706497099250555,-9.855882672127336e-05,0.0006751937326043844,1.000753402709961,0.0,0.0,0.0,39.820926666259766,9.830318450927734,3.266526699066162,-7207.66748046875,0
1265.2799999999988,0.053332891315221786,0.016829632222652435,-0.05550699681043625,0.0,0.0,0.0,0.0,-0.0017913606716319919,0.0021770864259451628,-0.0004776997957378626,0.9996188282966614,0.0,0.0,0.0,39.7818489074707,9.817533493041992,3.2636730670928955,-7200.59375,0
1275.152,0.05334801226854324,0.016774151474237442,-0.055463340133428574,0.0,0.0,0.0,0.0,0.0026393518783152103,-0.001557477400638163,0.0005798410275019705,0.9969910383224487,0.0,0.0,0.0,39.74241256713867,9.810430526733398,3.254410982131958,-7193.4560546875,0
1285.039999999999,0.053364090621471405,0.016716813668608665,-0.05542033910751343,0.0,0.0,0.0,0.0,-0.0013287300243973732,0.0027258584741503,-0.0014748526737093925,0.9990173578262329,0.0,0.0,0.0,39.70408630371094,9.794480323791504,3.249277353286743,-7186.51904296875,0
1294.932999999999,0.053380824625492096,0.016657451167702675,-0.05537857860326767,0.0,0.0,0.0,0.0,0.001076672226190567,0.00183022185228765,0.00021580149768851697,0.9983624815940857,0.0,0.0,0.0,39.664947509765625,9.78719425201416,3.2457642555236816,-7179.43408203125,0
1304.7979999999989,0.05339883640408516,0.016596684232354164,-0.055337920784950256,0.0,0.0,0.0,0.0,0.001152619021013379,-0.0001883612567326054,-0.0014156947145238519,0.9990781545639038,0.0,0.0,0.0,39.62660217285156,9.773226737976074,3.2351603507995605,-7172.494140625,0
1314.6970000000001,0.053417302668094635,0.016535921022295952,-0.055298224091529846,0.0,0.0,0.0,0.0,-0.001986132003366947,-0.0005193076794967055,0.0019511079881340265,1.0010031461715698,0.0,0.0,0.0,39.58739471435547,9.762560844421387,3.2300281524658203,-7165.3974609375,0
1324.5679999999993,0.05343535169959068,0.01647479645907879,-0.05525822937488556,0.0,0.0,0.0,0.0,-0.0012948125367984176,0.0023246363271027803,-0.002475759945809841,1.0002473592758179,0.0,0.0,0.0,39.549537658691406,9.757525444030762,3.2288122177124023,-7158.544921875,0
1334.4719999999998,0.053453151136636734,0.016411613672971725,-0.05521702766418457,0.0,0.0,0.0,0.0,-0.003445431822910905,-0.0007632459164597094,0.0005901019903831184,1.000016689300537,0.0,0.0,0.0,39.50973129272461,9.753325462341309,3.2215824127197266,-7151.34033203125,0
1344.351999999999,0.05347083508968353,0.01634453423321247,-0.05517493188381195,0.0,0.0,0.0,0.0,0.000813922903034836,0.0014598745619878173,0.0009098713053390384,1.0004425048828125,0.0,0.0,0.0,39.47225570678711,9.749601364135742,3.218567371368408,-7144.55712890625,0
1354.2279999999992,0.053432464599609375,0.01739455945789814,-0.05629761517047882,0.0,0.0,0.0,0.0,-0.0033340645022690296,0.004042958375066519,-0.0034125205129384995,1.0012414455413818,0.0,0.0,0.0,39.80699157714844,9.882305145263672,3.2328295707702637,-7205.14404296875,0
1364.1089999999986,0.053432900458574295,0.017350275069475174,-0.056259021162986755,0.0,0.0,0.0,0.0,0.0009787200251594186,-0.004672819748520851,0.0016249304171651602,0.9986250996589661,0.0,0.0,0.0,39.7674674987793,9.87714958190918,3.2181851863861084,-7197.99072265625,0
1373.9989999999998,0.05343400314450264,0.017303038388490677,-0.05621979013085365,0.0,0.0,0.0,0.0,-0.0013764292234554887,-0.005253182258456945,0.003691992489621043,0.9992720484733582,0.0,0.0,0.0,39.72944259643555,9.871959686279297,3.22444748878479,-7191.1083984375,0
1383.8909999999996,0.05343486741185188,0.01725270226597786,-0.05618090182542801,0.0,0.0,0.0,0.0,2.0523990315268748e-05,0.00032256284612230957,-0.002446012571454048,0.9989230632781982,0.0,0.0,0.0,39.691864013671875,9.874364852905273,3.2315661907196045,-7184.30712890625,0
1393.7739999999994,0.05348597839474678,0.017561981454491615,-0.05666106194257736,0.0,0.0,0.0,0.0,0.0005452968762256205,-0.0043269554153084755,0.0022896802984178066,1.0014841556549072,0.0,0.0,0.0,39.99580383300781,9.900453567504883,3.2581701278686523,-7239.31982421875,0
1403.661,0.05347990617156029,0.01751825585961342,-0.05662594363093376,0.0,0.0,0.0,0.0,-0.0005266910884529352,-0.0012695167679339647,-0.003602833952754736,1.0003079175949097,0.0,0.0,0.0,39.956871032714844,9.887929916381836,3.2592217922210693,-7232.27294921875,0
1413.5339999999997,0.05347360298037529,0.01747296378016472,-0.056589603424072266,0.0,0.0,0.0,0.0,-0.0026357960887253284,0.001108541153371334,0.0022797391284257174,0.9985140562057495,0.0,0.0,0.0,39.91672134399414,9.879302024841309,3.261875629425049,-7225.005859375,0
1423.4249999999993,0.053467970341444016,0.017426269128918648,-0.05655309930443764,0.0,0.0,0.0,0.0,0.002492737490683794,-0.00013713733642362058,-0.001540423952974379,0.9995978474617004,0.0,0.0,0.0,39.878578186035156,9.877254486083984,3.2608017921447754,-7218.10205078125,0
1433.3149999999987,0.053517647087574005,0.017716465517878532,-0.05689447000622749,0.0,0.0,0.0,0.0,0.0005421216483227909,-0.0029048605356365442,-0.0011332066496834159,0.9987182021141052,0.0,0.0,0.0,40.149017333984375,9.909202575683594,3.2927606105804443,-7267.0517578125,0
1443.2029999999995,0.05351101979613304,0.01768084242939949,-0.05686046928167343,0.0,0.0,0.0,0.0,-0.002937672194093466,0.0005139914574101567,0.0004593266057781875,1.000037431716919,0.0,0.0,0.0,40.110172271728516,9.8997163772583,3.2913594245910645,-7260.02099609375,0
1453.0829999999987,0.05350614711642265,0.017643935978412628,-0.05682668462395668,0.0,0.0,0.0,0.0,0.00118497374933213,0.005473711062222719,-0.0004656127712223679,0.9984287023544312,0.0,0.0,0.0,40.07154083251953,9.900544166564941,3.295164108276367,-7253.0283203125,0
1462.9699999999993,0.05350317806005478,0.017604608088731766,-0.056793294847011566,0.0,0.0,0.0,0.0,-0.0017510115867480636,0.00425101350992918,-0.0007428030367009342,0.9995536208152771,0.0,0.0,0.0,40.03293991088867,9.893280982971191,3.2822701930999756,-7246.0419921875,0
1472.8439999999991,0.053502582013607025,0.017563218250870705,-0.05676060542464256,0.0,0.0,0.0,0.0,0.0012356324587017298,0.0011323429644107819,-0.0032992500346153975,0.9991480708122253,0.0,0.0,0.0,39.99345016479492,9.88901424407959,3.2679717540740967,-7238.89453125,0
1482.744999999999,0.05350393429398537,0.01752130687236786,-0.05672850087285042,0.0,0.0,0.0,0.0,0.0003107815864495933,-0.008220331743359566,0.004441660828888416,0.9989656805992126,0.0,0.0,0.0,39.953704833984375,9.881417274475098,3.2569563388824463,-7231.7001953125,0
1492.6149999999998,0.05350611358880997,0.017479706555604935,-0.056697048246860504,0.0,0.0,0.0,0.0,-0.0009534924756735563,-0.003170102834701538,-0.002674045506864786,1.0011241436004639,0.0,0.0,0.0,39.916168212890625,9.875794410705566,3.263179063796997,-7224.90576171875,0
1502.5059999999994,0.05350909382104874,0.017438258975744247,-0.05666544660925865,0.0,0.0,0.0,0.0,-0.003691421588882804,-0.00780724361538887,0.003963709343224764,1.0002309083938599,0.0,0.0,0.0,39.87644577026367,9.86922836303711,3.2693870067596436,-7217.71630859375,0
1512.3940000000002,0.05351347103714943,0.017396265640854836,-0.05663304403424263,0.0,0.0,0.0,0.0,-0.0010710423812270164,0.00026350541156716645,0.0015505474293604493,0.9991823434829712,0.0,0.0,0.0,39.8372917175293,9.869654655456543,3.284458637237549,-7210.62890625,0
1522.2789999999986,0.05351915955543518,0.017352215945720673,-0.05660032853484154,0.0,0.0,0.0,0.0,-0.00037375048850663006,-0.0011808756971731782,0.0002673709823284298,1.0019235610961914,0.0,0.0,0.0,39.798072814941406,9.863475799560547,3.280064582824707,-7203.5302734375,0
1532.1619999999984,0.053524408489465714,0.017304645851254463,-0.056566812098026276,0.0,0.0,0.0,0.0,0.00029890055884607136,0.0015678720083087683,-0.0014895000495016575,0.9990819096565247,0.0,0.0,0.0,39.75782012939453,9.858528137207031,3.2822179794311523,-7196.244140625,0
1542.054,0.05352916941046715,0.01725400798022747,-0.056532446295022964,0.0,0.0,0.0,0.0,-0.003434285521507263,0.0007388442172668874,-0.0027080350555479527,0.9970157146453857,0.0,0.0,0.0,39.7180290222168,9.850460052490234,3.2696309089660645,-7189.04248046875,0
1551.9349999999995,0.05353531241416931,0.017201334238052368,-0.05649915337562561,0.0,0.0,0.0,0.0,-0.003945407457649708,-0.004797106143087149,0.00272485357709229,0.9976857304573059,0.0,0.0,0.0,39.67858123779297,9.845619201660156,3.2656073570251465,-7181.90185546875,0
1561.8179999999993,0.05354377627372742,0.01714707538485527,-0.0564679279923439,0.0,0.0,0.0,0.0,-0.0007894840673543513,0.002634720876812935,0.00015466920740436763,0.9990310072898865,0.0,0.0,0.0,39.63968276977539,9.847434997558594,3.2648468017578125,-7174.86083984375,0
1571.6939999999995,0.05355387553572655,0.01709170639514923,-0.05643802508711815,0.0,0.0,0.0,0.0,-0.0008635828271508217,0.0018821466946974397,-0.0019371878588572145,1.0001455545425415,0.0,0.0,0.0,39.60071563720703,9.837353706359863,3.250685930252075,-7167.80859375,0
1581.583999999999,0.05356501787900925,0.017035305500030518,-0.056408338248729706,0.0,0.0,0.0,0.0,-0.0004814408312086016,0.002086436841636896,-0.0004519127251114696,1.000056505203247,0.0,0.0,0.0,39.5620231628418,9.826726913452148,3.234708309173584,-7160.8046875,0
1591.4740000000002,0.053581833839416504,0.017663175240159035,-0.057191234081983566,0.0,0.0,0.0,0.0,-0.0017334931762889028,-0.0038105803541839123,0.001994755817577243,0.9993005990982056,0.0,0.0,0.0,39.87356185913086,9.913758277893066,3.243661642074585,-7217.193359375,0
1601.3580000000002,0.053585149347782135,0.017622433602809906,-0.05716504156589508,0.0,0.0,0.0,0.0,-0.0007777164573781192,0.003206067020073533,0.0021713441237807274,0.9985021352767944,0.0,0.0,0.0,39.83482360839844,9.913772583007812,3.245130777359009,-7210.181640625,0
1611.2330000000002,0.053763970732688904,0.01794036291539669,-0.057631563395261765,0.0,0.0,0.0,0.0,-0.0016467329114675522,0.006308816839009523,-0.0016466822708025575,0.998491108417511,0.0,0.0,0.0,40.100074768066406,9.920114517211914,3.2812445163726807,-7258.193359375,0
1621.1260000000002,0.05377217382192612,0.01790723018348217,-0.05760917067527771,0.0,0.0,0.0,0.0,-0.0018722187960520387,0.0002422211691737175,-0.003438124665990472,0.9997793436050415,0.0,0.0,0.0,40.06057357788086,9.911584854125977,3.2553374767303467,-7251.04296875,0
1631.012999999999,0.05378096550703049,0.017872057855129242,-0.057587262243032455,0.0,0.0,0.0,0.0,2.7164473067387007e-05,-0.005478603299707174,0.001510625472292304,0.9983980655670166,0.0,0.0,0.0,40.020751953125,9.904389381408691,3.2533528804779053,-7243.8359375,0
1640.8999999999996,0.053790174424648285,0.017833806574344635,-0.05756553262472153,0.0,0.0,0.0,0.0,-0.0037791021168231964,-0.0013607400469481945,-0.000968550331890583,0.9980680346488953,0.0,0.0,0.0,39.98200607299805,9.896772384643555,3.262077569961548,-7236.82275390625,0
1650.7829999999994,0.05379987508058548,0.017793580889701843,-0.0575447678565979,0.0,0.0,0.0,0.0,0.001782872248440981,0.006102077197283506,-0.0015838633989915252,0.9973981976509094,0.0,0.0,0.0,39.94230270385742,9.89520263671875,3.252957344055176,-7229.63623046875,0
1660.664999999999,0.053810250014066696,0.017751073464751244,-0.05752559378743172,0.0,0.0,0.0,0.0,-0.000313828291837126,-0.0027365568093955517,0.007732897996902466,0.9988337159156799,0.0,0.0,0.0,39.90299987792969,9.885380744934082,3.240119457244873,-7222.52197265625,0
1670.5439999999999,0.05382067337632179,0.01770499162375927,-0.05750776827335358,0.0,0.0,0.0,0.0,0.003023091470822692,-0.0013045675586909056,-0.0004839345929212868,1.0016884803771973,0.0,0.0,0.0,39.86532974243164,9.881054878234863,3.2351794242858887,-7215.70361328125,0
1680.4429999999993,0.053831424564123154,0.0176556296646595,-0.05748947709798813,0.0,0.0,0.0,0.0,-0.0005138406995683908,0.0016764176543802023,-0.0007512898882851005,1.0008623600006104,0.0,0.0,0.0,39.82551193237305,9.865527153015137,3.237877130508423,-7208.4970703125,0
1690.3179999999993,0.05384203791618347,0.017604567110538483,-0.05746951699256897,0.0,0.0,0.0,0.0,-0.0009208027040585876,-0.002195249544456601,0.0013635995564982295,1.000954508781433,0.0,0.0,0.0,39.78635787963867,9.860572814941406,3.2364861965179443,-7201.41015625,0
1700.2109999999993,0.05385184288024902,0.017552534118294716,-0.05744791030883789,0.0,0.0,0.0,0.0,-0.002697426127269864,7.407936209347099e-05,-0.0006438769050873816,1.0009076595306396,0.0,0.0,0.0,39.748756408691406,9.853174209594727,3.2427451610565186,-7194.60400390625,0
1710.0959999999995,0.053862571716308594,0.017498306930065155,-0.057424791157245636,0.0,0.0,0.0,0.0,-0.0013901065103709698,0.002238884102553129,-0.0003476359124761075,0.998396635055542,0.0,0.0,0.0,39.71022415161133,9.846271514892578,3.241271495819092,-7187.6298828125,0
1719.976999999999,0.05387566238641739,0.01744089648127556,-0.05740116909146309,0.0,0.0,0.0,0.0,-0.0001455788005841896,-0.0014119682600721717,0.0007629274623468518,0.9998319745063782,0.0,0.0,0.0,39.67090606689453,9.841300010681152,3.228262186050415,-7180.51220703125,0
1729.8670000000002,0.053844742476940155,0.0179650466889143,-0.05780946463346481,0.0,0.0,0.0,0.0,6.862736336188391e-05,0.00439606886357069,0.002017798600718379,0.997104287147522,0.0,0.0,0.0,39.96709060668945,9.941789627075195,3.2626662254333496,-7234.12353515625,0
1739.7579999999998,0.05385065823793411,0.017924349755048752,-0.05778735503554344,0.0,0.0,0.0,0.0,0.0003815453965216875,-0.0030225790105760098,-0.0011715148575603962,1.0000524520874023,0.0,0.0,0.0,39.92827224731445,9.931578636169434,3.2444851398468018,-7227.09716796875,0
1749.6279999999988,0.05385616049170494,0.01788291148841381,-0.05776612460613251,0.0,0.0,0.0,0.0,-0.00021655183809343725,-6.960432801861316e-05,-0.0018256979528814554,1.0010789632797241,0.0,0.0,0.0,39.88953399658203,9.923280715942383,3.239771604537964,-7220.0849609375,0
1759.5069999999996,0.05386107787489891,0.01784084364771843,-0.05774403363466263,0.0,0.0,0.0,0.0,-0.0037335341330617666,0.0007520012441091239,-0.0029823631048202515,0.9998857378959656,0.0,0.0,0.0,39.850311279296875,9.917941093444824,3.235682725906372,-7212.9853515625,0
1769.3989999999994,0.053866688162088394,0.017797211185097694,-0.057720690965652466,0.0,0.0,0.0,0.0,-0.0028528927359730005,0.002528668148443103,0.0003916086570825428,0.9998388290405273,0.0,0.0,0.0,39.81155014038086,9.918707847595215,3.2281765937805176,-7205.96923828125,0
1779.2829999999994,0.05387386679649353,0.01775180548429489,-0.05769672244787216,0.0,0.0,0.0,0.0,-8.152384543791413e-05,-0.0030191869009286165,-0.00014390054275281727,1.0015650987625122,0.0,0.0,0.0,39.77347183227539,9.909690856933594,3.2127819061279297,-7199.0771484375,0
1789.173999999999,0.05388220027089119,0.017704375088214874,-0.05767163634300232,0.0,0.0,0.0,0.0,0.0016323786694556475,0.006131280679255724,-0.0011562693398445845,1.001845359802246,0.0,0.0,0.0,39.73423385620117,9.902152061462402,3.206393003463745,-7191.97509765625,0
1799.0519999999997,0.053890980780124664,0.01765468902885914,-0.05764462426304817,0.0,0.0,0.0,0.0,0.00010048894910141826,-0.005703684873878956,-0.0011153523810207844,0.9995169043540955,0.0,0.0,0.0,39.6955451965332,9.892291069030762,3.1857492923736572,-7184.97265625,0
1808.9349999999995,0.05390104651451111,0.01760263182222843,-0.05761624500155449,0.0,0.0,0.0,0.0,0.001283887424506247,-0.003053662134334445,0.0019986843690276146,0.999900758266449,0.0,0.0,0.0,39.65568161010742,9.880684852600098,3.1937055587768555,-7177.7568359375,0
1818.8349999999991,0.05391291156411171,0.01754937134683132,-0.057587429881095886,0.0,0.0,0.0,0.0,-0.002221053233370185,0.0011229313677176833,-0.0015686764381825924,1.0006471872329712,0.0,0.0,0.0,39.61683654785156,9.870780944824219,3.2005300521850586,-7170.7265625,0
1828.700999999999,0.05392597243189812,0.017495758831501007,-0.05755799636244774,0.0,0.0,0.0,0.0,-0.0024771708995103836,-0.00040501091280020773,0.0008411360904574394,0.9983351826667786,0.0,0.0,0.0,39.5784797668457,9.865350723266602,3.193136692047119,-7163.783203125,0
1838.5879999999997,0.053940460085868835,0.017440970987081528,-0.05752832815051079,0.0,0.0,0.0,0.0,-0.002481806091964245,-0.005040181800723076,-0.0024537276476621628,0.9991546869277954,0.0,0.0,0.0,39.54042434692383,9.859174728393555,3.1875293254852295,-7156.8955078125,0
1848.4839999999986,0.054082322865724564,0.018302705138921738,-0.05851108580827713,0.0,0.0,0.0,0.0,-0.0029095748905092478,-0.0015443824231624603,-0.0015661693178117275,0.9979748725891113,0.0,0.0,0.0,39.85247802734375,9.96300983428955,3.243598699569702,-7213.37744140625,0
1858.369999999999,0.05409112945199013,0.018271634355187416,-0.058486469089984894,0.0,0.0,0.0,0.0,-0.0015594204887747765,-0.0033930777572095394,-0.001149875926785171,1.0003243684768677,0.0,0.0,0.0,39.812713623046875,9.958946228027344,3.244410991668701,-7206.18017578125,0
1868.241,0.05410140007734299,0.018239105120301247,-0.05846242606639862,0.0,0.0,0.0,0.0,-1.8190397895523347e-05,-0.0030991544481366873,0.0013541176449507475,1.0022544860839844,0.0,0.0,0.0,39.77373123168945,9.949527740478516,3.245903253555298,-7199.125,0
1878.1319999999996,0.054113175719976425,0.018204908818006516,-0.05843715742230415,0.0,0.0,0.0,0.0,0.0010824453784152865,-0.005119553301483393,-0.0006741953548043966,1.000722050666809,0.0,0.0,0.0,39.73524856567383,9.941340446472168,3.2385995388031006,-7192.1591796875,0
1888.0119999999988,0.05412553250789642,0.01816944219172001,-0.05841013416647911,0.0,0.0,0.0,0.0,0.0010228584287688136,-0.0011725076474249363,-0.0003531739057507366,0.9984751343727112,0.0,0.0,0.0,39.69577407836914,9.933855056762695,3.240962266921997,-7185.0146484375,0
1897.914999999999,0.054139524698257446,0.01813226379454136,-0.05838271602988243,0.0,0.0,0.0,0.0,-0.0030831226613372564,-0.0025369918439537287,-0.0017452903557568789,0.998518168926239,0.0,0.0,0.0,39.656436920166016,9.924874305725098,3.2322726249694824,-7177.8935546875,0
1907.7839999999997,0.0541561134159565,0.018093019723892212,-0.05835610255599022,0.0,0.0,0.0,0.0,0.0009119506576098502,0.0036940788850188255,0.0020572233479470015,0.9987096786499023,0.0,0.0,0.0,39.61648178100586,9.91935920715332,3.2232823371887207,-7170.66162109375,0
1917.6799999999985,0.05417377129197121,0.01805270090699196,-0.058330509811639786,0.0,0.0,0.0,0.0,-0.0014122468419373035,0.0005911087500862777,0.0024789543822407722,0.9988046288490295,0.0,0.0,0.0,39.57826614379883,9.909258842468262,3.214390516281128,-7163.7451171875,0
1927.5499999999993,0.054191622883081436,0.018010713160037994,-0.05830570310354233,0.0,0.0,0.0,0.0,0.003339204238727689,0.0009095985442399979,-0.0031044858042150736,0.9991709589958191,0.0,0.0,0.0,39.53916549682617,9.90222454071045,3.2050533294677734,-7156.66748046875,0
1937.450999999999,0.05421049892902374,0.01796659082174301,-0.05828149989247322,0.0,0.0,0.0,0.0,0.0026444352697581053,0.0001642543647903949,0.0034794483799487352,0.9997565150260925,0.0,0.0,0.0,39.49857711791992,9.888069152832031,3.1985554695129395,-7149.3212890625,0
1947.3319999999985,0.05416053533554077,0.018481420353055,-0.05885779485106468,0.0,0.0,0.0,0.0,-0.0004584763664752245,-0.0007685301825404167,0.00015798681124579161,0.999844491481781,0.0,0.0,0.0,39.8242301940918,9.970823287963867,3.208085060119629,-7208.2646484375,0
1957.2150000000001,0.05416777357459068,0.0184517502784729,-0.058837153017520905,0.0,0.0,0.0,0.0,-0.0012979742605239153,-0.0032659724820405245,0.00017984642181545496,0.9981182813644409,0.0,0.0,0.0,39.785499572753906,9.964295387268066,3.1950888633728027,-7201.25439453125,0
1967.0949999999993,0.054175201803445816,0.018418792635202408,-0.05881672352552414,0.0,0.0,0.0,0.0,0.0004938653437420726,-0.0004828745441045612,0.0007356706773862243,0.997730553150177,0.0,0.0,0.0,39.746665954589844,9.959997177124023,3.193138599395752,-7194.2255859375,0
1976.9839999999986,0.05418321490287781,0.01838323101401329,-0.058797672390937805,0.0,0.0,0.0,0.0,0.00047805477515794337,-0.0024363170377910137,0.003012605244293809,0.9995745420455933,0.0,0.0,0.0,39.7075080871582,9.95112133026123,3.1869359016418457,-7187.138671875,0
1986.875,0.05419139564037323,0.0183467585593462,-0.05877979099750519,0.0,0.0,0.0,0.0,0.0014483073027804494,0.00351096224039793,0.0009002597071230412,1.0000399351119995,0.0,0.0,0.0,39.66944122314453,9.944220542907715,3.185490369796753,-7180.2470703125,0
1996.762999999999,0.05419866740703583,0.018309421837329865,-0.05876200646162033,0.0,0.0,0.0,0.0,0.0006066917558200657,-0.00456316489726305,0.00014963954163249582,0.9979292154312134,0.0,0.0,0.0,39.63060760498047,9.934160232543945,3.1730215549468994,-7173.21875,0
2006.6350000000002,0.05415846034884453,0.01855110377073288,-0.059045396745204926,0.0,0.0,0.0,0.0,0.0012360941618680954,-0.0017090176697820425,-0.0006971851107664406,0.997087836265564,0.0,0.0,0.0,39.93286895751953,9.979256629943848,3.1873185634613037,-7227.9287109375,0
2016.5289999999986,0.054156869649887085,0.018519990146160126,-0.059031929820775986,0.0,0.0,0.0,0.0,-0.0017192718805745244,0.0009961662581190467,-0.0023208095226436853,0.998827338218689,0.0,0.0,0.0,39.893310546875,9.969563484191895,3.1911609172821045,-7220.7685546875,0
2026.4009999999998,0.054156363010406494,0.01848808117210865,-0.05901997908949852,0.0,0.0,0.0,0.0,-0.0035500398371368647,-0.0023463619872927666,-0.00014983219443820417,1.0005892515182495,0.0,0.0,0.0,39.85334396362305,9.962493896484375,3.1787898540496826,-7213.53466796875,0
2036.2889999999989,0.05415797978639603,0.018456073477864265,-0.059008240699768066,0.0,0.0,0.0,0.0,-0.0015115493442863226,0.001263906480744481,-0.00039680476766079664,0.9992957711219788,0.0,0.0,0.0,39.8144416809082,9.95681381225586,3.1827423572540283,-7206.49365234375,0
2046.1819999999989,0.054161008447408676,0.018423045054078102,-0.05899627134203911,0.0,0.0,0.0,0.0,-0.002433166606351733,-0.008415041491389275,0.0026419823989272118,0.9996002316474915,0.0,0.0,0.0,39.77543258666992,9.947955131530762,3.175203323364258,-7199.43212890625,0
2056.0609999999997,0.054165225476026535,0.018387215211987495,-0.058984290808439255,0.0,0.0,0.0,0.0,-0.001478730351664126,-0.0025528394617140293,0.0010398873127996922,0.9980962872505188,0.0,0.0,0.0,39.73713302612305,9.945000648498535,3.185185194015503,-7192.50048828125,0
2065.9399999999987,0.05417089909315109,0.018348336219787598,-0.05897266045212746,0.0,0.0,0.0,0.0,-0.0026926540303975344,-0.005337894894182682,0.0015106798382475972,0.9993828535079956,0.0,0.0,0.0,39.6992301940918,9.934837341308594,3.181325912475586,-7185.6396484375,0
2075.8369999999995,0.054177142679691315,0.018307434394955635,-0.05896179750561714,0.0,0.0,0.0,0.0,-0.001358849462121725,-0.002669692737981677,0.001946536242030561,0.9997485280036926,0.0,0.0,0.0,39.660728454589844,9.92767333984375,3.1873855590820312,-7178.67041015625,0
2085.7129999999997,0.05418344959616661,0.0182650126516819,-0.05895113945007324,0.0,0.0,0.0,0.0,0.0013114638859406114,-0.002241392619907856,-0.0013550443109124899,0.9991718530654907,0.0,0.0,0.0,39.6212158203125,9.923534393310547,3.184373617172241,-7171.5185546875,0
2095.5999999999985,0.05418897047638893,0.018220972269773483,-0.058940283954143524,0.0,0.0,0.0,0.0,0.0009967152727767825,-0.003987220581620932,0.001971759367734194,0.9965665340423584,0.0,0.0,0.0,39.58259582519531,9.91391372680664,3.1839349269866943,-7164.5283203125,0
2105.492,0.054264750331640244,0.01884506456553936,-0.05960788205265999,0.0,0.0,0.0,0.0,-0.0004187447775620967,0.007033775094896555,0.005764741450548172,1.000218152999878,0.0,0.0,0.0,39.89900207519531,9.997374534606934,3.228893995285034,-7221.79833984375,0
2115.384,0.054260823875665665,0.01881827972829342,-0.059601038694381714,0.0,0.0,0.0,0.0,0.0005142773152329028,0.0008960224804468453,-0.0008675522403791547,1.0015711784362793,0.0,0.0,0.0,39.860931396484375,9.989398956298828,3.211987018585205,-7214.90771484375,0
2125.259,0.0542573556303978,0.018789857625961304,-0.05959329009056091,0.0,0.0,0.0,0.0,0.0016819742741063237,-0.0019437916344031692,0.0006178388721309602,1.0006383657455444,0.0,0.0,0.0,39.821590423583984,9.97925853729248,3.206611156463623,-7207.78759765625,0
2135.1529999999984,0.05425424128770828,0.018760468810796738,-0.0595841221511364,0.0,0.0,0.0,0.0,0.002496037632226944,-0.010029163211584091,0.0009311015019193292,0.9999371767044067,0.0,0.0,0.0,39.7830810546875,9.966617584228516,3.202453851699829,-7200.81689453125,0
2145.027,0.05425066128373146,0.01872948557138443,-0.05957408621907234,0.0,0.0,0.0,0.0,-0.0013313634553924203,0.006510633509606123,0.0008671883842907846,0.9982112646102905,0.0,0.0,0.0,39.74461364746094,9.95927906036377,3.218122959136963,-7193.8544921875,0
2154.931999999999,0.05424671992659569,0.018696293234825134,-0.05956422537565231,0.0,0.0,0.0,0.0,-0.0015383624704554677,-0.001904733362607658,0.002380644902586937,0.9964798092842102,0.0,0.0,0.0,39.7060432434082,9.954270362854004,3.2019760608673096,-7186.87353515625,0
2164.798999999999,0.054244086146354675,0.018661651760339737,-0.05955607444047928,0.0,0.0,0.0,0.0,-0.001004805788397789,-0.005353896878659725,0.0013991965679451823,0.9995944499969482,0.0,0.0,0.0,39.667884826660156,9.949338912963867,3.2027387619018555,-7179.9658203125,0
2174.6859999999997,0.05424368381500244,0.018626706674695015,-0.05954926088452339,0.0,0.0,0.0,0.0,-0.0006559395114891231,-0.004616247024387121,0.0011113445507362485,0.9997745156288147,0.0,0.0,0.0,39.62883377075195,9.945473670959473,3.20796537399292,-7172.8974609375,0
2184.574999999999,0.05441119894385338,0.01901119016110897,-0.06006573140621185,0.0,0.0,0.0,0.0,0.001487180357798934,-0.0050117322243750095,-0.0006301534594967961,1.000103235244751,0.0,0.0,0.0,39.92983627319336,9.969878196716309,3.2538280487060547,-7227.38037109375,0
2194.465,0.05441569536924362,0.01898636668920517,-0.060060765594244,0.0,0.0,0.0,0.0,-0.0004807495279237628,-0.0009654114255681634,-0.0007434272556565702,0.9999930262565613,0.0,0.0,0.0,39.890647888183594,9.9568510055542,3.253201723098755,-7220.2861328125,0
2204.343999999999,0.05442105978727341,0.018960099667310715,-0.06005517765879631,0.0,0.0,0.0,0.0,-0.0013571487506851554,0.0041926852427423,-0.0018712676828727126,1.0003442764282227,0.0,0.0,0.0,39.85200881958008,9.949398040771484,3.250946521759033,-7213.29248046875,0
2214.227999999999,0.05442612245678902,0.01893223635852337,-0.060048799961805344,0.0,0.0,0.0,0.0,-0.001688713557086885,0.0020745915826410055,-0.001088236691430211,1.0009379386901855,0.0,0.0,0.0,39.813602447509766,9.940079689025879,3.2383391857147217,-7206.341796875,0
2224.111999999999,0.05443035811185837,0.01890234835445881,-0.060041479766368866,0.0,0.0,0.0,0.0,0.0005236113793216646,0.0017691951943561435,0.00014332120190374553,0.9982779026031494,0.0,0.0,0.0,39.77436065673828,9.934446334838867,3.231886863708496,-7199.23828125,0
