timestamp,stateEstimate.x,stateEstimate.y,stateEstimate.z,controller.cmd_thrust,controller.cmd_roll,controller.cmd_pitch,controller.cmd_yaw,controller.r_roll,controller.r_pitch,controller.r_yaw,controller.accelz,controller.actuatorThrust,controller.roll,controller.pitch,controller.yaw,controller.rollRate,controller.pitchRate,controller.yawRate,controller.ctr_yaw
0.0,8.072070158959832e-06,-0.00021412494243122637,-7.597249350510538e-05,0.0,0.0,0.0,0.0,-0.00024125006166286767,-0.005547415930777788,0.0023624091409146786,0.9968423843383789,0.0,0.0,0.0,0.203871488571167,10.520807266235352,-0.08158589154481888,-36.901145935058594,0
9.897000000000844,-2.5642209948273376e-05,-0.0002251045807497576,-4.9603993829805404e-05,0.0,0.0,0.0,0.0,-0.002521621761843562,-0.0032073711045086384,0.0008475257200188935,0.9983115196228027,0.0,0.0,0.0,0.1945941150188446,10.516512870788574,-0.06770364195108414,-35.221920013427734,0
19.764000000001033,4.709485801868141e-05,-0.0002051637857221067,-0.00010682174615794793,0.0,0.0,0.0,0.0,1.3777987987850793e-05,0.0031383191235363483,-0.001234891708008945,0.9997978806495667,0.0,0.0,0.0,0.20381629467010498,10.520882606506348,-0.05461771413683891,-36.89115524291992,0
29.669000000001688,-3.7109380173205864e-06,-0.00020060985116288066,-8.332807919941843e-05,0.0,0.0,0.0,0.0,-0.004416608717292547,-0.004578426014631987,-1.3210832548793405e-05,1.000663161277771,0.0,0.0,0.0,0.19360025227069855,10.523207664489746,-0.0706750899553299,-35.04203414916992,0
39.53600000000006,8.816862828098238e-05,-0.0001367136719636619,-0.00014932596241123974,0.0,0.0,0.0,0.0,0.0003323162964079529,0.0031390292569994926,0.0016586898127570748,0.9988029599189758,0.0,0.0,0.0,0.2051754891872406,10.535310745239258,-0.04793770983815193,-37.13717269897461,0
49.431000000000495,2.3056949430610985e-05,-0.00014619954163208604,-0.00014149511116556823,0.0,0.0,0.0,0.0,-0.0034240582026541233,-0.007251214701682329,0.0021508412901312113,1.0001518726348877,0.0,0.0,0.0,0.19195254147052765,10.534470558166504,-0.06524138897657394,-34.74379348754883,0
59.3070000000007,5.71551026951056e-05,-0.00012960073945578188,-0.00014689983800053596,0.0,0.0,0.0,0.0,0.002039681188762188,0.0006767469458281994,-5.9282410802552477e-05,0.9968014359474182,0.0,0.0,0.0,0.20372706651687622,10.544794082641602,-0.05539702624082565,-36.875003814697266,0
69.20900000000074,4.48201026301831e-05,-0.00017285124340560287,-0.00013991126616019756,0.0,0.0,0.0,0.0,-0.003164366353303194,-0.006990591995418072,-0.0007171537145040929,0.9989728927612305,0.0,0.0,0.0,0.1924700140953064,10.535347938537598,-0.051685284823179245,-34.83745574951172,0
79.07400000000052,8.851962047629058e-05,-0.0001891381834866479,-0.0001745640329318121,0.0,0.0,0.0,0.0,-0.0012993603013455868,-0.005416634026914835,0.0006647860282100737,1.0025497674942017,0.0,0.0,0.0,0.20312638580799103,10.540738105773926,-0.030939506366848946,-36.76627731323242,0
88.98500000000058,2.009781019296497e-05,-0.00018598689348436892,-0.0001626454177312553,0.0,0.0,0.0,0.0,0.001956563675776124,0.001228943350724876,0.0001825433864723891,1.0006567239761353,0.0,0.0,0.0,0.19078826904296875,10.541329383850098,-0.041642896831035614,-34.53305435180664,0
98.84799999999996,5.960769340163097e-05,-0.00019967847038060427,-0.00018869145424105227,0.0,0.0,0.0,0.0,0.0026218940038233995,0.003258668351918459,-0.0005402458482421935,0.999904215335846,0.0,0.0,0.0,0.20291079580783844,10.537147521972656,-0.0392075777053833,-36.727256774902344,0
108.7380000000012,-1.8436196114635095e-05,-0.00015814202197361737,-0.00015950393571984023,0.0,0.0,0.0,0.0,0.00021750164160039276,-0.006329761352390051,-0.00031489614048041403,0.9996460676193237,0.0,0.0,0.0,0.19230785965919495,10.540780067443848,-0.05217328667640686,-34.80810546875,0
118.6180000000004,6.145850056782365e-05,-9.832806244958192e-05,-0.00022070633713155985,0.0,0.0,0.0,0.0,-0.00018078119319397956,-0.0029942088294774294,-0.0024024308659136295,1.000831127166748,0.0,0.0,0.0,0.19919873774051666,10.547725677490234,-0.029133589938282967,-36.05536651611328,0
128.50900000000001,3.1915642466628924e-05,-0.00012111359683331102,-0.0002081758575513959,0.0,0.0,0.0,0.0,-0.00017706106882542372,-0.00248318025842309,0.000965988147072494,0.9998577833175659,0.0,0.0,0.0,0.1871144026517868,10.54448127746582,-0.03297143429517746,-33.868080139160156,0
138.38500000000022,8.575003448640928e-05,-8.953246288001537e-05,-0.00024296411720570177,0.0,0.0,0.0,0.0,-0.0021735504269599915,0.001129542593844235,-0.0002890122414100915,1.0003646612167358,0.0,0.0,0.0,0.19569668173789978,10.551173210144043,-0.008862342685461044,-35.42148971557617,0
148.28300000000127,9.282227438234258e-06,-8.42482695588842e-05,-0.00023332775162998587,0.0,0.0,0.0,0.0,0.0010980302467942238,0.00027293513994663954,-0.00153909414075315,0.9985343813896179,0.0,0.0,0.0,0.1872946321964264,10.558156967163086,-0.020853763446211815,-33.900699615478516,0
158.15600000000086,2.6017652999144047e-05,-0.00011178691056557,-0.00023583487200085074,0.0,0.0,0.0,0.0,-0.0013485398376360536,-0.004874037578701973,-0.0017763093346729875,0.9982631206512451,0.0,0.0,0.0,0.1974959671497345,10.553825378417969,-0.014733984135091305,-35.747161865234375,0
168.0540000000001,9.768089512363076e-06,-0.0001585112331667915,-0.0002330573770450428,0.0,0.0,0.0,0.0,0.002843869850039482,-0.0004994135815650225,0.0014130062190815806,1.001428246498108,0.0,0.0,0.0,0.18739350140094757,10.547201156616211,-0.0070214602164924145,-33.91859436035156,0
177.9290000000001,3.6115692637395114e-05,-0.00019106364925391972,-0.00024994538398459554,0.0,0.0,0.0,0.0,-0.002593754092231393,-0.0023725666105747223,-0.0005768596311099827,1.0012130737304688,0.0,0.0,0.0,0.19466890394687653,10.54052734375,0.0038686187472194433,-35.2354621887207,0
187.81900000000132,-2.1656727767549455e-05,-0.00014425099652726203,-0.00021119166922289878,0.0,0.0,0.0,0.0,0.0008381520747207105,-0.008304111659526825,-0.0015727508580312133,0.9968779683113098,0.0,0.0,0.0,0.18435470759868622,10.554905891418457,-0.00012648661504499614,-33.36857223510742,0
197.69500000000153,-2.590976146166213e-05,-0.00019750560750253499,-0.00019100996723864228,0.0,0.0,0.0,0.0,0.0005301791825331748,-0.0007576801581308246,-0.001586700091138482,0.9978998303413391,0.0,0.0,0.0,0.1965714395046234,10.5459566116333,0.011622433550655842,-35.57981872558594,0
207.60400000000118,-3.701598689076491e-05,-0.0001677096588537097,-0.00014243331679608673,0.0,0.0,0.0,0.0,-0.0013637907104566693,0.001318315276876092,0.0002081366692436859,1.00118887424469,0.0,0.0,0.0,0.18538343906402588,10.551733016967773,0.014636418782174587,-33.55476760864258,0
217.46900000000096,-2.1591562472167425e-05,-0.0002086837193928659,-0.00014131792704574764,0.0,0.0,0.0,0.0,-0.004443056881427765,-0.004487067926675081,-0.001786853070370853,1.0006752014160156,0.0,0.0,0.0,0.1933644413948059,10.548129081726074,0.013587833382189274,-34.99934768676758,0
227.3630000000012,-4.4476386392489076e-05,-0.00018041685689240694,-9.064085315912962e-05,0.0,0.0,0.0,0.0,0.001336031360551715,0.004876385442912579,0.0006845851894468069,0.9998365640640259,0.0,0.0,0.0,0.18164877593517303,10.560186386108398,0.008095735684037209,-32.878787994384766,0
237.2360000000008,5.362373485695571e-06,-0.00019172151223756373,-0.00012200065248180181,0.0,0.0,0.0,0.0,0.002428402192890644,-0.0066159311681985855,-0.003462547203525901,0.9977779984474182,0.0,0.0,0.0,0.18963564932346344,10.554893493652344,0.008659266866743565,-34.32442855834961,0
247.12900000000081,-4.114811235922389e-05,-0.0001774039410520345,-8.656313002575189e-05,0.0,0.0,0.0,0.0,-0.001033107633702457,-0.003638436319306493,-0.001997255953028798,0.9993776082992554,0.0,0.0,0.0,0.1815861612558365,10.55755615234375,0.016975581645965576,-32.867454528808594,0
257.005000000001,-6.012227458995767e-05,-0.00029504005215130746,-6.615379970753565e-05,0.0,0.0,0.0,0.0,0.0010046809911727905,0.0011743762297555804,-0.0014563861768692732,0.9983018040657043,0.0,0.0,0.0,0.1895260214805603,10.545160293579102,0.018690919503569603,-34.304588317871094,0
266.90300000000025,-0.00012958400475326926,-0.0002896793303079903,-3.683836621348746e-05,0.0,0.0,0.0,0.0,-0.002327981637790799,-0.002093724673613906,0.0004000620683655143,0.9969279170036316,0.0,0.0,0.0,0.1819600909948349,10.54627799987793,0.019340984523296356,-32.93513488769531,0
276.77700000000004,-7.658914546482265e-05,-0.0002622379979584366,-7.13015760993585e-05,0.0,0.0,0.0,0.0,-0.0006635183235630393,0.004738406278192997,-0.0009349666652269661,0.9991198182106018,0.0,0.0,0.0,0.19310221076011658,10.55843734741211,0.035283412784338,-34.95188522338867,0
286.6810000000005,-7.090715371305123e-05,-0.000271239026915282,-3.205448592780158e-05,0.0,0.0,0.0,0.0,-0.0010649793548509479,0.0016572852618992329,-0.00101763557177037,1.0010325908660889,0.0,0.0,0.0,0.1809581071138382,10.557034492492676,0.019841790199279785,-32.753780364990234,0
296.5490000000009,1.083877850760473e-05,-0.0002195811684941873,-9.803432476473972e-05,0.0,0.0,0.0,0.0,-0.0010835761204361916,0.004025603178888559,4.5797965867677703e-05,0.9973860383033752,0.0,0.0,0.0,0.1922592967748642,10.564412117004395,0.02733640931546688,-34.79931640625,0
306.4410000000007,-6.272491009440273e-05,-0.0001878601178759709,-6.842090806458145e-05,0.0,0.0,0.0,0.0,-0.0003205442044418305,0.001046463381499052,0.0010263300500810146,1.0017138719558716,0.0,0.0,0.0,0.1838981658220291,10.574739456176758,0.012326676398515701,-33.28593444824219,0
316.3160000000007,5.717065505450591e-07,-0.00018974555132444948,-0.0001294302346650511,0.0,0.0,0.0,0.0,0.001321488874964416,0.0035464665852487087,0.0043917144648730755,1.0007147789001465,0.0,0.0,0.0,0.1906205117702484,10.572697639465332,0.022050421684980392,-34.502689361572266,0
326.21500000000015,-3.535931682563387e-05,-0.0001801878388505429,-9.955881250789389e-05,0.0,0.0,0.0,0.0,0.0012592875864356756,-0.0017892313189804554,-0.0010555257322266698,0.9987618923187256,0.0,0.0,0.0,0.18304409086704254,10.571895599365234,0.015169994905591011,-33.131343841552734,0
336.08700000000135,2.0286255676182918e-05,-0.00018430253840051591,-0.0001471589202992618,0.0,0.0,0.0,0.0,-0.001011619926430285,0.0017918392550200224,0.0025779162533581257,0.9989990592002869,0.0,0.0,0.0,0.19476144015789032,10.56862735748291,0.024200070649385452,-35.25220489501953,0
345.9830000000002,-2.9259384973556735e-05,-0.0001600173709448427,-0.00012050729128532112,0.0,0.0,0.0,0.0,-0.0024787995498627424,-0.00165952043607831,-0.00014989970077294856,0.999504029750824,0.0,0.0,0.0,0.18690747022628784,10.577871322631836,0.013494881801307201,-33.830623626708984,0
355.8560000000016,5.6062417570501566e-05,-0.0001381929323542863,-0.0001992221805267036,0.0,0.0,0.0,0.0,-0.0004116194904781878,0.0012149561662226915,0.0013523775851354003,1.0029431581497192,0.0,0.0,0.0,0.1961546242237091,10.585892677307129,0.03903355449438095,-35.50437927246094,0
365.755000000001,3.0055531169637106e-05,-0.0001629968755878508,-0.000188582664122805,0.0,0.0,0.0,0.0,0.0003079243761021644,0.0021693878807127476,-0.000782033137511462,1.0009461641311646,0.0,0.0,0.0,0.18495379388332367,10.578779220581055,0.03870081901550293,-33.47700500488281,0
375.63300000000163,9.969042002921924e-05,-0.00016486929962411523,-0.00025234694476239383,0.0,0.0,0.0,0.0,0.0007974543259479105,-0.0016202048864215612,0.0045381346717476845,1.0012543201446533,0.0,0.0,0.0,0.1915702074766159,10.57811450958252,0.04337344318628311,-34.67458724975586,0
385.52500000000146,9.377831884194165e-05,-0.0001424989604856819,-0.00021426429157145321,0.0,0.0,0.0,0.0,-0.001940906047821045,-0.004275716841220856,0.001128926407545805,1.0019989013671875,0.0,0.0,0.0,0.1827372908592224,10.580399513244629,0.053007304668426514,-33.07581329345703,0
395.40700000000106,0.00016047741519287229,-0.00011793466546805575,-0.00025170849403366446,0.0,0.0,0.0,0.0,0.0007028831751085818,0.0005600462318398058,0.001330099767073989,1.000274419784546,0.0,0.0,0.0,0.19284427165985107,10.58608627319336,0.07148123532533646,-34.90519714355469,0
405.2960000000003,7.33551278244704e-05,-0.00011455696221673861,-0.00024638816830702126,0.0,0.0,0.0,0.0,0.0011350808199495077,-0.00044494637404568493,-0.000475347536848858,0.9976370930671692,0.0,0.0,0.0,0.18151262402534485,10.588480949401855,0.05885575711727142,-32.85414505004883,0
415.1680000000015,0.00011813823221018538,-0.00014426148845814168,-0.00027617820887826383,0.0,0.0,0.0,0.0,0.0002906232257373631,0.0029319359455257654,0.00025257194647565484,0.9973635077476501,0.0,0.0,0.0,0.19434045255184174,10.581902503967285,0.07400630414485931,-35.17600631713867,0
425.0650000000005,3.3751952287275344e-05,-0.00010802928591147065,-0.00025813502725213766,0.0,0.0,0.0,0.0,-0.00029415986500680447,-0.0019505299860611558,0.0002583327004685998,1.0003843307495117,0.0,0.0,0.0,0.1852005124092102,10.588495254516602,0.05013347417116165,-33.52165985107422,0
434.9400000000005,5.09414094267413e-05,-0.00018050454673357308,-0.0002644015767145902,0.0,0.0,0.0,0.0,0.0001979106164071709,0.006989290472120047,-0.002138375537469983,0.9999275803565979,0.0,0.0,0.0,0.19139844179153442,10.57653522491455,0.0514562651515007,-34.643497467041016,0
444.83100000000013,1.5409381376230158e-05,-0.00014384719543159008,-0.00023030838929116726,0.0,0.0,0.0,0.0,0.00024396135995630175,0.001986077520996332,0.0030678799375891685,0.999504804611206,0.0,0.0,0.0,0.17990250885486603,10.580747604370117,0.034566689282655716,-32.56270980834961,0
454.71500000000015,5.0214057409903035e-05,-0.00017508371092844754,-0.00023933772172313184,0.0,0.0,0.0,0.0,0.002242274582386017,-0.0027091647498309612,0.0012535431887954473,0.9990902543067932,0.0,0.0,0.0,0.18670041859149933,10.573986053466797,0.03548303246498108,-33.79314422607422,0
464.612000000001,3.595475573092699e-05,-0.00017700860917102545,-0.00021485693287104368,0.0,0.0,0.0,0.0,-0.002210441045463085,0.001773551106452942,0.003339724848046899,1.0003769397735596,0.0,0.0,0.0,0.17503944039344788,10.571319580078125,0.029702717438340187,-31.68248748779297,0
474.478000000001,7.376769644906744e-05,-0.00020948925521224737,-0.00022374640684574842,0.0,0.0,0.0,0.0,-0.0005958866095170379,0.0005460834945552051,0.0016158620128408074,0.9971911907196045,0.0,0.0,0.0,0.1859443485736847,10.574360847473145,0.03494510054588318,-33.65629196166992,0
484.3770000000004,2.837363354046829e-05,-0.0001997079816646874,-0.00020277907606214285,0.0,0.0,0.0,0.0,0.0011626624036580324,-0.001872732420451939,0.002721820492297411,0.9976370930671692,0.0,0.0,0.0,0.1731063574552536,10.581310272216797,0.024642091244459152,-31.332595825195312,0
494.2520000000004,7.072368316585198e-05,-0.0002119927085004747,-0.00021387494052760303,0.0,0.0,0.0,0.0,0.0008863587863743305,0.0016039435286074877,0.0014816265320405364,0.9968801140785217,0.0,0.0,0.0,0.1850166618824005,10.577749252319336,0.01742498017847538,-33.48838424682617,0
504.15000000000146,6.352435593726113e-05,-0.00022790793445892632,-0.0001966752315638587,0.0,0.0,0.0,0.0,-0.0016853718552738428,0.0005167556228116155,0.000454667373560369,0.9981131553649902,0.0,0.0,0.0,0.17436304688453674,10.569838523864746,0.013955669477581978,-31.56005859375,0
514.018,7.401556649710983e-05,-0.00027069286443293095,-0.00017331972776446491,0.0,0.0,0.0,0.0,0.0002356847980991006,0.004304666072130203,0.0023297579027712345,0.9987179636955261,0.0,0.0,0.0,0.18330706655979156,10.563732147216797,0.019115140661597252,-33.1789436340332,0
523.9130000000005,4.716832336271182e-05,-0.0002141286531696096,-0.00012638518819585443,0.0,0.0,0.0,0.0,0.0005896023358218372,-0.001534186420030892,-0.00024471976212225854,1.0015664100646973,0.0,0.0,0.0,0.1723681539297104,10.572999954223633,0.00730050727725029,-31.198978424072266,0
533.7890000000007,6.898730498505756e-05,-0.0002446147263981402,-0.00011485647701192647,0.0,0.0,0.0,0.0,-0.003370770951732993,-0.006187085527926683,0.0010633307974785566,1.0005249977111816,0.0,0.0,0.0,0.1827598214149475,10.568602561950684,0.013307319022715092,-33.079891204833984,0
543.7000000000007,-2.3135871742852032e-05,-0.0001918453781399876,-8.319218613905832e-05,0.0,0.0,0.0,0.0,8.246843935921788e-05,-0.0016457174206152558,0.001051805098541081,1.0010323524475098,0.0,0.0,0.0,0.17226344347000122,10.5814790725708,0.011291930451989174,-31.180025100708008,0
553.5700000000015,6.850767022115178e-06,-0.00022571113368030638,-8.84390901774168e-05,0.0,0.0,0.0,0.0,0.0008534388616681099,-0.0029850804712623358,-0.002405280014500022,1.0002628564834595,0.0,0.0,0.0,0.1790245622396469,10.580869674682617,0.02748359739780426,-32.40380096435547,0
563.4660000000003,-4.155408532824367e-05,-0.0001891678257379681,-4.6489487431244925e-05,0.0,0.0,0.0,0.0,0.000566891161724925,-0.0035729478113353252,-0.0004797223664354533,0.9999306201934814,0.0,0.0,0.0,0.1678602397441864,10.586609840393066,0.028644515201449394,-30.383037567138672,0
573.3290000000015,2.7465544917504303e-05,-0.0001786327047739178,-9.037117706611753e-05,0.0,0.0,0.0,0.0,0.0018300958909094334,0.001126534421928227,0.0013721638824790716,0.9990972280502319,0.0,0.0,0.0,0.17380717396736145,10.579965591430664,0.035406749695539474,-31.459442138671875,0
583.228000000001,-4.15292706748005e-05,-0.0001653504732530564,-7.046901737339795e-05,0.0,0.0,0.0,0.0,0.0005510092014446855,-0.0011326343519613147,-0.0004657748795580119,1.0025629997253418,0.0,0.0,0.0,0.16530001163482666,10.578751564025879,0.015204626135528088,-29.91963005065918,0
593.1050000000014,1.948542194440961e-05,-0.0001739013969199732,-0.00011168782657478005,0.0,0.0,0.0,0.0,0.0008815103210508823,0.003346620826050639,-0.003127127420157194,1.0007755756378174,0.0,0.0,0.0,0.17611192166805267,10.574336051940918,0.020840667188167572,-31.87660789489746,0
602.9970000000012,-3.669901343528181e-05,-0.00015461642760783434,-8.260412141680717e-05,0.0,0.0,0.0,0.0,-0.0016697579994797707,-0.0022078559268265963,0.006865435745567083,0.9985274076461792,0.0,0.0,0.0,0.1670159250497818,10.573850631713867,0.0019769384525716305,-30.230215072631836,0
612.8690000000006,7.207800081232563e-05,-8.91950330697e-05,-0.00016610755119472742,0.0,0.0,0.0,0.0,-0.0021191283594816923,-0.00013086256512906402,0.0015969298547133803,1.000988245010376,0.0,0.0,0.0,0.18202275037765503,10.580534934997559,0.023265361785888672,-32.94647979736328,0
622.7620000000006,-8.26833365863422e-06,-7.973614992806688e-05,-0.00015746497956570238,0.0,0.0,0.0,0.0,-0.0007611444452777505,-0.0013782309833914042,-0.0010181352263316512,0.9997305870056152,0.0,0.0,0.0,0.17462509870529175,10.579943656921387,0.004514905624091625,-31.60749053955078,0
632.6370000000006,6.405476597137749e-05,-6.158103497000411e-05,-0.00021100301819387823,0.0,0.0,0.0,0.0,-0.0010921255452558398,-0.0019931241404265165,0.0014363289810717106,0.9987002611160278,0.0,0.0,0.0,0.1861797273159027,10.584393501281738,0.020359735935926437,-33.69890213012695,0
642.5340000000015,2.8414186090230942e-05,-6.793508509872481e-05,-0.00019710211199708283,0.0,0.0,0.0,0.0,-0.000533999118488282,-0.0005881638498976827,-4.8519861593376845e-05,0.9994391798973083,0.0,0.0,0.0,0.17774537205696106,10.58912181854248,0.02037128247320652,-32.172264099121094,0
652.4070000000011,4.1016206523636356e-05,-0.00014692184049636126,-0.00020200552535243332,0.0,0.0,0.0,0.0,-0.0004287701449356973,0.001552825327962637,-0.0006123502389527857,0.9964873790740967,0.0,0.0,0.0,0.1895410269498825,10.581578254699707,0.02387070469558239,-34.30730056762695,0
662.3060000000005,2.8901486075483263e-06,-0.0001687172189122066,-0.00019732434884645045,0.0,0.0,0.0,0.0,0.001496208249591291,0.0004022474749945104,0.0003108570526819676,0.9967969059944153,0.0,0.0,0.0,0.17910048365592957,10.578263282775879,0.00505659356713295,-32.417545318603516,0
672.1770000000015,4.1148890886688605e-05,-0.00019562346278689802,-0.00022035912843421102,0.0,0.0,0.0,0.0,-0.0023099593818187714,0.0036696919705718756,-0.0002861300017684698,0.9995534420013428,0.0,0.0,0.0,0.19172966480255127,10.573404312133789,0.016145287081599236,-34.703453063964844,0
682.0750000000007,1.4155375538393855e-05,-0.00018516495765652508,-0.00019840538152493536,0.0,0.0,0.0,0.0,0.0012769739842042327,0.0011801165528595448,-0.002210812410339713,0.9994623064994812,0.0,0.0,0.0,0.17817123234272003,10.577982902526855,-0.00021074656979180872,-32.24934387207031,0
691.9490000000005,5.504222644958645e-05,-0.00021098836441524327,-0.00022495692246593535,0.0,0.0,0.0,0.0,0.0005050152540206909,0.0021042278967797756,-0.0004973907489329576,0.9987118244171143,0.0,0.0,0.0,0.18486694991588593,10.574254035949707,-0.007032980211079121,-33.46128845214844,0
701.8400000000001,2.8630453016376123e-05,-0.00020666795899160206,-0.00020428269635885954,0.0,0.0,0.0,0.0,-0.0027154504787176847,-0.0012791842455044389,-0.0009230375289916992,0.9988789558410645,0.0,0.0,0.0,0.17253819108009338,10.575161933898926,-0.01067333109676838,-31.229755401611328,0
711.7170000000006,7.315516995731741e-05,-0.00021855230443179607,-0.0002282685600221157,0.0,0.0,0.0,0.0,-0.0013248518807813525,-0.004396636039018631,-0.0007756403065286577,1.0002779960632324,0.0,0.0,0.0,0.18468068540096283,10.576102256774902,-0.002237300854176283,-33.427574157714844,0
721.6170000000002,3.097308217547834e-05,-0.0001983785186894238,-0.00020667404169216752,0.0,0.0,0.0,0.0,0.0004824918869417161,0.003902389667928219,-0.0014223998878151178,1.000080943107605,0.0,0.0,0.0,0.17298577725887299,10.580294609069824,-0.0063445414416491985,-31.310768127441406,0
731.4890000000014,3.721176472026855e-05,-0.0002501811250112951,-0.00018464037566445768,0.0,0.0,0.0,0.0,-7.189804455265403e-05,-0.003721328917890787,0.0003265295526944101,0.9998512268066406,0.0,0.0,0.0,0.17307448387145996,10.568625450134277,-0.009469542652368546,-31.326824188232422,0
741.393,-2.243523340439424e-07,-0.0002350271970499307,-0.00015863441512919962,0.0,0.0,0.0,0.0,0.0023442714009433985,-0.00036813851329497993,0.0005138094420544803,0.9986422657966614,0.0,0.0,0.0,0.16353747248649597,10.57002067565918,-0.011700100265443325,-29.600605010986328,0
751.259,6.454368849517778e-05,-0.00022314995294436812,-0.00019422854529693723,0.0,0.0,0.0,0.0,0.0009476233972236514,-0.0005925397854298353,0.0012091752141714096,0.9998769164085388,0.0,0.0,0.0,0.17519928514957428,10.577739715576172,-0.0006053360993973911,-31.7114200592041,0
761.1600000000017,2.508645411580801e-05,-0.00021043457672931254,-0.00017281557666137815,0.0,0.0,0.0,0.0,-0.0008708506356924772,-0.004035355523228645,-0.001426110276952386,1.0001002550125122,0.0,0.0,0.0,0.1651761829853058,10.578215599060059,-0.016660748049616814,-29.897216796875,0
771.0300000000007,8.229652303270996e-05,-0.00021602289052680135,-0.00020069905440323055,0.0,0.0,0.0,0.0,-0.001578001887537539,-0.005617025773972273,-0.004063772037625313,0.9981358647346497,0.0,0.0,0.0,0.17480404675006866,10.583728790283203,0.003028254257515073,-31.63987922668457,0
780.9290000000001,6.4702135205152445e-06,-0.00015099754091352224,-0.00016588174912612885,0.0,0.0,0.0,0.0,-0.0042588855139911175,-0.0005809483700431883,-0.00022125938266981393,1.0004408359527588,0.0,0.0,0.0,0.16373807191848755,10.596559524536133,0.0024993286933749914,-29.636917114257812,0
790.7980000000007,5.98410697421059e-05,-0.0001794834533939138,-0.0001918601046781987,0.0,0.0,0.0,0.0,-0.0030092867091298103,0.004509482998400927,0.002946094609797001,1.0018140077590942,0.0,0.0,0.0,0.17806312441825867,10.600410461425781,0.009756021201610565,-32.22977828979492,0
800.7030000000013,1.2948858966410626e-05,-0.00017734241555444896,-0.00017724515055306256,0.0,0.0,0.0,0.0,0.0010040977504104376,-0.0015838786493986845,0.0024237327743321657,1.001160979270935,0.0,0.0,0.0,0.1678021103143692,10.606232643127441,-0.005022922996431589,-30.372516632080078,0
810.5670000000009,7.278364500962198e-05,-0.0001381931360810995,-0.0001798227895051241,0.0,0.0,0.0,0.0,0.002386046340689063,0.0025222741533070803,-0.0010750049259513617,1.0000194311141968,0.0,0.0,0.0,0.1802975833415985,10.615683555603027,-0.0003623663797043264,-32.63422393798828,0
820.4660000000003,2.1606962036457844e-05,-0.0001484036911278963,-0.00017054409545380622,0.0,0.0,0.0,0.0,-0.0012117752339690924,0.0012548095546662807,0.004958124831318855,0.9995501041412354,0.0,0.0,0.0,0.16875289380550385,10.61732006072998,-0.018903212621808052,-30.54460906982422,0
830.3370000000014,7.094021566445008e-05,-0.0001727750204736367,-0.0001882156211649999,0.0,0.0,0.0,0.0,-0.0006692933384329081,-0.003725003218278289,-0.0027900575660169125,0.9983916878700256,0.0,0.0,0.0,0.18024978041648865,10.613390922546387,-0.016213711351156235,-32.62556838989258,0
840.232,2.1140407625352964e-05,-0.00017509023018646985,-0.0001750338269630447,0.0,0.0,0.0,0.0,-0.0023830209393054247,-0.008226883597671986,0.0012588375248014927,0.99882972240448,0.0,0.0,0.0,0.16868121922016144,10.619778633117676,-0.020849380642175674,-30.53163719177246,0
850.1140000000014,7.285606989171356e-05,-0.00019099177734460682,-0.00019691212219186127,0.0,0.0,0.0,0.0,-0.0011944364523515105,-0.0033948952332139015,-0.0009685870027169585,0.9995071291923523,0.0,0.0,0.0,0.1771380454301834,10.620208740234375,-0.0017768425168469548,-32.062339782714844,0
860.0070000000014,1.2381845408526715e-05,-0.0001422846835339442,-0.00016101507935672998,0.0,0.0,0.0,0.0,0.0015600937185809016,0.00010076355101773515,0.0013187761651352048,0.9984968304634094,0.0,0.0,0.0,0.16290655732154846,10.628996849060059,-0.0014916721265763044,-29.486412048339844,0
869.8790000000008,5.141883229953237e-05,-0.00017600104911252856,-0.00017649323854129761,0.0,0.0,0.0,0.0,0.0005451132310554385,0.0005401511443778872,8.61322769196704e-05,0.9999820590019226,0.0,0.0,0.0,0.1735486537218094,10.619649887084961,0.0005996068357490003,-31.41265106201172,0
879.7710000000006,1.2570342732942663e-05,-0.00018598869792185724,-0.00016222565318457782,0.0,0.0,0.0,0.0,0.001737892860546708,0.0029521507676690817,0.0009992752457037568,0.9993953704833984,0.0,0.0,0.0,0.1614220142364502,10.621002197265625,-0.006418695207685232,-29.21770668029785,0
889.648000000001,1.775862619979307e-05,-0.00023518753005191684,-0.00014017560170032084,0.0,0.0,0.0,0.0,-0.0007465044036507607,-0.0017905855784192681,-0.000732745451387018,0.9997807145118713,0.0,0.0,0.0,0.17714707553386688,10.60916519165039,-0.0012686309637501836,-32.06397247314453,0
899.5450000000001,-6.290785677265376e-05,-0.00019361457088962197,-0.00011028459266526625,0.0,0.0,0.0,0.0,0.00045489263720810413,-7.466688111890107e-05,0.0018410335760563612,0.9988536238670349,0.0,0.0,0.0,0.16741943359375,10.619091033935547,-0.014601089991629124,-30.30324935913086,0
909.4290000000001,4.457177965377923e-06,-0.00018444671877659857,-0.0001590346364537254,0.0,0.0,0.0,0.0,-0.00257891439832747,-0.006367994472384453,0.001958658918738365,0.99930739402771,0.0,0.0,0.0,0.18122650682926178,10.620443344116211,0.007784106768667698,-32.80236053466797,0
919.3150000000005,-2.8363669116515666e-05,-0.00015618736506439745,-0.00012301788956392556,0.0,0.0,0.0,0.0,0.0021340008825063705,0.00233579077757895,0.0008694740245118737,1.000455379486084,0.0,0.0,0.0,0.1722286194562912,10.625569343566895,0.011864788830280304,-31.173721313476562,0
929.1960000000017,-6.3490642787655815e-06,-0.00019777691341005266,-0.00011978570546489209,0.0,0.0,0.0,0.0,-0.0029398726765066385,0.0014460267266258597,-0.003126058727502823,0.9991204142570496,0.0,0.0,0.0,0.18540821969509125,10.618496894836426,0.012673422694206238,-33.55925750732422,0
939.0820000000003,-3.9858925447333604e-05,-0.00017761818889994174,-8.389990398427472e-05,0.0,0.0,0.0,0.0,0.0003312226035632193,-0.0034607904963195324,0.0008444577106274664,0.9978952407836914,0.0,0.0,0.0,0.17702381312847137,10.623950004577637,0.00048413441982120275,-32.041664123535156,0
948.9580000000005,-1.3932410183770116e-05,-0.00021957012359052896,-8.346158574568108e-05,0.0,0.0,0.0,0.0,0.002324984408915043,-0.0014166724868118763,-0.0009691086015664041,0.9983550906181335,0.0,0.0,0.0,0.1857089251279831,10.61497688293457,0.00916467234492302,-33.613685607910156,0
958.8610000000008,-4.299266583984718e-05,-0.00019838608568534255,-4.581739995046519e-05,0.0,0.0,0.0,0.0,0.0027806791476905346,-0.0005478314124047756,-0.00030769981094636023,0.9998487234115601,0.0,0.0,0.0,0.17604586482048035,10.619575500488281,0.011113302782177925,-31.86465072631836,0
968.7300000000014,3.5108063457300887e-05,-0.0001848657411755994,-9.740879613673314e-05,0.0,0.0,0.0,0.0,0.004349683877080679,0.0021392942871898413,-0.0006958165904507041,0.9994155764579773,0.0,0.0,0.0,0.18501684069633484,10.618019104003906,0.029428739100694656,-33.4884147644043,0
978.630000000001,9.412940926267765e-06,-0.00020673705148510635,-8.226172212744132e-05,0.0,0.0,0.0,0.0,-0.003364777425304055,-0.004251518752425909,-0.00021954580734018236,1.0025882720947266,0.0,0.0,0.0,0.17323556542396545,10.608307838439941,0.012310530990362167,-31.355981826782227,0
988.4990000000016,7.392999395960942e-05,-0.0002057159144897014,-0.00011902811820618808,0.0,0.0,0.0,0.0,0.001410815049894154,0.0001622073323233053,-0.0024984637275338173,1.001810073852539,0.0,0.0,0.0,0.18586687743663788,10.61843204498291,0.03311298415064812,-33.64227294921875,0
998.4030000000002,-2.726216735027265e-06,-0.0002134464302798733,-0.00011207252100575715,0.0,0.0,0.0,0.0,-0.001434431760571897,0.003816119860857725,-0.00021531610400415957,0.9985296130180359,0.0,0.0,0.0,0.175944522023201,10.613849639892578,0.024351758882403374,-31.846309661865234,0
1008.2690000000002,5.735284503316507e-05,-0.00020788662368431687,-0.00014673994155600667,0.0,0.0,0.0,0.0,0.0022435353603214025,0.0031231348402798176,-0.0027940876316279173,0.9992598295211792,0.0,0.0,0.0,0.18741369247436523,10.612397193908691,0.017654886469244957,-33.92224884033203,0
1018.1690000000017,7.883379294071347e-05,-0.00021020483109168708,-0.00010789446969283745,0.0,0.0,0.0,0.0,0.0007443830254487693,0.0018817281816154718,0.0020000371150672436,0.9991761445999146,0.0,0.0,0.0,0.1730891913175583,10.607345581054688,0.013880089856684208,-31.32948875427246,0
1028.0400000000009,0.000167151985806413,-0.00018723886751104146,-0.0001774486736394465,0.0,0.0,0.0,0.0,0.0003424445749260485,-0.003373483894392848,0.00036504247691482306,1.000655174255371,0.0,0.0,0.0,0.18285171687602997,10.612751960754395,0.02632998302578926,-33.096527099609375,0
1037.9370000000017,3.474463665043004e-05,-0.00014728584210388362,-0.0001723460154607892,0.0,0.0,0.0,0.0,-0.0017528972821310163,-0.0031300806440413,0.00028303341241553426,0.999769389629364,0.0,0.0,0.0,0.17386668920516968,10.615649223327637,0.010835413821041584,-31.470216751098633,0
1047.809000000001,7.283388549694791e-05,-0.0001666511525399983,-0.00019053297000937164,0.0,0.0,0.0,0.0,0.0004291057994123548,-0.0013992113526910543,0.000488315534312278,0.99763423204422,0.0,0.0,0.0,0.18470482528209686,10.612909317016602,0.014540641568601131,-33.431941986083984,0
1057.7070000000003,-2.2660751710645854e-05,-0.00013019224570598453,-0.00017784888041205704,0.0,0.0,0.0,0.0,-0.0019925397355109453,0.00012015621177852154,0.0015406094025820494,0.9982097148895264,0.0,0.0,0.0,0.17747414112091064,10.615443229675293,-0.0007625652942806482,-32.123172760009766,0
1067.585000000001,7.890022061474156e-06,-0.00016925382078625262,-0.00020124600268900394,0.0,0.0,0.0,0.0,0.00025198247749358416,0.0008604303584434092,0.0037901767063885927,0.9985860586166382,0.0,0.0,0.0,0.19085773825645447,10.606505393981934,0.003921374212950468,-34.54562759399414,0
1077.473,-0.0001048435369739309,-0.00010647683666320518,-0.00018024083692580462,0.0,0.0,0.0,0.0,0.002111882669851184,0.00516336178407073,-0.0025919575709849596,0.9978398680686951,0.0,0.0,0.0,0.1820763647556305,10.61215591430664,-0.012700511142611504,-32.956180572509766,0
1087.3500000000004,-6.254494655877352e-05,-0.00012382827117107809,-0.0002251085825264454,0.0,0.0,0.0,0.0,-0.0010034217266365886,-0.001217827433720231,-8.126244938466698e-05,1.0004758834838867,0.0,0.0,0.0,0.19240213930606842,10.6045560836792,-0.012030419893562794,-34.82516860961914,0
1097.2470000000012,-5.409372170106508e-05,-0.000121702702017501,-0.00019722217984963208,0.0,0.0,0.0,0.0,0.0026852176524698734,0.0019401333993300796,-9.164266521111131e-05,1.001970648765564,0.0,0.0,0.0,0.181825190782547,10.607616424560547,-0.015960097312927246,-32.91072082519531,0
1107.1270000000004,-1.8783019186230376e-05,-0.00013763397873844951,-0.0002318217302672565,0.0,0.0,0.0,0.0,0.00022354480461217463,0.0003443648456595838,0.0014588074991479516,1.0003328323364258,0.0,0.0,0.0,0.189592182636261,10.596521377563477,-0.015971332788467407,-34.31656265258789,0
1117.0190000000002,-7.725178147666156e-05,-0.00013379381562117487,-0.00021773786284029484,0.0,0.0,0.0,0.0,-0.0026723865885287523,-0.0011525943409651518,-0.002779971342533827,1.0000957250595093,0.0,0.0,0.0,0.17961637675762177,10.601637840270996,-0.023194095119833946,-32.510921478271484,0
1126.8900000000012,-4.385348074720241e-05,-0.0001523917162558064,-0.0002521245914977044,0.0,0.0,0.0,0.0,0.0009363731951452792,0.0027227881364524364,-0.00026353629073128104,0.9999035000801086,0.0,0.0,0.0,0.19080929458141327,10.60221004486084,-0.018506033346056938,-34.536861419677734,0
1136.7840000000015,-4.533496030489914e-05,-0.00014764300431124866,-0.0002214837440988049,0.0,0.0,0.0,0.0,-0.00020407016563694924,0.0021255281753838062,0.0007507241098210216,0.9993330240249634,0.0,0.0,0.0,0.18236468732357025,10.600939750671387,-0.02257365733385086,-33.00837326049805,0
1146.6620000000003,-1.9304820852994453e-06,-0.00011591239308472723,-0.00024115941778291017,0.0,0.0,0.0,0.0,0.0012442392762750387,0.004406509920954704,0.0021269218996167183,0.999226987361908,0.0,0.0,0.0,0.19222016632556915,10.603900909423828,-0.019662417471408844,-34.792232513427734,0
1156.5520000000015,-1.638458161323797e-05,-0.00010885107622016221,-0.00021210666454862803,0.0,0.0,0.0,0.0,-0.001903867581859231,-0.00350097194314003,-0.0024562121834605932,0.9992038011550903,0.0,0.0,0.0,0.18291093409061432,10.602856636047363,-0.037226058542728424,-33.107242584228516,0
1166.4310000000005,1.14446556835901e-05,-0.00015204588999040425,-0.00023742376652080566,0.0,0.0,0.0,0.0,-0.0003734608180820942,-0.0013953897869214416,0.002948549808934331,1.0022932291030884,0.0,0.0,0.0,0.1908697634935379,10.598334312438965,-0.03131799027323723,-34.54780578613281,0
1176.326000000001,7.668870966881514e-05,-0.0001806718937586993,-0.0002005291316891089,0.0,0.0,0.0,0.0,-2.0305675207055174e-05,0.0019197368528693914,0.0006792923086322844,1.0015367269515991,0.0,0.0,0.0,0.1820937693119049,10.59305191040039,-0.02265092171728611,-32.95933532714844,0
1186.2040000000015,0.00010094280878547579,-0.00021248530538287014,-0.0002023080742219463,0.0,0.0,0.0,0.0,-0.0014417344937101007,-0.009276378899812698,0.002014691010117531,1.0008620023727417,0.0,0.0,0.0,0.19215545058250427,10.591114044189453,-0.017403030768036842,-34.780517578125,0
1196.1040000000012,2.4366207071579993e-05,-0.00020004285033792257,-0.00018152764823753387,0.0,0.0,0.0,0.0,-0.0029626123141497374,-0.0023180292919278145,0.001852517481893301,1.0002384185791016,0.0,0.0,0.0,0.18171139061450958,10.594123840332031,-0.0016958416672423482,-32.89012145996094,0
1205.9760000000006,6.564147770404816e-05,-0.00021834371727891266,-0.00020050001330673695,0.0,0.0,0.0,0.0,0.0018846201710402966,-0.0007218746468424797,-3.344876313349232e-05,0.9993646740913391,0.0,0.0,0.0,0.18870534002780914,10.5975980758667,0.013665865175426006,-34.156044006347656,0
1215.8780000000006,1.2923674148623832e-05,-0.000208706856938079,-0.00017311389092355967,0.0,0.0,0.0,0.0,-0.0004839688481297344,-0.0036465551238507032,0.0007139865192584693,0.9991639852523804,0.0,0.0,0.0,0.17697864770889282,10.594642639160156,0.0035070343874394894,-32.03348922729492,0
1225.7430000000004,2.4334796762559563e-05,-0.0002716890594456345,-0.00016462174244225025,0.0,0.0,0.0,0.0,0.0010051758727058768,0.0034225473646074533,-0.0018936769338324666,0.9999076128005981,0.0,0.0,0.0,0.17692765593528748,10.58634090423584,0.007369866129010916,-32.02425765991211,0
1235.634,3.644572643679567e-05,-0.00033763982355594635,-0.0001559729571454227,0.0,0.0,0.0,0.0,0.004144485108554363,0.0011662434553727508,0.0014474138151854277,0.9978955984115601,0.0,0.0,0.0,0.17645223438739777,10.573945045471191,-0.004318675957620144,-31.93820571899414,0
1245.5110000000004,4.894384619547054e-05,-0.000407010898925364,-0.00014723133062943816,0.0,0.0,0.0,0.0,0.0013742877636104822,0.0042019011452794075,-0.0004590432799886912,1.001534342765808,0.0,0.0,0.0,0.17745883762836456,10.556910514831543,-0.012835897505283356,-32.12040328979492,0
1255.4090000000015,9.784197754925117e-05,-0.0003652131126727909,-0.00014150985225569457,0.0,0.0,0.0,0.0,-0.0007999007357284427,0.003299737349152565,-0.002803010167554021,1.0024423599243164,0.0,0.0,0.0,0.17819030582904816,10.542190551757812,-0.0227544903755188,-32.2527961730957,0
1265.2880000000005,0.00011288846144452691,-0.00043288012966513634,-0.00012917332060169429,0.0,0.0,0.0,0.0,5.3077055781614035e-05,0.0025484515354037285,0.0012532132677733898,0.9988996982574463,0.0,0.0,0.0,0.17705585062503815,10.531962394714355,-0.028967084363102913,-32.047462463378906,0
1275.1760000000013,0.00014597672270610929,-0.0003633492160588503,-9.00090963114053e-05,0.0,0.0,0.0,0.0,0.0006877021514810622,-0.0014432212337851524,-0.0003987119998782873,0.9980128407478333,0.0,0.0,0.0,0.19092120230197906,10.56076717376709,-0.023210709914565086,-34.5571174621582,0
1285.0520000000015,0.00016365942428819835,-0.0004272532241884619,-7.583198021166027e-05,0.0,0.0,0.0,0.0,-0.00025911509874276817,7.221987470984459e-05,0.006845491006970406,1.0017896890640259,0.0,0.0,0.0,0.1905454695224762,10.552865982055664,-0.016148967668414116,-34.48910903930664,0
1294.9530000000013,0.0002220386959379539,-0.00036656117299571633,-7.475700840586796e-05,0.0,0.0,0.0,0.0,-0.002092889742925763,-0.0005977927939966321,-0.0034184891264885664,1.0017658472061157,0.0,0.0,0.0,0.19798898696899414,10.580148696899414,-0.003771191230043769,-35.836402893066406,0
1304.8220000000001,0.0002455188659951091,-0.00042509057675488293,-5.816258635604754e-05,0.0,0.0,0.0,0.0,-0.0020894967019557953,0.0067675430327653885,7.90771227912046e-05,1.000264286994934,0.0,0.0,0.0,0.19735313951969147,10.5712890625,-0.0044913808815181255,-35.721309661865234,0
1314.723,0.0002961618884000927,-0.00036765955155715346,-3.5917422792408615e-05,0.0,0.0,0.0,0.0,-0.0008295935695059597,0.002184008015319705,0.0009844532469287515,1.000040054321289,0.0,0.0,0.0,0.20997083187103271,10.600768089294434,-0.003694679355248809,-38.0051383972168,0
1324.5900000000001,0.0003251229936722666,-0.0004225565935485065,-1.7371414287481457e-05,0.0,0.0,0.0,0.0,0.002648576395586133,0.00898413360118866,0.00027409926406107843,0.9990698099136353,0.0,0.0,0.0,0.20868870615959167,10.585061073303223,-0.003928522579371929,-37.773067474365234,0
1334.4840000000004,0.0003469614894129336,-0.0003904784971382469,3.820061101578176e-05,0.0,0.0,0.0,0.0,-0.0036623904015868902,-0.00214191316626966,0.0002154213871108368,0.9972872734069824,0.0,0.0,0.0,0.21811872720718384,10.60374927520752,-0.020154453814029694,-39.47991943359375,0
1344.3650000000016,0.0003799216356128454,-0.00044639341649599373,5.723597132600844e-05,0.0,0.0,0.0,0.0,0.00016716396203264594,4.317882485338487e-05,0.0018737673526629806,0.9990566968917847,0.0,0.0,0.0,0.21802549064159393,10.598706245422363,-0.015606510452926159,-39.463043212890625,0
1354.2570000000014,0.0004457106115296483,-0.00039973523234948516,7.864362851250917e-05,0.0,0.0,0.0,0.0,0.0010486969258636236,-0.00031847204081714153,0.0019119114149361849,1.0020567178726196,0.0,0.0,0.0,0.22927594184875488,10.623265266418457,-0.0025660949759185314,-41.4994010925293,0
1364.1320000000014,0.00048387510469183326,-0.00045220949687063694,9.780314576346427e-05,0.0,0.0,0.0,0.0,0.002682436490431428,0.00048390834126621485,-0.0017350150737911463,0.9984503984451294,0.0,0.0,0.0,0.22929725050926208,10.610113143920898,-0.004855851177126169,-41.503257751464844,0
1374.0390000000007,0.0005802134401164949,-0.00040809204801917076,0.00010168358858209103,0.0,0.0,0.0,0.0,0.0005721444031223655,-0.0019405856728553772,0.0018362237606197596,0.9988770484924316,0.0,0.0,0.0,0.24454480409622192,10.63194751739502,0.012475540861487389,-44.26309585571289,0
1383.9010000000017,0.0006236988119781017,-0.00045434810454025865,0.00011862679093610495,0.0,0.0,0.0,0.0,-0.0031356581021100283,-0.003211585571989417,0.0029016921762377024,1.0009323358535767,0.0,0.0,0.0,0.24551396071910858,10.620912551879883,0.012585911899805069,-44.438514709472656,0
1393.8100000000013,0.0007136655040085316,-0.0003692489117383957,0.00014573584485333413,0.0,0.0,0.0,0.0,0.0005201348103582859,0.001304580713622272,0.0012791830813512206,1.0004687309265137,0.0,0.0,0.0,0.2562861144542694,10.660438537597656,0.029525453224778175,-46.3882942199707,0
1403.674000000001,0.0007619837415404618,-0.00040720083052292466,0.00016415682330261916,0.0,0.0,0.0,0.0,0.00014403037494048476,-0.00020405251416377723,0.000942078884691,0.9981175661087036,0.0,0.0,0.0,0.25591251254081726,10.65414047241211,0.04069878160953522,-46.320674896240234,0
1413.563,0.0007981515373103321,-0.00040689363959245384,0.00020587076141964644,0.0,0.0,0.0,0.0,3.465798363322392e-05,-0.004119361285120249,-0.0006886388873681426,0.9984291791915894,0.0,0.0,0.0,0.2656913697719574,10.661210060119629,0.05335960537195206,-48.090660095214844,0
1423.4470000000001,0.0008469718159176409,-0.00044808362144976854,0.00022496403835248202,0.0,0.0,0.0,0.0,-0.00037499534664675593,0.0025420745369046926,0.002240801230072975,1.0008207559585571,0.0,0.0,0.0,0.2657426595687866,10.651561737060547,0.05990040674805641,-48.09994888305664,0
1433.348,0.0009205862879753113,-0.00043958902824670076,0.00024575830320827663,0.0,0.0,0.0,0.0,-0.0028928499668836594,0.0008063986315391958,0.0003708041622303426,1.0036835670471191,0.0,0.0,0.0,0.27579978108406067,10.667243957519531,0.05918098986148834,-49.92031478881836,0
1443.2130000000016,0.0009729012381285429,-0.00048220253665931523,0.00026822983636520803,0.0,0.0,0.0,0.0,0.0006929350784048438,0.0007978416979312897,0.0036219239700585604,1.0018572807312012,0.0,0.0,0.0,0.2755909860134125,10.66256046295166,0.06732788681983948,-49.88251495361328,0
1453.1140000000014,0.0010256821988150477,-0.0005276472656987607,0.00029346413793973625,0.0,0.0,0.0,0.0,0.0025863058399409056,0.0030190988909453154,0.0018423374276608229,1.000645637512207,0.0,0.0,0.0,0.27663296461105347,10.652924537658691,0.06088342145085335,-50.07111740112305,0
1462.9800000000014,0.0010789015796035528,-0.0005762079963460565,0.00031989868148230016,0.0,0.0,0.0,0.0,0.0020898415241390467,-0.004062927793711424,0.0024320960510522127,0.9984214901924133,0.0,0.0,0.0,0.2766014635562897,10.638216018676758,0.0640816017985344,-50.06541061401367,0
1472.8810000000012,0.0011330931447446346,-0.0006280748057179153,0.00034612827585078776,0.0,0.0,0.0,0.0,-0.0024206654634326696,-0.004939985927194357,-0.0021567491348832846,0.9989050626754761,0.0,0.0,0.0,0.2767373323440552,10.626523971557617,0.080436110496521,-50.090003967285156,0
1482.75,0.0011884139385074377,-0.0006829833728261292,0.00037176909972913563,0.0,0.0,0.0,0.0,0.0004821887123398483,-0.0006913254037499428,0.00038882085937075317,0.9988597631454468,0.0,0.0,0.0,0.27548298239707947,10.618871688842773,0.09221243113279343,-49.86296463012695,0
1492.652,-5.879622221982572e-06,-0.00019033162971027195,-0.00024251843569800258,0.0,0.0,0.0,0.0,-0.0009763056878000498,-0.0016696603270247579,-0.0011658052681013942,0.9986925721168518,0.0,0.0,0.0,0.26001235842704773,10.729782104492188,-0.09050679951906204,-47.0627555847168,0
1502.5220000000008,7.238181751745287e-07,-0.00022217267542146146,-0.00023440225049853325,0.0,0.0,0.0,0.0,-0.003188780276104808,-0.0014312833081930876,-0.0022062419448047876,0.9998807907104492,0.0,0.0,0.0,0.2591778337955475,10.719514846801758,-0.08118700981140137,-46.911705017089844,0
1512.4150000000009,-2.0636332919821143e-05,-0.00017777676112018526,-0.00016320978465955704,0.0,0.0,0.0,0.0,-0.00036247260868549347,-0.001544987433589995,0.0005850247689522803,0.9994838833808899,0.0,0.0,0.0,0.23761039972305298,10.737061500549316,-0.08499041944742203,-43.007957458496094,0
1522.291000000001,-1.706717739580199e-05,-0.00021044680033810437,-0.0001508297718828544,0.0,0.0,0.0,0.0,-0.0023264773190021515,-0.004606778267771006,0.0003854245296679437,1.0002317428588867,0.0,0.0,0.0,0.23755107820034027,10.722929954528809,-0.08441761136054993,-42.997222900390625,0
1532.1850000000013,-1.3091144865029491e-05,-0.00024585198843851686,-0.00013797001156490296,0.0,0.0,0.0,0.0,0.002680565230548382,-0.00024684632080607116,-1.715306643745862e-05,1.00093412399292,0.0,0.0,0.0,0.23753513395786285,10.715824127197266,-0.07651131600141525,-42.99433135986328,0
1542.063,-6.841719823569292e-06,-0.0002835783816408366,-0.00012437340046744794,0.0,0.0,0.0,0.0,-0.0013137171044945717,0.005237075034528971,0.0017957737436518073,0.9998099207878113,0.0,0.0,0.0,0.23835547268390656,10.704659461975098,-0.07875131070613861,-43.142818450927734,0
1551.9560000000001,8.134807103488129e-07,-0.000322588108247146,-0.0001102961105061695,0.0,0.0,0.0,0.0,-0.00011250742682022974,0.0016302160220220685,-0.0017748523969203234,1.000299334526062,0.0,0.0,0.0,0.23902840912342072,10.698956489562988,-0.08795379847288132,-43.26461410522461,0
1561.8310000000001,8.910415999707766e-06,-0.0003630112623795867,-9.565112122800201e-05,0.0,0.0,0.0,0.0,0.0004199754912406206,-0.002538040978834033,-1.878071270766668e-05,0.9994572401046753,0.0,0.0,0.0,0.23782263696193695,10.689488410949707,-0.09467790275812149,-43.0463752746582,0
1571.7250000000004,1.7313510397798382e-05,-0.0004046465619467199,-8.075438381638378e-05,0.0,0.0,0.0,0.0,0.002492015715688467,-0.0025955887977033854,-0.0029430456925183535,0.9982765316963196,0.0,0.0,0.0,0.23787137866020203,10.683000564575195,-0.09200126677751541,-43.05519104003906,0
1581.6010000000006,2.601784399303142e-05,-0.0004478538176044822,-6.618710176553577e-05,0.0,0.0,0.0,0.0,0.0020388104021549225,0.0056113894097507,-0.001965472474694252,1.0015380382537842,0.0,0.0,0.0,0.23731568455696106,10.666388511657715,-0.09874239563941956,-42.95460891723633,0
1591.4940000000006,3.555424336809665e-05,-0.0004940604558214545,-5.040281394030899e-05,0.0,0.0,0.0,0.0,-0.00021253035811241716,-8.946380694396794e-05,0.0019573085010051727,1.0018589496612549,0.0,0.0,0.0,0.23693597316741943,10.651043891906738,-0.11016613990068436,-42.88587951660156,0
1601.3720000000012,4.646107117878273e-05,-0.0005433275364339352,-3.218806523364037e-05,0.0,0.0,0.0,0.0,-0.001794970827177167,-0.0071634817868471146,0.0024013982620090246,1.002076268196106,0.0,0.0,0.0,0.23644766211509705,10.64146900177002,-0.10599280893802643,-42.7974967956543,0
1611.2710000000006,5.878437514184043e-05,-0.0005949288024567068,-1.177172816824168e-05,0.0,0.0,0.0,0.0,0.0032846371177583933,0.0028105343226343393,-0.0018410647753626108,0.9995077252388,0.0,0.0,0.0,0.23719805479049683,10.63013744354248,-0.09430521726608276,-42.933319091796875,0
1621.1410000000014,7.253807416418567e-05,-0.0006488321232609451,9.36120341066271e-06,0.0,0.0,0.0,0.0,0.0005715189618058503,-0.0032472475431859493,0.000952813948970288,0.9991032481193542,0.0,0.0,0.0,0.2365819662809372,10.615808486938477,-0.08802739530801773,-42.82180404663086,0
1631.0430000000015,8.752724534133449e-05,-0.0007048794068396091,3.041741729248315e-05,0.0,0.0,0.0,0.0,-0.0017909336602315307,-0.00013896684686187655,0.00011420554073993117,1.0012809038162231,0.0,0.0,0.0,0.23535136878490448,10.60631275177002,-0.08605960756540298,-42.59906768798828,0
1640.911,0.00010265481978422031,-0.0007621755357831717,5.262270860839635e-05,0.0,0.0,0.0,0.0,0.003527434542775154,0.0001279747812077403,-0.0019940577913075686,1.000665307044983,0.0,0.0,0.0,0.23512661457061768,10.599421501159668,-0.0832005962729454,-42.55838394165039,0
1650.808000000001,0.00011803568486357108,-0.0008206456550396979,7.619349344167858e-05,0.0,0.0,0.0,0.0,-0.0006073934491723776,0.003511453978717327,-0.003559692297130823,0.9999384880065918,0.0,0.0,0.0,0.23527215421199799,10.58342170715332,-0.09623449295759201,-42.58472442626953,0
1660.6850000000013,0.0001340109738521278,-0.0008811685256659985,0.00010065852256957442,0.0,0.0,0.0,0.0,-0.00114694912917912,0.0007094818283803761,0.0016143034445121884,1.0005050897598267,0.0,0.0,0.0,0.2344363033771515,10.569253921508789,-0.11065374314785004,-42.43343734741211,0
1670.5820000000003,0.00029516126960515976,-0.00044329039519652724,3.536535587045364e-05,0.0,0.0,0.0,0.0,0.0004725592734757811,-0.0026686827186495066,-0.00010918789485003799,0.9985920190811157,0.0,0.0,0.0,0.23943883180618286,10.669602394104004,-0.08022787421941757,-43.33890914916992,0
1680.451000000001,0.0003185516980011016,-0.00048796620103530586,5.986961696180515e-05,0.0,0.0,0.0,0.0,-0.0017192709492519498,0.0030545613262802362,-0.00019577813509386033,0.9989051818847656,0.0,0.0,0.0,0.23857660591602325,10.661438941955566,-0.08118119090795517,-43.18284225463867,0
1690.3510000000006,0.0003345811855979264,-0.00041290035005658865,0.00020198721904307604,0.0,0.0,0.0,0.0,0.0016892481362447143,-0.0012741540558636189,-0.001672248006798327,0.9985761046409607,0.0,0.0,0.0,0.2520858943462372,10.686686515808105,-0.08899493515491486,-45.628047943115234,0
1700.223,0.0003586917882785201,-0.0004567558935377747,0.00023048388538882136,0.0,0.0,0.0,0.0,0.0019241564441472292,0.0016482999781146646,-0.00210340553894639,1.000867247581482,0.0,0.0,0.0,0.251605749130249,10.674833297729492,-0.08493714034557343,-45.54114532470703,0
1710.121000000001,0.00040667224675416946,-0.00042004353599622846,0.0002564767492003739,0.0,0.0,0.0,0.0,0.0010454021394252777,-0.0011903068516403437,0.0020733275450766087,0.9996018409729004,0.0,0.0,0.0,0.2583250105381012,10.68312931060791,-0.0825909823179245,-46.75733947753906,0
1720.0030000000006,0.0004347226640675217,-0.00046736199874430895,0.0002861593384295702,0.0,0.0,0.0,0.0,-0.0018177608726546168,0.0032795462757349014,-0.0014554827939718962,0.9994881749153137,0.0,0.0,0.0,0.2579256594181061,10.673910140991211,-0.07828905433416367,-46.68505859375,0
1729.8850000000002,0.0004624829161912203,-0.00051853246986866,0.00031629332806915045,0.0,0.0,0.0,0.0,-0.0006500444724224508,0.002526656724512577,-0.0028307195752859116,1.0005422830581665,0.0,0.0,0.0,0.2592707872390747,10.662269592285156,-0.08792144805192947,-46.928531646728516,0
1739.7610000000004,0.0004895010497421026,-0.0005731985438615084,0.00034713343484327197,0.0,0.0,0.0,0.0,-1.8510019799578004e-05,-0.0013653531204909086,-0.001986767165362835,0.999363124370575,0.0,0.0,0.0,0.2582913041114807,10.649798393249512,-0.09763044863939285,-46.75123596191406,0
1749.6550000000007,0.0005160562577657402,-0.0006310181925073266,0.00037818728014826775,0.0,0.0,0.0,0.0,-0.00113947584759444,0.0018790287431329489,0.0024131399113684893,0.9984174966812134,0.0,0.0,0.0,0.2581755816936493,10.633740425109863,-0.10265451669692993,-46.73029327392578,0
1759.5310000000009,-6.112536357250065e-05,-0.00038022955413907766,0.00017113660578615963,0.0,0.0,0.0,0.0,-3.38925929099787e-05,0.0003437153354752809,-0.0019474511500447989,0.9988312125205994,0.0,0.0,0.0,0.2380034178495407,10.69713020324707,-0.23490609228610992,-43.07909393310547,0
1769.4300000000003,-5.859341035829857e-05,-0.0004279230779502541,0.000194756401469931,0.0,0.0,0.0,0.0,-0.0012444680323824286,-0.0010471462737768888,0.004365809727460146,0.9992421269416809,0.0,0.0,0.0,0.2373124212026596,10.684392929077148,-0.2427130490541458,-42.954017639160156,0
1779.3020000000015,-5.451503238873556e-05,-0.0004780104791279882,0.0002180231676902622,0.0,0.0,0.0,0.0,0.0012419431004673243,0.0015604764921590686,0.0014301573392003775,0.9997419118881226,0.0,0.0,0.0,0.23715421557426453,10.678093910217285,-0.24583154916763306,-42.92538070678711,0
1789.201000000001,-4.9352500354871154e-05,-0.0005296287126839161,0.00024151828256435692,0.0,0.0,0.0,0.0,0.0002958634577225894,0.006067684851586819,-0.0016319145215675235,1.000172734260559,0.0,0.0,0.0,0.23735439777374268,10.66119384765625,-0.25739559531211853,-42.96161651611328,0
1799.0740000000005,-0.0001706520124571398,-0.0004344867484178394,0.00035707547795027494,0.0,0.0,0.0,0.0,0.0009281702223233879,-0.003076395718380809,-0.0010886379750445485,0.9995184540748596,0.0,0.0,0.0,0.22081701457500458,10.696581840515137,-0.28428414463996887,-39.968318939208984,0
1808.9670000000006,-0.00016924997908063233,-0.0004823244526050985,0.00038663193117827177,0.0,0.0,0.0,0.0,0.001725157955661416,0.0021367513108998537,0.0003366164455655962,0.9976462721824646,0.0,0.0,0.0,0.22054415941238403,10.685460090637207,-0.27654358744621277,-39.9189338684082,0
1818.8510000000006,-0.0002271752746310085,-0.0004555547493509948,0.0004853056452702731,0.0,0.0,0.0,0.0,-0.0015863965963944793,0.00083307852037251,-0.001391479978337884,0.9990457892417908,0.0,0.0,0.0,0.20659886300563812,10.693229675292969,-0.28986239433288574,-37.39480209350586,0
1828.741,-0.00022817020362708718,-0.0005056191002950072,0.0005171477096155286,0.0,0.0,0.0,0.0,-0.00010774823022074997,-0.007626338396221399,0.0035325107164680958,0.9993187785148621,0.0,0.0,0.0,0.20587991178035736,10.687024116516113,-0.28969094157218933,-37.264671325683594,0
1838.6230000000014,-0.0002300131891388446,-0.0005603080498985946,0.0005488816532306373,0.0,0.0,0.0,0.0,-0.0012674081372097135,0.0017372703878208995,-0.002519503002986312,1.000269889831543,0.0,0.0,0.0,0.206927090883255,10.678505897521973,-0.27647802233695984,-37.4542121887207,0
1848.5120000000006,-0.0002319328486919403,-0.0006185959791764617,0.0005809736903756857,0.0,0.0,0.0,0.0,-0.000633708608802408,0.006430128123611212,-0.0029086070135235786,0.9994057416915894,0.0,0.0,0.0,0.2063475400209427,10.673172950744629,-0.2773227393627167,-37.34931564331055,0
1858.3850000000002,-0.0002498317917343229,-0.0006074846023693681,0.0006845692987553775,0.0,0.0,0.0,0.0,-0.0012703259708359838,2.4706178010092117e-05,-0.006305242422968149,0.9988196492195129,0.0,0.0,0.0,0.18527638912200928,10.694372177124023,-0.28798362612724304,-33.535396575927734,0
1868.277,-0.0002551389334257692,-0.0006638969643972814,0.0007207614253275096,0.0,0.0,0.0,0.0,0.00012786826118826866,-0.00020374261657707393,0.0014712362317368388,0.9971481561660767,0.0,0.0,0.0,0.1835285723209381,10.68946361541748,-0.2909422218799591,-33.219032287597656,0
1878.1590000000015,-0.000283014407614246,-0.0006565848016180098,0.0008153266971930861,0.0,0.0,0.0,0.0,-0.0006069683004170656,0.009303107857704163,0.002529772697016597,0.9976078271865845,0.0,0.0,0.0,0.16569602489471436,10.703120231628418,-0.28666993975639343,-29.991310119628906,0
1888.0460000000003,-0.00029050777084194124,-0.0007124881958588958,0.0008521416457369924,0.0,0.0,0.0,0.0,-0.0003362438583280891,-0.0008130668429657817,-0.0024737168569117785,0.9999191761016846,0.0,0.0,0.0,0.16683945059776306,10.69123363494873,-0.3087182343006134,-30.198274612426758,0
1897.9280000000017,-0.0003452753007877618,-0.0007039931369945407,0.000941652397159487,0.0,0.0,0.0,0.0,0.0006422825390473008,-0.0023011432494968176,-0.001976367551833391,0.9982752203941345,0.0,0.0,0.0,0.1569427102804184,10.709601402282715,-0.3244912624359131,-28.406944274902344,0
1907.8210000000017,-0.00035463698441162705,-0.000757775385864079,0.0009805898880586028,0.0,0.0,0.0,0.0,0.0006373338401317596,-0.0005815737531520426,0.0009301913087256253,0.9978543519973755,0.0,0.0,0.0,0.1565626859664917,10.694955825805664,-0.33049333095550537,-28.338159561157227,0
1917.6960000000017,-0.0003698845684994012,-0.0007458491018041968,0.0010731136426329613,0.0,0.0,0.0,0.0,0.0012711584568023682,0.004647008143365383,0.00015630711277481169,0.9987510442733765,0.0,0.0,0.0,0.14147207140922546,10.712327003479004,-0.3382323086261749,-25.606725692749023,0
1927.5870000000014,-0.00037932684062980115,-0.0008001348469406366,0.0011139323469251394,0.0,0.0,0.0,0.0,-5.948048419668339e-05,0.0014571152860298753,-0.002923240652307868,0.9999008774757385,0.0,0.0,0.0,0.14242559671401978,10.698264122009277,-0.3440384864807129,-25.779314041137695,0
1937.4660000000003,-0.0003989347897004336,-0.0008073424687609076,0.0011897033546119928,0.0,0.0,0.0,0.0,-0.0023636675905436277,-0.001367049990221858,-0.0006989191751927137,0.9979932308197021,0.0,0.0,0.0,0.12307322770357132,10.713321685791016,-0.357433944940567,-22.276498794555664,0
1947.3640000000014,-0.00040869679651223123,-0.0008626842754893005,0.0012324668932706118,0.0,0.0,0.0,0.0,-0.0008152868831530213,0.0003569127293303609,3.7943809729767963e-06,0.9987468123435974,0.0,0.0,0.0,0.12292708456516266,10.704875946044922,-0.3577403724193573,-22.250045776367188,0
1957.2420000000002,-0.0004267625627107918,-0.0008739902987144887,0.0013018413446843624,0.0,0.0,0.0,0.0,-0.0005523345898836851,0.001421645749360323,-0.0025143425446003675,0.9981635808944702,0.0,0.0,0.0,0.10831565409898758,10.716200828552246,-0.37292322516441345,-19.605350494384766,0
1967.125,-2.926283559645526e-05,-0.00028057442978024483,4.0182421798817813e-05,0.0,0.0,0.0,0.0,0.0027950131334364414,-0.004918805323541164,0.0018637317698448896,0.9991987347602844,0.0,0.0,0.0,0.1205049529671669,10.834389686584473,-0.31572017073631287,-21.811635971069336,0
1977.0100000000002,-6.216285692062229e-05,-0.00026355506270192564,6.042738095857203e-05,0.0,0.0,0.0,0.0,-0.0021181933116167784,0.0019795855041593313,0.001615645713172853,0.9987614154815674,0.0,0.0,0.0,0.10593412071466446,10.829607963562012,-0.30436909198760986,-19.174285888671875,0
1986.9030000000002,2.519966074032709e-05,-0.0001805378997232765,-9.839492122409865e-05,0.0,0.0,0.0,0.0,-0.0006748109590262175,-0.0008289125980809331,0.000657416763715446,0.9979644417762756,0.0,0.0,0.0,0.11998100578784943,10.834870338439941,-0.30000337958335876,-21.7168025970459,0
1996.7810000000009,2.7489249987411313e-05,-0.00021037964324932545,-0.00010917861800407991,0.0,0.0,0.0,0.0,0.0005357795162126422,-0.0012082846369594336,0.00010721165017457679,1.0005452632904053,0.0,0.0,0.0,0.11929935961961746,10.824941635131836,-0.30214208364486694,-21.593420028686523,0
2006.675000000001,5.84215740673244e-05,-0.0001811894035199657,-0.0001655080122873187,0.0,0.0,0.0,0.0,0.0021506892517209053,-0.0007404102943837643,0.0021978977601975203,1.0006450414657593,0.0,0.0,0.0,0.14221760630607605,10.819732666015625,-0.2900320589542389,-25.741670608520508,0
2016.5510000000013,6.107384979259223e-05,-0.00021401120466180146,-0.0001774084521457553,0.0,0.0,0.0,0.0,-0.0012270391453057528,-0.0018524456536397338,-0.0016149601433426142,0.9986833930015564,0.0,0.0,0.0,0.14257724583148956,10.803618431091309,-0.28328630328178406,-25.806766510009766,0
2026.4390000000003,9.667041740613058e-05,-0.00012542936019599438,-0.00023510838218498975,0.0,0.0,0.0,0.0,0.002609820105135441,-0.0015240008942782879,-0.0011356304166838527,1.000625729560852,0.0,0.0,0.0,0.15604433417320251,10.814325332641602,-0.26515549421310425,-28.244335174560547,0
2036.3240000000005,1.5053168681333773e-05,-6.182666402310133e-05,-0.00023035120102576911,0.0,0.0,0.0,0.0,-0.0010217614471912384,-0.001920181093737483,0.0021498287096619606,1.0004981756210327,0.0,0.0,0.0,0.14113229513168335,10.80794906616211,-0.27565842866897583,-25.54522705078125,0
2046.2110000000011,2.566497278166935e-05,-9.932738612405956e-05,-0.0002575512626208365,0.0,0.0,0.0,0.0,-0.0004731299704872072,0.00030502636218443513,0.002666748594492674,1.0004494190216064,0.0,0.0,0.0,0.15990272164344788,10.79750919342041,-0.270153284072876,-28.94270896911621,0
2056.098,5.396751657826826e-05,-8.104224980343133e-05,-0.0002217295696027577,0.0,0.0,0.0,0.0,-0.0013482380891218781,-0.0024156877771019936,0.000953555922023952,1.0008703470230103,0.0,0.0,0.0,0.14583995938301086,10.79098129272461,-0.2683517336845398,-26.397323608398438,0
2065.9810000000016,6.049981675460003e-05,-0.00012118234008084983,-0.0002367760316701606,0.0,0.0,0.0,0.0,-0.0014796461910009384,0.0027931092772632837,-0.0021407254971563816,0.9999052882194519,0.0,0.0,0.0,0.15990455448627472,10.78418254852295,-0.2671276330947876,-28.94304084777832,0
2075.866,-7.84327039582422e-06,-6.638730701524764e-05,-0.00021282567468006164,0.0,0.0,0.0,0.0,-8.840070950100198e-05,-0.0017204651376232505,-0.0022956591565161943,1.0005793571472168,0.0,0.0,0.0,0.146891251206398,10.780871391296387,-0.2749927043914795,-26.587610244750977,0
2085.7530000000006,8.66060986481898e-07,-0.00010049682896351442,-0.00022767453629057854,0.0,0.0,0.0,0.0,0.0006625938112847507,-0.0031596077606081963,0.0006312727346085012,1.001022219657898,0.0,0.0,0.0,0.16288264095783234,10.766603469848633,-0.2664932310581207,-29.482080459594727,0
