timestamp,stateEstimate.x,stateEstimate.y,stateEstimate.z,controller.cmd_thrust,controller.cmd_roll,controller.cmd_pitch,controller.cmd_yaw,controller.r_roll,controller.r_pitch,controller.r_yaw,controller.accelz,controller.actuatorThrust,controller.roll,controller.pitch,controller.yaw,controller.rollRate,controller.pitchRate,controller.yawRate,controller.ctr_yaw
0.0,0.005490665789693594,-0.0168845783919096,5.08284465468023e-05,0.0,0.0,0.0,0.0,0.0032776326406747103,0.0033226574305444956,0.0007671755156479776,1.0003204345703125,0.0,0.0,0.0,-3.312676429748535,4.731967449188232,0.8427063226699829,599.6010131835938,0
9.885000000000218,0.005475359968841076,-0.016929300501942635,5.063263597548939e-05,0.0,0.0,0.0,0.0,-0.001548046711832285,0.005999277345836163,-0.00324338604696095,1.0000159740447998,0.0,0.0,0.0,-3.308391809463501,4.729483604431152,0.8431344628334045,598.825439453125,0
19.769999999998618,0.005504116415977478,-0.0168733149766922,4.2542418668745086e-05,0.0,0.0,0.0,0.0,0.0006379622500389814,0.0004841565969400108,2.4034256057348102e-05,0.998357355594635,0.0,0.0,0.0,-3.3054158687591553,4.746557235717773,0.8362624645233154,598.286865234375,0
29.667999999999665,0.005489346571266651,-0.01691870577633381,4.186645310255699e-05,0.0,0.0,0.0,0.0,-0.0011839299695566297,-0.0003529034729581326,-0.0012943929759785533,1.0005450248718262,0.0,0.0,0.0,-3.3023908138275146,4.742990016937256,0.8289095163345337,597.7392578125,0
39.54099999999926,0.005506192333996296,-0.016863102093338966,2.2274894945439883e-05,0.0,0.0,0.0,0.0,-0.002518008230254054,-0.00447692908346653,0.0025159483775496483,0.9993885159492493,0.0,0.0,0.0,-3.306326150894165,4.741597652435303,0.8143305778503418,598.4515991210938,0
49.43299999999908,0.005490054376423359,-0.016907835379242897,1.9649816749733873e-05,0.0,0.0,0.0,0.0,2.2768930648453534e-05,0.006247818470001221,-0.001135655795224011,0.998357892036438,0.0,0.0,0.0,-3.3029801845550537,4.737403869628906,0.8141540884971619,597.845947265625,0
59.3130000000001,0.005537421442568302,-0.01686151884496212,5.3359713092504535e-06,0.0,0.0,0.0,0.0,-0.0008636422571726143,0.004649763461202383,0.0003370144113432616,0.9972341656684875,0.0,0.0,0.0,-3.306305408477783,4.735263347625732,0.806614339351654,598.4478149414062,0
69.19599999999991,0.005524125415831804,-0.016905784606933594,1.1896418072865345e-07,0.0,0.0,0.0,0.0,0.0011890910100191832,-0.0018523585749790072,0.0022502783685922623,0.999120831489563,0.0,0.0,0.0,-3.303879976272583,4.730952739715576,0.7819501161575317,598.0088500976562,0
79.08200000000033,0.0055291191674768925,-0.016906315460801125,2.1139527234481648e-05,0.0,0.0,0.0,0.0,-0.002699128817766905,0.0002746627724263817,-0.003945184405893087,1.00034499168396,0.0,0.0,0.0,-3.3075673580169678,4.722273349761963,0.7764629125595093,598.6762084960938,0
88.97400000000016,0.005515835247933865,-0.016952721402049065,1.5812653145985678e-05,0.0,0.0,0.0,0.0,-0.004182738251984119,-0.0046037170104682446,-0.0018107128562405705,0.9980162978172302,0.0,0.0,0.0,-3.3044180870056152,4.720215320587158,0.7934303283691406,598.106201171875,0
98.85299999999916,0.005551433190703392,-0.016908304765820503,4.0442693716613576e-05,0.0,0.0,0.0,0.0,0.001828294130973518,0.0010202673729509115,-0.0019855089485645294,0.9974590539932251,0.0,0.0,0.0,-3.307833194732666,4.73521614074707,0.800442099571228,598.724365234375,0
108.74699999999939,0.005536186508834362,-0.016953034326434135,3.605342863011174e-05,0.0,0.0,0.0,0.0,-0.0002197507710661739,-0.0028878282755613327,-0.0015831779455766082,0.9982847571372986,0.0,0.0,0.0,-3.3045103549957275,4.728351593017578,0.8046659827232361,598.1229858398438,0
118.628999999999,0.005545407067984343,-0.016927778720855713,3.398127591935918e-05,0.0,0.0,0.0,0.0,-0.0008883568225428462,0.0036923554725944996,0.001047662110067904,0.999808132648468,0.0,0.0,0.0,-3.3140039443969727,4.739566802978516,0.811854898929596,599.8413696289062,0
128.5079999999998,0.005527077708393335,-0.016973474994301796,2.634347038110718e-05,0.0,0.0,0.0,0.0,0.002423305995762348,0.006838369183242321,0.0020038532093167305,1.001199722290039,0.0,0.0,0.0,-3.3103199005126953,4.727331638336182,0.8159136176109314,599.1744995117188,0
138.40399999999863,0.005575988907366991,-0.0169546976685524,6.355933146551251e-05,0.0,0.0,0.0,0.0,3.447687777224928e-05,0.0011038806987926364,-0.00028098380425944924,0.9974673986434937,0.0,0.0,0.0,-3.306610345840454,4.7173027992248535,0.7990656495094299,598.5029907226562,0
148.27899999999863,0.005558334290981293,-0.01700071431696415,5.950612830929458e-05,0.0,0.0,0.0,0.0,3.419473796384409e-05,0.0006951073301024735,0.0004482701187953353,0.998776376247406,0.0,0.0,0.0,-3.303771734237671,4.712951183319092,0.7986495494842529,597.9891967773438,0
158.17499999999927,0.005594279151409864,-0.016966158524155617,8.861364767653868e-05,0.0,0.0,0.0,0.0,-0.0012750000460073352,0.004494158551096916,0.0008620559819974005,1.0010069608688354,0.0,0.0,0.0,-3.3004865646362305,4.705995559692383,0.7953356504440308,597.3945922851562,0
168.0589999999993,0.005578457843512297,-0.01701164059340954,8.521042036591098e-05,0.0,0.0,0.0,0.0,0.0008691656985320151,0.004150410648435354,0.0011262069456279278,1.0003366470336914,0.0,0.0,0.0,-3.2979750633239746,4.704903602600098,0.7868120074272156,596.9400024414062,0
177.9409999999989,0.00554217305034399,-0.016963109374046326,6.880443834234029e-05,0.0,0.0,0.0,0.0,0.003813863033428788,0.00014191455557011068,-0.0019971607252955437,0.9986226558685303,0.0,0.0,0.0,-3.295436382293701,4.7009382247924805,0.7790529131889343,596.4805908203125,0
187.8179999999993,0.0055221738293766975,-0.017010340467095375,6.560627662111074e-05,0.0,0.0,0.0,0.0,-0.0044564916752278805,-0.0021909833885729313,-0.0027587581425905228,0.9968475103378296,0.0,0.0,0.0,-3.2920713424682617,4.6889238357543945,0.7617340683937073,595.8715209960938,0
197.71699999999873,0.005544612184166908,-0.016936983913183212,5.8059293223777786e-05,0.0,0.0,0.0,0.0,0.0021483402233570814,0.006560168694704771,0.0004817962762899697,0.9967043995857239,0.0,0.0,0.0,-3.299377918243408,4.686535835266113,0.7672088742256165,597.1939697265625,0
207.59000000000015,0.00552373519167304,-0.016984468325972557,5.126509131514467e-05,0.0,0.0,0.0,0.0,0.0005555205862037838,0.0003936664725188166,0.002873106161132455,0.9981972575187683,0.0,0.0,0.0,-3.295602798461914,4.680242538452148,0.7603842616081238,596.5106201171875,0
217.48199999999997,0.005496190395206213,-0.016910379752516747,4.5239125029183924e-05,0.0,0.0,0.0,0.0,0.0013054526643827558,0.004318759310990572,-0.0006879605352878571,1.000058889389038,0.0,0.0,0.0,-3.2982287406921387,4.682730197906494,0.7365485429763794,596.9859619140625,0
227.35899999999856,0.00547395134344697,-0.016957981511950493,3.45244916388765e-05,0.0,0.0,0.0,0.0,-0.00016826980572659522,0.00010979014041367918,-0.0018915104446932673,0.9983887672424316,0.0,0.0,0.0,-3.2948927879333496,4.679349899291992,0.7173744440078735,596.3821411132812,0
237.253999999999,0.005497263744473457,-0.01687271147966385,3.142530476907268e-05,0.0,0.0,0.0,0.0,-0.0018577906303107738,-0.005765751004219055,-0.00038321170723065734,0.9998412728309631,0.0,0.0,0.0,-3.2975170612335205,4.679108619689941,0.7160305380821228,596.8571166992188,0
247.128999999999,0.005479640327394009,-0.01691730134189129,2.0339888578746468e-05,0.0,0.0,0.0,0.0,-0.0002963696897495538,0.002080494537949562,-0.0002052652562269941,0.998684823513031,0.0,0.0,0.0,-3.29486083984375,4.667333602905273,0.7112582325935364,596.3763427734375,0
257.02299999999923,0.00557137792930007,-0.01686687208712101,-3.398332410142757e-05,0.0,0.0,0.0,0.0,0.0035643132869154215,0.00227664434351027,0.0006828742916695774,1.0005192756652832,0.0,0.0,0.0,-3.2985246181488037,4.660269737243652,0.7209292650222778,597.0394897460938,0
266.90699999999924,0.005556039046496153,-0.016913842409849167,-4.925180473946966e-05,0.0,0.0,0.0,0.0,-0.0032828624825924635,0.0006357631064020097,0.0009429016499780118,0.9995511770248413,0.0,0.0,0.0,-3.2949156761169434,4.651578903198242,0.7077042460441589,596.3862915039062,0
276.79199999999946,0.005556346382945776,-0.016910362988710403,-4.194777284283191e-05,0.0,0.0,0.0,0.0,-0.0014481814578175545,-8.35004320833832e-05,-0.002859600121155381,1.001487374305725,0.0,0.0,0.0,-3.305844783782959,4.663459777832031,0.7095325589179993,598.364501953125,0
286.6710000000003,0.005542226135730743,-0.016958897933363914,-5.4640506277792156e-05,0.0,0.0,0.0,0.0,0.0013559407088905573,-0.0019054744625464082,-0.0012508512008935213,1.001176118850708,0.0,0.0,0.0,-3.3022685050964355,4.6606340408325195,0.7123926877975464,597.7171630859375,0
296.5679999999993,0.0055557130835950375,-0.016925733536481857,-4.459650517674163e-05,0.0,0.0,0.0,0.0,0.0013580931117758155,-0.004596167244017124,0.00013335468247532845,1.0014125108718872,0.0,0.0,0.0,-3.3066329956054688,4.655531883239746,0.703288197517395,598.507080078125,0
306.4519999999993,0.005535499192774296,-0.016973266378045082,-5.454138954519294e-05,0.0,0.0,0.0,0.0,0.0017627455526962876,0.005206102970987558,-0.0018070661462843418,0.999081015586853,0.0,0.0,0.0,-3.3131768703460693,4.652698993682861,0.704853355884552,599.691650390625,0
316.33699999999953,0.005557800643146038,-0.016932634636759758,-5.423149559646845e-05,0.0,0.0,0.0,0.0,-0.001954202074557543,-0.003881696378812194,0.0007480866042897105,0.9984188675880432,0.0,0.0,0.0,-3.3104891777038574,4.64615535736084,0.7079253792762756,599.205078125,0
326.21299999999974,0.005556836724281311,-0.016940241679549217,-2.6682124371291138e-05,0.0,0.0,0.0,0.0,-0.0010246018646284938,-0.005293828435242176,-0.0011409518774598837,0.9987016320228577,0.0,0.0,0.0,-3.3061563968658447,4.637088298797607,0.7163515090942383,598.4208374023438,0
336.10299999999916,0.005559943150728941,-0.016919558867812157,-9.084998055186588e-06,0.0,0.0,0.0,0.0,-0.0008089422481134534,-0.0005407640710473061,-0.0029406098183244467,1.0010684728622437,0.0,0.0,0.0,-3.3028528690338135,4.639175891876221,0.725128710269928,597.8229370117188,0
345.98599999999897,0.005495011806488037,-0.01692221872508526,-4.85158898300142e-06,0.0,0.0,0.0,0.0,-0.00037663656985387206,-0.001431747223250568,-0.0010324501199647784,0.9993717074394226,0.0,0.0,0.0,-3.3074352741241455,4.64411735534668,0.7178515195846558,598.65234375,0
355.8760000000002,0.005502849351614714,-0.016902584582567215,4.2939236664096825e-06,0.0,0.0,0.0,0.0,0.002534105908125639,0.004223274998366833,-0.0018357181688770652,1.0009244680404663,0.0,0.0,0.0,-3.3143110275268555,4.651908874511719,0.7288563251495361,599.8969116210938,0
365.7519999999986,0.005517106503248215,-0.016963539645075798,5.093575055070687e-06,0.0,0.0,0.0,0.0,-0.0015159521717578173,0.0011330179404467344,-0.0021059082355350256,0.9988598823547363,0.0,0.0,0.0,-3.320024013519287,4.644333362579346,0.7218703627586365,600.9309692382812,0
375.64999999999964,0.005530953407287598,-0.016939880326390266,1.787522887752857e-05,0.0,0.0,0.0,0.0,0.0007541319937445223,-0.0036309557035565376,0.0005422396352514625,0.9983516931533813,0.0,0.0,0.0,-3.3264811038970947,4.655908584594727,0.7242044806480408,602.0996704101562,0
385.52299999999923,0.0055213007144629955,-0.016995631158351898,1.455241726944223e-05,0.0,0.0,0.0,0.0,0.0031602021772414446,0.0010070219868794084,0.0003404479066375643,0.9979957342147827,0.0,0.0,0.0,-3.328829765319824,4.6509480476379395,0.7161840200424194,602.5247802734375,0
395.4210000000003,0.005552881862968206,-0.01694626361131668,2.2089388949098065e-05,0.0,0.0,0.0,0.0,0.0004302563320379704,0.0007456392049789429,0.00411648117005825,0.9997572898864746,0.0,0.0,0.0,-3.326385974884033,4.640658378601074,0.7195877432823181,602.0824584960938,0
405.29199999999946,0.005535782314836979,-0.016994735226035118,1.7491131075075828e-05,0.0,0.0,0.0,0.0,0.0016286916797980666,0.001005106489174068,0.0004977667704224586,0.9973890781402588,0.0,0.0,0.0,-3.332270383834839,4.63221549987793,0.7140465974807739,603.1475219726562,0
415.1849999999995,0.00563112273812294,-0.01686461828649044,-1.7701750039123e-05,0.0,0.0,0.0,0.0,-0.002485915319994092,0.005139211658388376,0.0035977447405457497,0.9988902807235718,0.0,0.0,0.0,-3.3257744312286377,4.666661262512207,0.7293341159820557,601.9718017578125,0
425.0630000000001,0.005637063644826412,-0.016921835020184517,-2.6989209800376557e-05,0.0,0.0,0.0,0.0,-0.0026578190736472607,-0.0012408761540427804,0.0004308575007598847,1.0001715421676636,0.0,0.0,0.0,-3.3279330730438232,4.660419940948486,0.7255749106407166,602.3624877929688,0
434.9549999999999,0.0056572831235826015,-0.01687486656010151,-9.830629096541088e-06,0.0,0.0,0.0,0.0,0.0005762130604125559,0.0005597787676379085,-5.2932002290617675e-05,1.0011826753616333,0.0,0.0,0.0,-3.3244621753692627,4.663031578063965,0.717278003692627,601.7342529296875,0
444.8329999999987,0.00558084761723876,-0.01692185178399086,-4.440375414560549e-05,0.0,0.0,0.0,0.0,-0.0009487311472184956,-0.0009156402666121721,-0.001751063740812242,1.0004706382751465,0.0,0.0,0.0,-3.320589065551758,4.661963939666748,0.7198502421379089,601.033203125,0
454.73399999999856,0.005617735907435417,-0.01688276417553425,-6.284663686528802e-05,0.0,0.0,0.0,0.0,0.003222487401217222,0.0036465695593506098,-0.0008146460168063641,0.9988831281661987,0.0,0.0,0.0,-3.322892189025879,4.676372528076172,0.7276928424835205,601.4501342773438,0
464.60399999999936,0.005568495020270348,-0.01692514307796955,-8.33976300782524e-05,0.0,0.0,0.0,0.0,-0.0007643697317689657,0.0019338622223585844,0.0036806543357670307,0.9979919195175171,0.0,0.0,0.0,-3.3195648193359375,4.668679714202881,0.7187461853027344,600.8478393554688,0
474.4979999999996,0.00555903697386384,-0.016917457804083824,-5.856951611349359e-05,0.0,0.0,0.0,0.0,-0.0011595775140449405,0.004767951089888811,9.77975141722709e-05,0.9995237588882446,0.0,0.0,0.0,-3.3160741329193115,4.664376735687256,0.7123280167579651,600.2160034179688,0
484.3739999999998,0.00554200354963541,-0.0169631727039814,-6.566903175553307e-05,0.0,0.0,0.0,0.0,0.0019436272559687495,-0.0038782183546572924,-0.0008656631107442081,0.9985079169273376,0.0,0.0,0.0,-3.3213608264923096,4.6648030281066895,0.711337685585022,601.1729125976562,0
494.2669999999998,0.00556070264428854,-0.016910474747419357,-5.4779906349722296e-05,0.0,0.0,0.0,0.0,0.00021300246589817107,0.0029531328473240137,0.001266921404749155,0.9968686699867249,0.0,0.0,0.0,-3.317274332046509,4.655514717102051,0.7051030397415161,600.4332275390625,0
504.15099999999984,0.005508618429303169,-0.016916349530220032,-5.0284255848964676e-05,0.0,0.0,0.0,0.0,-0.0021397871896624565,0.001286001643165946,-0.00212966394610703,0.9986910223960876,0.0,0.0,0.0,-3.320744514465332,4.659997940063477,0.7012327313423157,601.0613403320312,0
514.0389999999989,0.005533020012080669,-0.016871051862835884,-6.139967445051298e-05,0.0,0.0,0.0,0.0,0.004022430628538132,-0.0025307864416390657,-0.0013141900999471545,1.0002505779266357,0.0,0.0,0.0,-3.3174333572387695,4.657614231109619,0.7105668783187866,600.4620361328125,0
523.9200000000001,0.005495768506079912,-0.01687856949865818,-5.73166435060557e-05,0.0,0.0,0.0,0.0,-0.0002772976877167821,0.005589520093053579,0.0014613376697525382,1.0007355213165283,0.0,0.0,0.0,-3.3231561183929443,4.6605682373046875,0.7000606060028076,601.4979248046875,0
533.8109999999997,0.005496130790561438,-0.016852527856826782,-4.1938670619856566e-05,0.0,0.0,0.0,0.0,0.0011501105036586523,0.001366788987070322,-0.0012891863007098436,1.000472068786621,0.0,0.0,0.0,-3.3193743228912354,4.654537677764893,0.6897957921028137,600.8134155273438,0
543.6869999999999,0.005518588237464428,-0.01691429689526558,-4.668814653996378e-05,0.0,0.0,0.0,0.0,-0.0003418413980398327,0.0032488969154655933,0.0020162470173090696,0.9998468160629272,0.0,0.0,0.0,-3.3258235454559326,4.6471452713012695,0.694969654083252,601.980712890625,0
553.5789999999997,0.005502482410520315,-0.016894754022359848,-6.660274721070891e-06,0.0,0.0,0.0,0.0,-0.0021653117146342993,-0.0016852754633873701,-0.0013724450254812837,0.9988086223602295,0.0,0.0,0.0,-3.3224971294403076,4.640476226806641,0.6902158260345459,601.3786010742188,0
563.4549999999999,0.005479976534843445,-0.016918789595365524,3.2511588869965635e-06,0.0,0.0,0.0,0.0,0.0015342204133048654,0.004174319561570883,-0.0014140105340629816,0.9994086623191833,0.0,0.0,0.0,-3.3183534145355225,4.63433313369751,0.6836422681808472,600.6285400390625,0
573.3490000000002,0.005497482139617205,-0.016876451671123505,1.736524973239284e-05,0.0,0.0,0.0,0.0,-0.0019087687833234668,0.0006831098580732942,0.0008797320770099759,0.9980229735374451,0.0,0.0,0.0,-3.314520835876465,4.634466171264648,0.6814786195755005,599.9349365234375,0
583.235999999999,0.0054994430392980576,-0.016923684626817703,2.1018409825046547e-05,0.0,0.0,0.0,0.0,-0.0009391476633027196,-0.0006200515781529248,-0.00014302355702966452,0.9983855485916138,0.0,0.0,0.0,-3.319185256958008,4.630171775817871,0.6689606308937073,600.7791137695312,0
593.1260000000002,0.005518209654837847,-0.016887351870536804,2.8576021577464417e-05,0.0,0.0,0.0,0.0,-0.0015962008619681,0.00032134202774614096,0.002314245793968439,0.9990562796592712,0.0,0.0,0.0,-3.32126522064209,4.649379253387451,0.6786727905273438,601.1556396484375,0
602.9969999999994,0.005477258935570717,-0.016904383897781372,3.2388732506660745e-05,0.0,0.0,0.0,0.0,-0.001164036919362843,0.004280819557607174,-0.0007037553586997092,1.0000736713409424,0.0,0.0,0.0,-3.3257994651794434,4.648684501647949,0.6629838347434998,601.976318359375,0
612.8959999999988,0.005479744169861078,-0.0168750062584877,5.511382914846763e-05,0.0,0.0,0.0,0.0,-0.0002060681872535497,-0.0006667780107818544,0.001604897785000503,1.0010910034179688,0.0,0.0,0.0,-3.3217673301696777,4.6470818519592285,0.6606005430221558,601.2464599609375,0
622.7659999999996,0.005567047279328108,-0.01695163920521736,7.434289727825671e-05,0.0,0.0,0.0,0.0,-0.0017973482608795166,-0.003145478432998061,0.002017396967858076,0.9975963234901428,0.0,0.0,0.0,-3.326418399810791,4.639185428619385,0.678494393825531,602.0883178710938,0
632.6599999999999,0.005559744779020548,-0.01692982017993927,0.00011592060764087364,0.0,0.0,0.0,0.0,-0.0007054180023260415,0.0038609160110354424,0.003821187186986208,0.998838484287262,0.0,0.0,0.0,-3.3224897384643555,4.6364665031433105,0.680358350276947,601.3772583007812,0
642.5370000000003,0.005523376632481813,-0.016986370086669922,9.918122668750584e-05,0.0,0.0,0.0,0.0,-0.0009937311988323927,-0.0007843622006475925,0.0023312021512538195,0.9998193979263306,0.0,0.0,0.0,-3.326094150543213,4.636384963989258,0.668850302696228,602.0296630859375,0
652.4429999999993,0.005536410491913557,-0.016943586990237236,0.0001193900388898328,0.0,0.0,0.0,0.0,0.0004618221428245306,0.006612235680222511,-0.0027709093410521746,0.9985575079917908,0.0,0.0,0.0,-3.3157501220703125,4.64885139465332,0.6660366654396057,600.1574096679688,0
662.3079999999991,0.005496466998010874,-0.01698891632258892,0.00011191488010808825,0.0,0.0,0.0,0.0,0.002229483798146248,-0.00035503608523868024,-0.00173187383916229,0.9992216229438782,0.0,0.0,0.0,-3.312366008758545,4.6496124267578125,0.6593299508094788,599.544921875,0
672.2089999999989,0.005532562732696533,-0.01693832129240036,0.00010209384345216677,0.0,0.0,0.0,0.0,0.0008862987160682678,0.008181051351130009,-0.002932837000116706,0.9984298348426819,0.0,0.0,0.0,-3.318026065826416,4.660491943359375,0.6524400115013123,600.5693359375,0
682.0779999999995,0.005456619430333376,-0.01696193404495716,9.197337931254879e-05,0.0,0.0,0.0,0.0,-0.0011255987919867039,-7.059203198878095e-05,0.003375573083758354,0.9991253614425659,0.0,0.0,0.0,-3.3244454860687256,4.65719747543335,0.6493808031082153,601.731201171875,0
691.9709999999995,0.005490692798048258,-0.016899269074201584,8.156701369443908e-05,0.0,0.0,0.0,0.0,0.001627737539820373,0.00011952571367146447,-0.00489819934591651,0.9986833930015564,0.0,0.0,0.0,-3.326460123062134,4.688379764556885,0.6552402973175049,602.0958862304688,0
701.8490000000002,0.005492393393069506,-0.016952643170952797,8.305360825033858e-05,0.0,0.0,0.0,0.0,-0.00037736695958301425,-5.0276375986868516e-05,0.004559695720672607,0.9986443519592285,0.0,0.0,0.0,-3.329207181930542,4.681455612182617,0.6614231467247009,602.5930786132812,0
711.741,0.005560393910855055,-0.0168731901794672,2.6434485334903002e-05,0.0,0.0,0.0,0.0,-0.0005446461145766079,0.0009713488398119807,0.00160876358859241,0.9994927048683167,0.0,0.0,0.0,-3.326559066772461,4.67386531829834,0.6571733355522156,602.11376953125,0
721.6189999999988,0.005553030874580145,-0.016901183873414993,3.4795652027241886e-05,0.0,0.0,0.0,0.0,-0.0029553964268416166,-0.0005938098183833063,0.0016825017519295216,0.9986012578010559,0.0,0.0,0.0,-3.3219127655029297,4.671508312225342,0.6605642437934875,601.2728271484375,0
731.5190000000002,0.00560995377600193,-0.01679249480366707,9.324704478785861e-06,0.0,0.0,0.0,0.0,0.001912049250677228,-0.0013619096716865897,0.0013909963890910149,0.9982451796531677,0.0,0.0,0.0,-3.3127119541168213,4.6941914558410645,0.6692383289337158,599.6074829101562,0
741.3979999999992,0.00553117087110877,-0.016814295202493668,-1.5701994925620966e-05,0.0,0.0,0.0,0.0,0.002138156909495592,0.0013366815401241183,-0.00024042261065915227,0.9998911619186401,0.0,0.0,0.0,-3.3149220943450928,4.691525936126709,0.6670166254043579,600.0075073242188,0
751.289999999999,0.005573199596256018,-0.016734344884753227,-4.7427598474314436e-05,0.0,0.0,0.0,0.0,0.0021482366137206554,-0.005039948038756847,-0.000720286974683404,0.9998049736022949,0.0,0.0,0.0,-3.311824321746826,4.689553737640381,0.6609333753585815,599.4468383789062,0
761.1599999999999,0.005556533113121986,-0.016802070662379265,-8.317859465023503e-05,0.0,0.0,0.0,0.0,0.0014579042326658964,0.0032187120523303747,-0.0032722551841288805,1.000503420829773,0.0,0.0,0.0,-3.3164126873016357,4.678712844848633,0.6639359593391418,600.27734375,0
771.0529999999999,0.005573802627623081,-0.01674276776611805,-9.730258898343891e-05,0.0,0.0,0.0,0.0,0.0024343887344002724,0.002205995377153158,0.0009344805730506778,0.9999918937683105,0.0,0.0,0.0,-3.31408953666687,4.667479515075684,0.6624140739440918,599.8568115234375,0
780.9309999999987,0.005573640111833811,-0.016812417656183243,-0.0001271490182261914,0.0,0.0,0.0,0.0,-0.0009405742748640478,-0.0008893333724699914,0.0010876880260184407,0.9984815716743469,0.0,0.0,0.0,-3.3189857006073,4.654276371002197,0.6588098406791687,600.7430419921875,0
790.8230000000003,0.00553016597405076,-0.016814419999718666,-9.52184564084746e-05,0.0,0.0,0.0,0.0,0.0012377804378047585,-0.0016531491419300437,-0.001456218073144555,1.0002938508987427,0.0,0.0,0.0,-3.3155667781829834,4.651571273803711,0.6485771536827087,600.1242065429688,0
800.7009999999991,0.005500852130353451,-0.016870783641934395,-0.00012427513138391078,0.0,0.0,0.0,0.0,-0.0006902885506860912,-0.0011971022468060255,0.00023567180323880166,1.0000531673431396,0.0,0.0,0.0,-3.3211286067962646,4.639129161834717,0.6383389234542847,601.130859375,0
810.598,0.005479180254042149,-0.01683795265853405,-0.00010633780766511336,0.0,0.0,0.0,0.0,-0.00117050064727664,0.0036542739253491163,-0.0025226802099496126,0.9994949698448181,0.0,0.0,0.0,-3.3172214031219482,4.638251304626465,0.6368914246559143,600.4236450195312,0
820.4749999999985,0.005470870528370142,-0.016864055767655373,-0.00010100476356456056,0.0,0.0,0.0,0.0,-0.0033978817518800497,-0.005567893385887146,0.0017110140761360526,0.9987167119979858,0.0,0.0,0.0,-3.3203189373016357,4.633984088897705,0.6416221261024475,600.984375,0
830.3639999999996,0.005460479762405157,-0.016821864992380142,-9.232895536115393e-05,0.0,0.0,0.0,0.0,-0.0015645779203623533,-0.0004953144816681743,-0.002860898617655039,0.9991469979286194,0.0,0.0,0.0,-3.317495584487915,4.628878116607666,0.6374996304512024,600.4733276367188,0
840.2519999999986,0.00547588849440217,-0.016853826120495796,-8.126198372337967e-05,0.0,0.0,0.0,0.0,0.001980625558644533,-0.0037825952749699354,-0.0009616244351491332,0.9983386993408203,0.0,0.0,0.0,-3.3136651515960693,4.629413604736328,0.6493608951568604,599.780029296875,0
850.1359999999986,0.005455393809825182,-0.0168328694999218,-6.747517181793228e-05,0.0,0.0,0.0,0.0,0.000923188345041126,0.00021026468311902136,-0.0032057487405836582,0.998373806476593,0.0,0.0,0.0,-3.3106541633605957,4.6222100257873535,0.645042359828949,599.2349853515625,0
860.0119999999988,0.005552666261792183,-0.016907058656215668,-5.227837391430512e-05,0.0,0.0,0.0,0.0,0.001781337894499302,-0.0028913416899740696,0.001154174911789596,0.9981839656829834,0.0,0.0,0.0,-3.3069777488708496,4.61112117767334,0.6373277902603149,598.5695190429688,0
869.9030000000002,0.005529395304620266,-0.0168924517929554,-2.7921609216718934e-05,0.0,0.0,0.0,0.0,-2.9395394449238665e-05,-0.0026016500778496265,-0.0013800105080008507,0.9980772733688354,0.0,0.0,0.0,-3.311213731765747,4.622323989868164,0.639102041721344,599.3363647460938,0
879.7929999999997,0.005492429248988628,-0.01690235361456871,-1.8145085050491616e-05,0.0,0.0,0.0,0.0,0.002033291617408395,0.0007106361445039511,-0.0012148173991590738,0.9963982105255127,0.0,0.0,0.0,-3.315385103225708,4.616940975189209,0.6406537294387817,600.0913696289062,0
889.6779999999999,0.00542747275903821,-0.016941821202635765,2.8465163268265314e-05,0.0,0.0,0.0,0.0,-0.00114289834164083,-0.0001364423951599747,0.0002153407403966412,1.0001763105392456,0.0,0.0,0.0,-3.3227744102478027,4.612896919250488,0.6413701176643372,601.4287719726562,0
899.5540000000001,0.005460511427372694,-0.016992008313536644,4.8162630264414474e-05,0.0,0.0,0.0,0.0,-0.0015965086640790105,0.0053827497176826,0.003529184265062213,0.9991034865379333,0.0,0.0,0.0,-3.326007604598999,4.610884189605713,0.6573507785797119,602.0140380859375,0
909.4390000000003,0.005483925808221102,-0.01691681705415249,4.0297578379977494e-05,0.0,0.0,0.0,0.0,0.002085022861137986,0.001101417699828744,-0.0014131924835965037,0.9972690939903259,0.0,0.0,0.0,-3.328552484512329,4.62777042388916,0.661285936832428,602.474609375,0
919.3220000000001,0.005460221786051989,-0.016941586509346962,5.0331716920481995e-05,0.0,0.0,0.0,0.0,0.0008628681534901261,0.0024520710576325655,-0.0002731305139604956,0.9996258020401001,0.0,0.0,0.0,-3.3316996097564697,4.628929138183594,0.6534974575042725,603.0442504882812,0
929.2079999999987,0.00549172330647707,-0.016872836276888847,2.7238575057708658e-05,0.0,0.0,0.0,0.0,-0.0005169622600078583,0.001801974605768919,-0.0015976502327248454,0.999746561050415,0.0,0.0,0.0,-3.334670066833496,4.646630764007568,0.6551967263221741,603.5818481445312,0
939.0929999999989,0.005562299862504005,-0.01694224402308464,4.017036917502992e-05,0.0,0.0,0.0,0.0,-0.0005808088462799788,0.0021021924912929535,0.000606020272243768,0.9984956383705139,0.0,0.0,0.0,-3.3390517234802246,4.633713722229004,0.6726449131965637,604.3749389648438,0
948.9809999999998,0.005562438629567623,-0.016903169453144073,4.836972220800817e-05,0.0,0.0,0.0,0.0,-0.001083693583495915,0.0012021706206724048,9.950343519449234e-05,0.9990076422691345,0.0,0.0,0.0,-3.3355884552001953,4.625977993011475,0.6625274419784546,603.7481689453125,0
958.8629999999994,0.005489567294716835,-0.01691306196153164,4.4994023483013734e-05,0.0,0.0,0.0,0.0,-0.003248305991292,-0.0037893913686275482,0.0007570186862722039,0.9996975660324097,0.0,0.0,0.0,-3.3400838375091553,4.624330997467041,0.6378572583198547,604.5618286132812,0
968.7519999999986,0.005495584569871426,-0.016867808997631073,4.208606333122589e-05,0.0,0.0,0.0,0.0,-0.001568194362334907,0.003355779219418764,-0.00043197753257118165,0.9995646476745605,0.0,0.0,0.0,-3.3352086544036865,4.624666213989258,0.651978075504303,603.6793823242188,0
978.6399999999994,0.005465377122163773,-0.016893794760107994,4.699447163147852e-05,0.0,0.0,0.0,0.0,-0.0005798354395665228,-0.004587408155202866,0.0006668669520877302,0.997791588306427,0.0,0.0,0.0,-3.340182065963745,4.627713680267334,0.661287248134613,604.5795288085938,0
988.5259999999998,0.005482531618326902,-0.016840526834130287,2.636417411849834e-05,0.0,0.0,0.0,0.0,-0.00036865193396806717,0.00349289458245039,-0.002790300641208887,0.9984418749809265,0.0,0.0,0.0,-3.3281099796295166,4.648470401763916,0.6650597453117371,602.39453125,0
998.4039999999986,0.005494215060025454,-0.01689336448907852,2.8225726055097766e-05,0.0,0.0,0.0,0.0,-4.092342351214029e-05,0.0018759495578706264,0.004592565819621086,0.9994714260101318,0.0,0.0,0.0,-3.331157922744751,4.646397590637207,0.6678522825241089,602.9461669921875,0
1008.3050000000003,0.0055092074908316135,-0.01684483513236046,7.462505436706124e-06,0.0,0.0,0.0,0.0,-0.0008234487613663077,0.00029147497843950987,-0.00025619950611144304,1.0003803968429565,0.0,0.0,0.0,-3.3215651512145996,4.658267974853516,0.6707908511161804,601.2098999023438,0
1018.1769999999997,0.005518550518900156,-0.016912100836634636,-5.353454980649985e-06,0.0,0.0,0.0,0.0,-0.001146571128629148,0.0002960541460197419,0.0002845981507562101,1.0004403591156006,0.0,0.0,0.0,-3.3270373344421387,4.651438236236572,0.6797545552253723,602.2003784179688,0
1028.063,0.005520208738744259,-0.016868438571691513,-7.031665063550463e-06,0.0,0.0,0.0,0.0,0.0003860846336465329,0.00021037303667981178,5.755061283707619e-05,0.9998982548713684,0.0,0.0,0.0,-3.3241753578186035,4.648036003112793,0.6853278875350952,601.682373046875,0
1037.9439999999995,0.005499746184796095,-0.01690717414021492,-1.159427483798936e-05,0.0,0.0,0.0,0.0,0.003158256411552429,-0.005321096163243055,-0.0008987592300400138,0.9979797005653381,0.0,0.0,0.0,-3.320734977722168,4.643428325653076,0.6798705458641052,601.0596923828125,0
1047.839,0.005495085380971432,-0.016870230436325073,-7.574234587082174e-06,0.0,0.0,0.0,0.0,0.000338729121722281,-0.0030700741335749626,-0.00044764511403627694,0.9979909062385559,0.0,0.0,0.0,-3.316946268081665,4.634650230407715,0.6812352538108826,600.3739013671875,0
1057.7150000000001,0.005486259236931801,-0.016913454979658127,-1.031086048897123e-05,0.0,0.0,0.0,0.0,0.001228516804985702,0.002912204945459962,-0.0029654751997441053,0.9989669322967529,0.0,0.0,0.0,-3.320183515548706,4.627227783203125,0.6969964504241943,600.9598388671875,0
1067.6039999999994,0.005502473097294569,-0.01685313507914543,-2.24521427298896e-05,0.0,0.0,0.0,0.0,-0.0025611792225390673,-0.0016346415504813194,0.003867955645546317,0.9968821406364441,0.0,0.0,0.0,-3.3098666667938232,4.637917518615723,0.698497474193573,599.0924072265625,0
1077.4969999999994,0.005520357750356197,-0.01691613532602787,-2.996560579049401e-05,0.0,0.0,0.0,0.0,-0.00045967355254106224,0.003467387519776821,0.0007335395785048604,0.998399555683136,0.0,0.0,0.0,-3.3177707195281982,4.628994941711426,0.7090875506401062,600.5230712890625,0
1087.369999999999,0.005565105006098747,-0.01682349480688572,-6.109752575866878e-05,0.0,0.0,0.0,0.0,0.002823773305863142,0.003923432901501656,-0.0016269477782770991,0.9973756074905396,0.0,0.0,0.0,-3.3136730194091797,4.621571063995361,0.7072323560714722,599.7814331054688,0
1097.2549999999992,0.005614700261503458,-0.01688729040324688,-6.019098509568721e-05,0.0,0.0,0.0,0.0,0.0019387101056054235,0.002078329911455512,-0.0013446270022541285,0.9984592199325562,0.0,0.0,0.0,-3.3177883625030518,4.614664077758789,0.7062682509422302,600.5263061523438,0
1107.1409999999996,0.0056021264754235744,-0.01686946302652359,-5.430607416201383e-05,0.0,0.0,0.0,0.0,0.000531761150341481,-0.006399073638021946,-0.0004976735217496753,0.9980558156967163,0.0,0.0,0.0,-3.3156096935272217,4.6049628257751465,0.6902896165847778,600.1320190429688,0
1117.0259999999998,0.005546458065509796,-0.01689579151570797,-7.012166315689683e-05,0.0,0.0,0.0,0.0,-0.0018359151436015964,0.0027921150904148817,-0.00020017300266772509,0.9990968108177185,0.0,0.0,0.0,-3.3196234703063965,4.5975847244262695,0.6873281598091125,600.8584594726562,0
1126.911,0.005527933593839407,-0.016876772046089172,-5.573466478381306e-05,0.0,0.0,0.0,0.0,0.00027921050786972046,0.0008147503831423819,0.002874160185456276,0.9983997941017151,0.0,0.0,0.0,-3.316196918487549,4.592119216918945,0.6987557411193848,600.2382202148438,0
1136.7979999999989,0.005484435707330704,-0.01689034141600132,-5.214410339249298e-05,0.0,0.0,0.0,0.0,-0.0006047456408850849,-0.001427038456313312,0.0011416462948545814,0.9982606172561646,0.0,0.0,0.0,-3.321781873703003,4.592284679412842,0.6988202929496765,601.2490844726562,0
1146.6809999999987,0.0054596844129264355,-0.0168759748339653,-3.1830742955207825e-05,0.0,0.0,0.0,0.0,0.0007459803018718958,0.0046942271292209625,-8.493722270941362e-05,1.0010517835617065,0.0,0.0,0.0,-3.3181698322296143,4.590972423553467,0.6844888925552368,600.5953369140625,0
1156.566999999999,0.00544830784201622,-0.01691295951604843,-2.8169326469651423e-05,0.0,0.0,0.0,0.0,0.0014345078961923718,0.006800298113375902,-0.001086597447283566,1.0017002820968628,0.0,0.0,0.0,-3.323247194290161,4.595743656158447,0.6907256245613098,601.5143432617188,0
1166.4519999999993,0.00545521080493927,-0.016872484236955643,-3.181535066687502e-05,0.0,0.0,0.0,0.0,0.0036448908504098654,-0.00027227425016462803,-0.0016139266081154346,0.9996493458747864,0.0,0.0,0.0,-3.331623077392578,4.607442855834961,0.6767887473106384,603.0303955078125,0
1176.3369999999995,0.005479613784700632,-0.01693161018192768,-2.2145663024275564e-05,0.0,0.0,0.0,0.0,-0.0005297086900100112,-0.0009148507961072028,1.8268914573127404e-05,0.9974843263626099,0.0,0.0,0.0,-3.327694892883301,4.595836639404297,0.6619061231613159,602.3193969726562,0
1186.2299999999996,0.005489513743668795,-0.016885556280612946,-1.8260830984218046e-05,0.0,0.0,0.0,0.0,0.00933711789548397,0.0033723674714565277,0.0021228839177638292,0.9974040985107422,0.0,0.0,0.0,-3.3250529766082764,4.586167335510254,0.662931501865387,601.8411865234375,0
1196.1080000000002,0.005483964458107948,-0.01692945510149002,-1.3552789823734201e-05,0.0,0.0,0.0,0.0,-0.0009390879422426224,-0.00404044846072793,-0.00034590362338349223,0.9988080859184265,0.0,0.0,0.0,-3.328178644180298,4.581690311431885,0.662032961845398,602.4069213867188,0
1205.9929999999986,0.005486809648573399,-0.01689589023590088,-8.203763172787149e-06,0.0,0.0,0.0,0.0,-0.0004717213159892708,0.0044913580641150475,-0.004195987246930599,0.9989244937896729,0.0,0.0,0.0,-3.324448823928833,4.571038246154785,0.6598808765411377,601.7318725585938,0
1215.8779999999988,0.005481413099914789,-0.01694120466709137,-7.281457328645047e-06,0.0,0.0,0.0,0.0,0.003952047321945429,7.432798884110525e-05,-0.0003750481700990349,1.0009047985076904,0.0,0.0,0.0,-3.329691171646118,4.565845489501953,0.6662659049034119,602.6807250976562,0
1225.7639999999992,0.005482526961714029,-0.01690010353922844,4.744288617075654e-06,0.0,0.0,0.0,0.0,0.001092993887141347,0.0018520201556384563,-0.0026004319079220295,1.0012563467025757,0.0,0.0,0.0,-3.326603651046753,4.561761379241943,0.6547898054122925,602.121826171875,0
1235.6489999999994,0.005437144543975592,-0.01692933775484562,1.1841722198369098e-06,0.0,0.0,0.0,0.0,0.001810218207538128,0.003080252092331648,0.005839744117110968,1.000747799873352,0.0,0.0,0.0,-3.331058979034424,4.55412483215332,0.6439039707183838,602.9282836914062,0
1245.5349999999999,0.005454577971249819,-0.016886604949831963,-1.3960145679448033e-06,0.0,0.0,0.0,0.0,-0.0006163841462694108,-0.0005130872596055269,0.003106781281530857,0.998053252696991,0.0,0.0,0.0,-3.3284735679626465,4.552680015563965,0.6457798480987549,602.4603271484375,0
1255.4179999999997,0.005505287554115057,-0.01693084090948105,2.758518348855432e-05,0.0,0.0,0.0,0.0,-0.003392485436052084,-0.004475264810025692,-0.0018396135419607162,0.9987984895706177,0.0,0.0,0.0,-3.3250339031219482,4.544155120849609,0.6384238600730896,601.8377075195312,0
1265.312,0.0055597322061657906,-0.016864335164427757,-4.65488255940727e-06,0.0,0.0,0.0,0.0,0.001917950576171279,0.0016102968947961926,-0.00079286505933851,0.9996299147605896,0.0,0.0,0.0,-3.3202452659606934,4.539109230041504,0.6434433460235596,600.9710083007812,0
1275.1899999999987,0.005519759841263294,-0.0168970488011837,-1.3381442840909585e-05,0.0,0.0,0.0,0.0,6.744571146555245e-05,0.00534095847979188,-0.00030974583933129907,0.9976821541786194,0.0,0.0,0.0,-3.3229997158050537,4.539678573608398,0.642070472240448,601.4695434570312,0
1285.0739999999987,0.0055498359724879265,-0.016864603385329247,-4.017269020550884e-05,0.0,0.0,0.0,0.0,-0.0022809801157563925,-0.0018346441211178899,5.4276959417620674e-05,0.9991142749786377,0.0,0.0,0.0,-3.3190879821777344,4.532951831817627,0.6319711804389954,600.7615966796875,0
1294.9660000000003,0.005584415048360825,-0.01693009026348591,-4.4236840039957315e-05,0.0,0.0,0.0,0.0,0.002883211011067033,0.0010711349314078689,0.0013051837449893355,0.9994781613349915,0.0,0.0,0.0,-3.315340757369995,4.521902084350586,0.6306356191635132,600.083251953125,0
1304.8439999999991,0.005639257840812206,-0.016839025542140007,-6.883252353873104e-05,0.0,0.0,0.0,0.0,-0.003388049080967903,-0.006781341042369604,-0.003353565465658903,0.99916672706604,0.0,0.0,0.0,-3.3131039142608643,4.520697116851807,0.629906415939331,599.6784057617188,0
1314.7299999999996,0.005579207092523575,-0.01688222400844097,-0.00010075756290461868,0.0,0.0,0.0,0.0,0.0012491617817431688,0.0039019251707941294,0.005224188789725304,0.9975013732910156,0.0,0.0,0.0,-3.315307140350342,4.5212883949279785,0.6269694566726685,600.0772094726562,0
1324.616,0.005587009713053703,-0.016825415194034576,-8.455201896140352e-05,0.0,0.0,0.0,0.0,0.0014685183996334672,-0.008822361938655376,-0.005633906461298466,0.9967242479324341,0.0,0.0,0.0,-3.3114278316497803,4.517594814300537,0.6225004196166992,599.3750610351562,0
1334.5,0.00566234951838851,-0.016910342499613762,-8.646986680105329e-05,0.0,0.0,0.0,0.0,-0.001055157626979053,-0.0014894144842401147,-0.0006622689543291926,0.998867928981781,0.0,0.0,0.0,-3.3146557807922363,4.50420618057251,0.6523004174232483,599.9592895507812,0
1344.3919999999998,0.0056785899214446545,-0.0168748926371336,-9.319058881374076e-05,0.0,0.0,0.0,0.0,0.001386029995046556,-0.00032308336813002825,0.0018028764752671123,1.0022143125534058,0.0,0.0,0.0,-3.3117058277130127,4.499053478240967,0.6674599051475525,599.4253540039062,0
1354.2749999999996,0.005599542520940304,-0.01691647246479988,-0.00013179326197132468,0.0,0.0,0.0,0.0,-0.0016762412851676345,-0.006155910901725292,-0.00047775564598850906,1.0001580715179443,0.0,0.0,0.0,-3.30834698677063,4.494843006134033,0.6689844131469727,598.8173828125,0
1364.155999999999,0.005587463732808828,-0.016896752640604973,-0.00011358128540450707,0.0,0.0,0.0,0.0,0.0004898789920844138,0.008695779368281364,0.002055589109659195,1.0009222030639648,0.0,0.0,0.0,-3.3040823936462402,4.487787246704102,0.6652559041976929,598.0455322265625,0
1374.0409999999993,0.00555602228268981,-0.016937274485826492,-0.00012573697313200682,0.0,0.0,0.0,0.0,-0.0024562599137425423,-0.006174563430249691,0.001462156418710947,0.9988396763801575,0.0,0.0,0.0,-3.308969736099243,4.487190246582031,0.6626772880554199,598.9300537109375,0
1383.9300000000003,0.005554423201829195,-0.016909902915358543,-0.0001139601445174776,0.0,0.0,0.0,0.0,0.0018718960927799344,-0.002747566904872656,0.0035239779390394688,0.9992506504058838,0.0,0.0,0.0,-3.306157350540161,4.484755516052246,0.6713593602180481,598.4210205078125,0
1393.812,0.0055878194980323315,-0.01698998175561428,-0.00012184328079456463,0.0,0.0,0.0,0.0,0.0029651238583028316,0.00038616833626292646,0.003347667632624507,0.9995397329330444,0.0,0.0,0.0,-3.3119800090789795,4.469977855682373,0.6700922846794128,599.4749755859375,0
1403.7079999999987,0.0056420243345201015,-0.016881348565220833,-0.0001323951582890004,0.0,0.0,0.0,0.0,0.0023681961465626955,-0.0007164663984440267,0.001642860472202301,0.9994351863861084,0.0,0.0,0.0,-3.3063464164733887,4.499718189239502,0.6763013005256653,598.4552612304688,0
1413.5810000000001,0.005569104570895433,-0.016905799508094788,-0.00014942105917725712,0.0,0.0,0.0,0.0,-0.0015615434385836124,0.004447238985449076,-0.0005482471315190196,0.9983119368553162,0.0,0.0,0.0,-3.3108015060424805,4.496501445770264,0.661266028881073,599.2615966796875,0
1423.4689999999991,0.0055491728708148,-0.016892390325665474,-0.00012003272422589362,0.0,0.0,0.0,0.0,0.0008792110020294785,0.0005659603048115969,-0.00017103848222177476,0.9992802739143372,0.0,0.0,0.0,-3.307135820388794,4.480862140655518,0.6512485146522522,598.59814453125,0
1433.351999999999,0.005541753489524126,-0.016937416046857834,-0.00011863137478940189,0.0,0.0,0.0,0.0,0.000590499141253531,-0.0006306181894615293,0.0035924909170717,0.9993764162063599,0.0,0.0,0.0,-3.3123867511749268,4.473605632781982,0.6633188128471375,599.548583984375,0
1443.2369999999992,0.005584266968071461,-0.016870442777872086,-0.00014737099991180003,0.0,0.0,0.0,0.0,-0.0019671116024255753,-0.0007959968061186373,0.0014025111449882388,0.9994040727615356,0.0,0.0,0.0,-3.3093745708465576,4.467655181884766,0.6741266846656799,599.0033569335938,0
1453.1319999999996,0.0055541847832500935,-0.01691405661404133,-0.00015758059453219175,0.0,0.0,0.0,0.0,0.0017443213146179914,-0.001416569110006094,-0.003128164680674672,0.9977772235870361,0.0,0.0,0.0,-3.310852289199829,4.468240737915039,0.6763998866081238,599.2708129882812,0
1463.0149999999994,0.0055271778255701065,-0.01690913736820221,-0.00012083982437616214,0.0,0.0,0.0,0.0,0.0016214100178331137,0.00013440335169434547,0.002619300503283739,0.9981523156166077,0.0,0.0,0.0,-3.308943748474121,4.464091777801514,0.6797663569450378,598.9253540039062,0
1472.8959999999988,0.005480379331856966,-0.01691478304564953,-0.00010311751975677907,0.0,0.0,0.0,0.0,0.0051497407257556915,0.0026141623966395855,0.004486134275794029,1.0001271963119507,0.0,0.0,0.0,-3.3158633708953857,4.468560218811035,0.6780356764793396,600.1779174804688,0
1482.780999999999,0.005451081786304712,-0.01690499112010002,-6.124706851551309e-05,0.0,0.0,0.0,0.0,-0.0009574962314218283,-0.0024272585287690163,0.0018707731505855918,1.000693917274475,0.0,0.0,0.0,-3.312354564666748,4.461305618286133,0.6715562343597412,599.5428466796875,0
1492.6629999999986,0.0054476154036819935,-0.016932910308241844,-3.483826367300935e-05,0.0,0.0,0.0,0.0,-0.0019459737231954932,-0.001850831788033247,0.00026332621928304434,1.0005176067352295,0.0,0.0,0.0,-3.316892623901367,4.4589948654174805,0.6729797720909119,600.3641967773438,0
1502.5519999999997,0.0054502664133906364,-0.016886455938220024,-1.2536413123598322e-05,0.0,0.0,0.0,0.0,-0.0018855228554457426,0.001181626575998962,-0.0012480783043429255,0.9989341497421265,0.0,0.0,0.0,-3.3064727783203125,4.487064838409424,0.6855607032775879,598.4781494140625,0
1512.4339999999993,0.005441401619464159,-0.016922948881983757,1.1085913683928084e-05,0.0,0.0,0.0,0.0,-0.00022856704890727997,-0.0022385006304830313,-9.92356362985447e-05,1.0000486373901367,0.0,0.0,0.0,-3.3147826194763184,4.4914960861206055,0.6879082918167114,599.9822387695312,0
1522.3199999999997,0.0054505933076143265,-0.016891304403543472,1.8999633539351635e-05,0.0,0.0,0.0,0.0,0.0011163357412442565,-0.006418960634618998,0.0004411387490108609,1.000526785850525,0.0,0.0,0.0,-3.3115968704223633,4.492325782775879,0.6871360540390015,599.4056396484375,0
1532.2039999999997,0.005444884300231934,-0.01693417690694332,4.1590832552174106e-05,0.0,0.0,0.0,0.0,0.0022488797549158335,0.002380325458943844,-0.00045194121776148677,0.9992609620094299,0.0,0.0,0.0,-3.3138697147369385,4.489532947540283,0.6927677392959595,599.8170776367188,0
1542.089,0.005491042044013739,-0.016857754439115524,2.1066969566163607e-05,0.0,0.0,0.0,0.0,-0.002449688734486699,-0.0021730600856244564,-0.0012726361164823174,0.9973292350769043,0.0,0.0,0.0,-3.3106348514556885,4.480349540710449,0.6924856901168823,599.2315063476562,0
1551.9740000000002,0.005466816481202841,-0.016897503286600113,3.68157125194557e-05,0.0,0.0,0.0,0.0,-0.0007240030099637806,0.0032964167185127735,-0.0011607313062995672,0.9994174838066101,0.0,0.0,0.0,-3.3159711360931396,4.478354454040527,0.6893736124038696,600.1973876953125,0
1561.8599999999988,0.00553121929988265,-0.016813762485980988,-1.1401668416510802e-05,0.0,0.0,0.0,0.0,0.0007130539161153138,-0.008082260377705097,-0.0002938117540907115,1.0006743669509888,0.0,0.0,0.0,-3.304396152496338,4.505436420440674,0.6973092555999756,598.1022338867188,0
1571.7479999999996,0.0055320607498288155,-0.016893062740564346,-2.2649343009106815e-05,0.0,0.0,0.0,0.0,0.0007768013747408986,0.004274397622793913,0.00016564039106015116,1.0004637241363525,0.0,0.0,0.0,-3.308927059173584,4.49703311920166,0.7017269730567932,598.92236328125,0
1581.6299999999992,0.005565410014241934,-0.01680995151400566,-2.5013468984980136e-05,0.0,0.0,0.0,0.0,-0.00020974579092580825,0.002850519958883524,-0.00018642930081114173,0.9983060956001282,0.0,0.0,0.0,-3.2959537506103516,4.518625736236572,0.7184696197509766,596.5741577148438,0
1591.5169999999998,0.005551274865865707,-0.016884025186300278,-4.16324837715365e-05,0.0,0.0,0.0,0.0,-0.0031992834992706776,-0.002813863568007946,-0.0006044635665602982,0.9991106986999512,0.0,0.0,0.0,-3.298912525177002,4.505807876586914,0.7073162198066711,597.1096801757812,0
1601.3999999999996,0.005579920951277018,-0.016844231635332108,-6.400976417353377e-05,0.0,0.0,0.0,0.0,0.0022908218670636415,-0.0044117276556789875,0.0015970469685271382,0.9997784495353699,0.0,0.0,0.0,-3.2962119579315186,4.5064377784729,0.6974714994430542,596.6209716796875,0
1611.286,0.005558283533900976,-0.01690571941435337,-7.664578151889145e-05,0.0,0.0,0.0,0.0,-0.001261675264686346,-0.0017019694205373526,-0.0023265364579856396,0.9993786215782166,0.0,0.0,0.0,-3.302299737930298,4.498836994171143,0.7155258655548096,597.7227783203125,0
1621.1719999999987,0.005553876981139183,-0.016900690272450447,-7.300376455532387e-05,0.0,0.0,0.0,0.0,-0.0041810194961726665,0.0007470985292457044,-0.0007779945735819638,0.99898761510849,0.0,0.0,0.0,-3.2996182441711426,4.494390487670898,0.7271990180015564,597.2374877929688,0
1631.0609999999997,0.005621135234832764,-0.016982370987534523,-5.456757207866758e-05,0.0,0.0,0.0,0.0,0.0010010501137003303,0.0026515640784054995,-0.0011794635793194175,0.9972434043884277,0.0,0.0,0.0,-3.3069801330566406,4.488920211791992,0.7502601146697998,598.5699462890625,0
1640.940999999999,0.00561330234631896,-0.016962485387921333,-2.4233164367615245e-05,0.0,0.0,0.0,0.0,0.002395800780504942,-0.007217152509838343,0.0023106338921934366,0.9988600015640259,0.0,0.0,0.0,-3.3107309341430664,4.50555419921875,0.7467935681343079,599.2488403320312,0
1650.8279999999995,0.005546113010495901,-0.01700598932802677,-3.814478623098694e-05,0.0,0.0,0.0,0.0,-0.0023553152568638325,-0.0006183786899782717,0.0009751515462994576,0.9988335967063904,0.0,0.0,0.0,-3.3129029273986816,4.501460075378418,0.737794816493988,599.64208984375,0
1660.7169999999987,0.005544719751924276,-0.016969555988907814,-1.2118838640162721e-05,0.0,0.0,0.0,0.0,0.0019174300832673907,0.0008429355802945793,-0.0012558501912280917,0.9990699887275696,0.0,0.0,0.0,-3.3100128173828125,4.496685028076172,0.7479332089424133,599.118896484375,0
1670.5969999999998,0.005497170612215996,-0.01699494756758213,3.44103597171852e-07,0.0,0.0,0.0,0.0,-0.002243475755676627,0.001838221913203597,0.0007209279574453831,0.9977430701255798,0.0,0.0,0.0,-3.314692497253418,4.496350288391113,0.739355742931366,599.9660034179688,0
1680.482,0.0055148908868432045,-0.016947640106081963,1.6008082184271188e-06,0.0,0.0,0.0,0.0,-0.0007938165799714625,-0.0023102196864783764,0.0016966070979833603,0.9998003244400024,0.0,0.0,0.0,-3.3167741298675537,4.516422748565674,0.7423288226127625,600.3427124023438,0
1690.3670000000002,0.0054939789697527885,-0.01699109375476837,1.2173831237305421e-05,0.0,0.0,0.0,0.0,0.0010640831897035241,0.001717875013127923,0.00043570154230110347,1.0009350776672363,0.0,0.0,0.0,-3.320720672607422,4.518307685852051,0.7441540956497192,601.0570678710938,0
1700.2569999999996,0.0055198571644723415,-0.016926338896155357,1.525544939795509e-05,0.0,0.0,0.0,0.0,-0.005476680584251881,-0.005933753680437803,-0.0004650563932955265,0.9999903440475464,0.0,0.0,0.0,-3.3163044452667236,4.5194411277771,0.7541195750236511,600.2576904296875,0
1710.1369999999988,0.005475151818245649,-0.01695321500301361,3.0034194423933513e-05,0.0,0.0,0.0,0.0,5.4013031331123784e-05,-0.005349167622625828,0.0025260623078793287,0.9975729584693909,0.0,0.0,0.0,-3.313185453414917,4.515834331512451,0.7657439708709717,599.6931762695312,0
1720.0280000000002,0.005494804121553898,-0.01691485568881035,2.8774818929377943e-05,0.0,0.0,0.0,0.0,-0.00026949585299007595,0.006962253712117672,0.00030933896778151393,0.9980900883674622,0.0,0.0,0.0,-3.3144962787628174,4.541327476501465,0.7801089286804199,599.930419921875,0
1729.9120000000003,0.005467787850648165,-0.017027979716658592,4.0108228859025985e-05,0.0,0.0,0.0,0.0,0.001998607302084565,0.0020348033867776394,-0.0004983968683518469,1.0003124475479126,0.0,0.0,0.0,-3.315413475036621,4.529994964599609,0.7717803716659546,600.096435546875,0
1739.7999999999993,0.0055374326184391975,-0.016910815611481667,1.4694201126985718e-05,0.0,0.0,0.0,0.0,0.0016037675086408854,0.0042077889665961266,-0.0013089928543195128,1.001166582107544,0.0,0.0,0.0,-3.305760622024536,4.556087017059326,0.7820567488670349,598.3492431640625,0
1749.6779999999999,0.005447632633149624,-0.016989562660455704,1.6884790966287255e-05,0.0,0.0,0.0,0.0,0.0006924544577486813,0.0034284365829080343,-0.0012658865889534354,0.9985772371292114,0.0,0.0,0.0,-3.3074729442596436,4.551977157592773,0.7615030407905579,598.6591796875,0
1759.563,0.0054733422584831715,-0.016906961798667908,3.67538450518623e-05,0.0,0.0,0.0,0.0,-9.043768659466878e-05,0.0008085649460554123,0.0035337526351213455,0.9997020959854126,0.0,0.0,0.0,-3.3074729442596436,4.551977157592773,0.7615030407905579,598.6591796875,0
1769.4579999999987,0.005412413273006678,-0.016997646540403366,4.989806257071905e-05,0.0,0.0,0.0,0.0,-0.0005019791424274445,0.002394013339653611,0.002024838700890541,0.9993817210197449,0.0,0.0,0.0,-3.307216167449951,4.541624069213867,0.7509933114051819,598.6127319335938,0
1779.3400000000001,0.005501504987478256,-0.016840241849422455,2.301585118402727e-05,0.0,0.0,0.0,0.0,0.0016857822192832828,0.0007468002731911838,-0.0005308510735630989,0.9987154603004456,0.0,0.0,0.0,-3.3100624084472656,4.576573848724365,0.76283198595047,599.1278076171875,0
1789.2219999999998,0.005492341239005327,-0.01698058471083641,1.7327905879938044e-05,0.0,0.0,0.0,0.0,0.0016216931398957968,0.0022801319137215614,5.223748667049222e-05,0.999169111251831,0.0,0.0,0.0,-3.31391978263855,4.557546615600586,0.7448762655258179,599.8261108398438,0
1799.1039999999994,0.0055261761881411076,-0.016899889335036278,2.4294045942951925e-05,0.0,0.0,0.0,0.0,-0.0010231734486296773,0.003503453452140093,-0.0003422106965444982,1.0002750158309937,0.0,0.0,0.0,-3.3221471309661865,4.576393127441406,0.7483358383178711,601.3152465820312,0
1808.9920000000002,0.00547752995043993,-0.017015624791383743,2.3651165975024924e-05,0.0,0.0,0.0,0.0,-0.0038155748043209314,-0.0012800367549061775,0.0007477198378182948,1.0000797510147095,0.0,0.0,0.0,-3.316159248352051,4.559859275817871,0.7400906085968018,600.2314453125,0
1818.8769999999986,0.005527518689632416,-0.016906164586544037,2.510508602426853e-05,0.0,0.0,0.0,0.0,0.0006143440841697156,-0.0014580987626686692,-0.0009045031620189548,0.996816873550415,0.0,0.0,0.0,-3.316159248352051,4.559859275817871,0.7400906085968018,600.2314453125,0
1828.7659999999996,0.0054876054637134075,-0.017032954841852188,1.736928606987931e-05,0.0,0.0,0.0,0.0,6.0306148952804506e-05,0.001873696455731988,-0.0012424335582181811,1.0001734495162964,0.0,0.0,0.0,-3.316807985305786,4.54520320892334,0.7565881609916687,600.3488159179688,0
1838.6449999999986,0.005535084288567305,-0.016924668103456497,2.2390002413885668e-05,0.0,0.0,0.0,0.0,0.0004893224686384201,-0.0008684679050929844,-0.000831604702398181,1.0011894702911377,0.0,0.0,0.0,-3.316807985305786,4.54520320892334,0.7565881609916687,600.3488159179688,0
1848.530999999999,0.005520276725292206,-0.017010005190968513,5.9653855714714155e-05,0.0,0.0,0.0,0.0,0.001589280553162098,0.005416790954768658,0.0017203785246238112,1.0010347366333008,0.0,0.0,0.0,-3.318343162536621,4.5446248054504395,0.7543166279792786,600.626708984375,0
1858.4159999999993,0.005557825323194265,-0.016911059617996216,7.365295459749177e-05,0.0,0.0,0.0,0.0,0.0011106000747531652,-0.0003319964453112334,-0.0010198971722275019,1.0000051259994507,0.0,0.0,0.0,-3.318343162536621,4.5446248054504395,0.7543166279792786,600.626708984375,0
1868.3019999999997,0.005461329594254494,-0.016995061188936234,8.050956967053935e-05,0.0,0.0,0.0,0.0,-0.00035504408879205585,-0.0012390287593007088,-0.0010359130101278424,0.9994615912437439,0.0,0.0,0.0,-3.3189785480499268,4.526484966278076,0.7169962525367737,600.74169921875,0
1878.187,0.005531672388315201,-0.0168721042573452,5.725445589632727e-05,0.0,0.0,0.0,0.0,-0.0004955065669491887,-0.0027096751146018505,-0.000536062172614038,0.9993987083435059,0.0,0.0,0.0,-3.311635971069336,4.553849697113037,0.7271714806556702,599.4127197265625,0
1888.0779999999995,0.005504361353814602,-0.017006495967507362,5.0945633120136335e-05,0.0,0.0,0.0,0.0,0.0007026924286037683,-0.0004239747941028327,0.0025242583360522985,0.998924195766449,0.0,0.0,0.0,-3.3134944438934326,4.53641414642334,0.7379865050315857,599.7491455078125,0
1897.9560000000001,0.005534131545573473,-0.016928784549236298,6.2710685597267e-05,0.0,0.0,0.0,0.0,0.0006833646330051124,0.0011348366970196366,-0.0011350603308528662,0.9986182451248169,0.0,0.0,0.0,-3.3134944438934326,4.53641414642334,0.7379865050315857,599.7491455078125,0
1907.8419999999987,0.005473286844789982,-0.01704270951449871,6.174671580083668e-05,0.0,0.0,0.0,0.0,0.002156413858756423,0.001567977829836309,0.001690410659648478,0.9977434277534485,0.0,0.0,0.0,-3.3124005794525146,4.523031234741211,0.7424505949020386,599.5510864257812,0
1917.726999999999,0.0055191293358802795,-0.01693037338554859,7.035121961962432e-05,0.0,0.0,0.0,0.0,0.001094656065106392,0.0032986903097480536,0.003928656689822674,0.9986564517021179,0.0,0.0,0.0,-3.3124005794525146,4.523031234741211,0.7424505949020386,599.5510864257812,0
1927.6119999999992,0.005466249771416187,-0.017031673341989517,7.40046743885614e-05,0.0,0.0,0.0,0.0,0.00019691744819283485,-0.004497555550187826,-0.002089254790917039,0.9990273118019104,0.0,0.0,0.0,-3.3131422996520996,4.510637283325195,0.7347657680511475,599.6853637695312,0
1937.4969999999994,0.005521954037249088,-0.016923410817980766,6.57296841382049e-05,0.0,0.0,0.0,0.0,-0.0012271441519260406,-0.003474680008366704,0.00012887289631180465,0.9991651773452759,0.0,0.0,0.0,-3.3131422996520996,4.510637283325195,0.7347657680511475,599.6853637695312,0
1947.3819999999996,0.005551970563828945,-0.017045771703124046,7.755143451504409e-05,0.0,0.0,0.0,0.0,0.0015024278545752168,0.004615190904587507,0.0010240257252007723,0.9990019202232361,0.0,0.0,0.0,-3.314441204071045,4.498409748077393,0.7545078992843628,599.9205322265625,0
1957.2799999999988,0.005551970563828945,-0.017045771703124046,7.755143451504409e-05,0.0,0.0,0.0,0.0,0.0006565862568095326,-0.0007525917026214302,0.005691844504326582,0.9998734593391418,0.0,0.0,0.0,-3.314441204071045,4.498409748077393,0.7545078992843628,599.9205322265625,0
1967.1530000000002,0.005464514251798391,-0.017129043117165565,8.36906983749941e-05,0.0,0.0,0.0,0.0,0.0007724035531282425,-0.0039064823649823666,-0.0005563388112932444,0.9982309937477112,0.0,0.0,0.0,-3.305655002593994,4.485745429992676,0.7548097968101501,598.330078125,0
1977.0379999999986,0.005464514251798391,-0.017129043117165565,8.36906983749941e-05,0.0,0.0,0.0,0.0,0.0007758747669868171,0.0006335186189971864,-0.00031972743454389274,0.9976904988288879,0.0,0.0,0.0,-3.305655002593994,4.485745429992676,0.7548097968101501,598.330078125,0
1986.9249999999993,0.005382309202104807,-0.017196139320731163,0.00011762358190026134,0.0,0.0,0.0,0.0,0.0015849715564399958,0.007020845077931881,0.0007847106317058206,0.9956339597702026,0.0,0.0,0.0,-3.304969072341919,4.491065979003906,0.7509323358535767,598.2059936523438,0
1996.807999999999,0.005382309202104807,-0.017196139320731163,0.00011762358190026134,0.0,0.0,0.0,0.0,-0.000408328662160784,-0.003976790700107813,0.0034249769523739815,0.9978630542755127,0.0,0.0,0.0,-3.304969072341919,4.491065979003906,0.7509323358535767,598.2059936523438,0
2006.696,0.005368636921048164,-0.01727905496954918,0.00015149102546274662,0.0,0.0,0.0,0.0,0.002919496037065983,-0.002939333440735936,0.0005037521477788687,0.9989970922470093,0.0,0.0,0.0,-3.3050312995910645,4.489238739013672,0.7423632144927979,598.2172241210938,0
2016.58,0.005368636921048164,-0.01727905496954918,0.00015149102546274662,0.0,0.0,0.0,0.0,-0.0025866359937936068,0.0049257297068834305,-0.0025852618273347616,0.9986319541931152,0.0,0.0,0.0,-3.3050312995910645,4.489238739013672,0.7423632144927979,598.2172241210938,0
2026.464,0.005317573435604572,-0.017330102622509003,0.00021535334235522896,0.0,0.0,0.0,0.0,0.002676192903891206,-0.0018224193481728435,0.001657217158935964,1.0001360177993774,0.0,0.0,0.0,-3.309358596801758,4.511013984680176,0.74190354347229,599.0004272460938,0
2036.3490000000002,0.005317573435604572,-0.017330102622509003,0.00021535334235522896,0.0,0.0,0.0,0.0,-0.0009227643022313714,-0.0008523589349351823,4.265850657247938e-05,1.001166820526123,0.0,0.0,0.0,-3.309358596801758,4.511013984680176,0.74190354347229,599.0004272460938,0
2046.2349999999988,0.005371189210563898,-0.017410745844244957,0.00027537046116776764,0.0,0.0,0.0,0.0,0.0020145371090620756,0.0017208275385200977,0.0010182851692661643,0.9992382526397705,0.0,0.0,0.0,-3.311643600463867,4.524108409881592,0.7775550484657288,599.4141235351562,0
2056.1269999999986,0.005371189210563898,-0.017410745844244957,0.00027537046116776764,0.0,0.0,0.0,0.0,0.0018451148644089699,-0.005012854002416134,0.0008940449333749712,1.001731038093567,0.0,0.0,0.0,-3.311643600463867,4.524108409881592,0.7775550484657288,599.4141235351562,0
2066.004999999999,0.005294488277286291,-0.017459597438573837,0.0003562669735401869,0.0,0.0,0.0,0.0,-0.0024762460961937904,0.002562126377597451,-0.0019366263877600431,1.0001192092895508,0.0,0.0,0.0,-3.3124637603759766,4.540590286254883,0.776068389415741,599.5625610351562,0
2075.8899999999994,0.005294488277286291,-0.017459597438573837,0.0003562669735401869,0.0,0.0,0.0,0.0,-0.0006379550904966891,0.0013090401189401746,-0.001316577079705894,1.0006742477416992,0.0,0.0,0.0,-3.3124637603759766,4.540590286254883,0.776068389415741,599.5625610351562,0
2085.7749999999996,0.0052457512356340885,-0.017506802454590797,0.00045349562424235046,0.0,0.0,0.0,0.0,-0.0026045709382742643,-0.006051703356206417,-0.001171522424556315,0.999755322933197,0.0,0.0,0.0,-3.3142917156219482,4.565225601196289,0.7740543484687805,599.8933715820312,0
2095.66,0.0052457512356340885,-0.017506802454590797,0.00045349562424235046,0.0,0.0,0.0,0.0,0.0033617415465414524,-0.0018171000992879272,0.00331708462908864,0.9977099895477295,0.0,0.0,0.0,-3.3142917156219482,4.565225601196289,0.7740543484687805,599.8933715820312,0
2105.547999999999,0.005276406183838844,-0.01758999191224575,0.0005532627110369503,0.0,0.0,0.0,0.0,0.0006960950559005141,0.0031491811387240887,-0.0010496805189177394,1.0004675388336182,0.0,0.0,0.0,-3.3105881214141846,4.570508003234863,0.8356705904006958,599.2229614257812,0
2115.4309999999987,0.005276406183838844,-0.01758999191224575,0.0005532627110369503,0.0,0.0,0.0,0.0,0.0008402494713664055,-0.0017364553641527891,0.0007588280714116991,0.9988109469413757,0.0,0.0,0.0,-3.3105881214141846,4.570508003234863,0.8356705904006958,599.2229614257812,0
2125.316999999999,0.005217254161834717,-0.017630217596888542,0.0006640437641181052,0.0,0.0,0.0,0.0,-0.002423828700557351,-0.004591240081936121,-0.0044725388288497925,0.9988259077072144,0.0,0.0,0.0,-3.314208507537842,4.592985153198242,0.8286019563674927,599.8783569335938,0
2135.2019999999993,0.005217254161834717,-0.017630217596888542,0.0006640437641181052,0.0,0.0,0.0,0.0,0.001687834970653057,-0.0010629399912431836,-0.0044501591473817825,0.9997771382331848,0.0,0.0,0.0,-3.314208507537842,4.592985153198242,0.8286019563674927,599.8783569335938,0
2145.0859999999993,0.00515953591093421,-0.017753183841705322,0.0007157432846724987,0.0,0.0,0.0,0.0,-0.001850960892625153,-0.004106863401830196,0.0010854080319404602,0.9991811513900757,0.0,0.0,0.0,-3.30867862701416,4.584501266479492,0.8355993628501892,598.8773803710938,0
