timestamp,stateEstimate.x,stateEstimate.y,stateEstimate.z,controller.cmd_thrust,controller.cmd_roll,controller.cmd_pitch,controller.cmd_yaw,controller.r_roll,controller.r_pitch,controller.r_yaw,controller.accelz,controller.actuatorThrust,controller.roll,controller.pitch,controller.yaw,controller.rollRate,controller.pitchRate,controller.yawRate,controller.ctr_yaw
0.0,-0.013266702182590961,-0.0019839180167764425,6.770018808310851e-05,0.0,0.0,0.0,0.0,0.001992797711864114,0.006051778327673674,0.0007465582457371056,0.9987402558326721,0.0,0.0,0.0,-3.011457681655884,4.537261962890625,1.5588263273239136,545.079833984375,0
9.885000000000218,-0.013306526467204094,-0.0020050492603331804,6.57923155813478e-05,0.0,0.0,0.0,0.0,-0.0009883734164759517,0.0036324237007647753,0.0007386474753729999,1.0008172988891602,0.0,0.0,0.0,-3.0080509185791016,4.530754566192627,1.548703670501709,544.4631958007812,0
19.785000000001673,-0.013391410000622272,-0.0020551506895571947,2.8075788577552885e-05,0.0,0.0,0.0,0.0,-0.00014339332119561732,0.0008574367966502905,0.00041511974995955825,0.999786913394928,0.0,0.0,0.0,-3.0045602321624756,4.525241374969482,1.5365806818008423,543.831298828125,0
29.655000000000655,-0.013362597674131393,-0.0019252116326242685,2.401959864073433e-05,0.0,0.0,0.0,0.0,0.0013608902227133512,0.002071778057143092,-0.0026435963809490204,0.9992945790290833,0.0,0.0,0.0,-3.0124456882476807,4.5596208572387695,1.5384881496429443,545.2586669921875,0
39.54400000000169,-0.013347599655389786,-0.0019755347166210413,2.3101461920305155e-05,0.0,0.0,0.0,0.0,-0.00016165582928806543,0.0036744908429682255,-0.001707702991552651,0.9983924031257629,0.0,0.0,0.0,-3.021723508834839,4.544750213623047,1.5417673587799072,546.9379272460938,0
49.4280000000017,-0.013337556272745132,-0.0018756515346467495,2.5419571102247573e-05,0.0,0.0,0.0,0.0,-0.0006026917253620923,0.0005039158277213573,0.00021540586021728814,0.9976327419281006,0.0,0.0,0.0,-3.028952121734619,4.564439296722412,1.5346566438674927,548.246337890625,0
59.31600000000071,-0.01333011407405138,-0.0019363644532859325,1.2443422747310251e-05,0.0,0.0,0.0,0.0,0.0010968373389914632,-0.0008750450797379017,2.3487395083066076e-05,0.9981074333190918,0.0,0.0,0.0,-3.0261220932006836,4.56211519241333,1.5345726013183594,547.734130859375,0
69.19300000000112,-0.013272715732455254,-0.0017744386568665504,-2.4294609829667024e-05,0.0,0.0,0.0,0.0,-0.0006709059234708548,0.0013356520794332027,0.0006963640335015953,1.0009891986846924,0.0,0.0,0.0,-3.032700777053833,4.593906402587891,1.5494884252548218,548.9248657226562,0
79.07900000000154,-0.013283666223287582,-0.00184443814214319,-6.399380072252825e-05,0.0,0.0,0.0,0.0,0.0007463764050044119,-0.0007407001103274524,-0.0001411082484992221,1.0002652406692505,0.0,0.0,0.0,-3.02919340133667,4.591244697570801,1.5347745418548584,548.2900390625,0
88.96100000000115,-0.013321984559297562,-0.001864123740233481,-7.642448326805606e-05,0.0,0.0,0.0,0.0,0.0031962324865162373,0.0024114265106618404,-0.0007064422243274748,0.9974669218063354,0.0,0.0,0.0,-3.026064157485962,4.58642053604126,1.529913067817688,547.7235717773438,0
98.85300000000097,-0.013232757337391376,-0.0019793137907981873,-0.0001385682844556868,0.0,0.0,0.0,0.0,0.0027866496238857508,-0.0007752952515147626,0.0032757308799773455,0.9998926520347595,0.0,0.0,0.0,-3.03218674659729,4.552018642425537,1.543519139289856,548.831787109375,0
108.73500000000058,-0.013266104273498058,-0.0020052543841302395,-0.0001569943269714713,0.0,0.0,0.0,0.0,-0.0009356877417303622,0.0012616897001862526,0.0002939081168733537,1.0009112358093262,0.0,0.0,0.0,-3.0281572341918945,4.54365348815918,1.5471651554107666,548.1024780273438,0
118.621000000001,-0.013258397579193115,-0.002055680612102151,-0.00019121085642836988,0.0,0.0,0.0,0.0,0.0013347039930522442,-0.0006995655130594969,-0.002718838397413492,1.0006507635116577,0.0,0.0,0.0,-3.0250086784362793,4.541424751281738,1.5523146390914917,547.5325317382812,0
128.4980000000014,-0.013290959410369396,-0.0020843478851020336,-0.00020961783593520522,0.0,0.0,0.0,0.0,0.0030210569966584444,0.0020711631514132023,-8.810285362415016e-05,0.9992387294769287,0.0,0.0,0.0,-3.022507429122925,4.529233932495117,1.553394079208374,547.0798950195312,0
138.39100000000144,-0.013269249349832535,-0.0021076209377497435,-0.00021576927974820137,0.0,0.0,0.0,0.0,0.0013311681104823947,0.0016497448086738586,-0.0025965103413909674,0.9989531636238098,0.0,0.0,0.0,-3.0279998779296875,4.520350456237793,1.5594562292099,548.0740356445312,0
148.26500000000124,-0.013180059380829334,-0.0018822125857695937,-0.0003047240024898201,0.0,0.0,0.0,0.0,0.00179379025939852,0.0010727719636633992,-0.0017597462283447385,0.9985240697860718,0.0,0.0,0.0,-3.035552740097046,4.595962047576904,1.5662970542907715,549.4410400390625,0
158.16000000000167,-0.013108592480421066,-0.0019467977108433843,-0.00032263147295452654,0.0,0.0,0.0,0.0,-0.00019372753740753978,-0.0007971530430950224,0.0016105619724839926,0.9974599480628967,0.0,0.0,0.0,-3.032589912414551,4.585873603820801,1.5669492483139038,548.90478515625,0
168.03500000000167,-0.013161125592887402,-0.001911414205096662,-0.00021635352459270507,0.0,0.0,0.0,0.0,0.0003861229633912444,-0.0022989760618656874,0.0008738028700463474,1.000445008277893,0.0,0.0,0.0,-3.029301166534424,4.578431606292725,1.577223539352417,548.3095092773438,0
177.9300000000003,-0.013192249462008476,-0.0019418182782828808,-0.0002486520679667592,0.0,0.0,0.0,0.0,-0.001148679293692112,0.0017142287688329816,0.0031850251834839582,1.0003092288970947,0.0,0.0,0.0,-3.034680128097534,4.569265842437744,1.5770084857940674,549.2830810546875,0
187.8060000000005,-0.013244451023638248,-0.0019020630279555917,-0.00015536212595179677,0.0,0.0,0.0,0.0,0.0026245457120239735,0.0023025241680443287,0.0005126990145072341,0.9989972114562988,0.0,0.0,0.0,-3.039158821105957,4.582808494567871,1.5644556283950806,550.0938110351562,0
197.69800000000032,-0.013227233663201332,-0.001956026302650571,-0.00017421640222892165,0.0,0.0,0.0,0.0,-0.000811505364254117,0.0031205881386995316,-0.001868728781118989,0.9985765814781189,0.0,0.0,0.0,-3.043808937072754,4.5698041915893555,1.571463942527771,550.935546875,0
207.57200000000012,-0.01325259730219841,-0.001971513731405139,-0.00018449471099302173,0.0,0.0,0.0,0.0,0.0018860700074583292,-0.0024076562840491533,-0.0014435217017307878,0.9989864826202393,0.0,0.0,0.0,-3.0415732860565186,4.570136547088623,1.565132975578308,550.5308837890625,0
217.45900000000074,-0.013199511915445328,-0.00199970998801291,-0.0001834139839047566,0.0,0.0,0.0,0.0,0.0008664766210131347,0.00023466053244192153,0.0030940459109842777,0.9989137053489685,0.0,0.0,0.0,-3.038926362991333,4.562339782714844,1.5679157972335815,550.0517578125,0
227.34000000000015,-0.013224603608250618,-0.002018131548538804,-0.00019477920432109386,0.0,0.0,0.0,0.0,0.0010974707547575235,0.003383057191967964,0.00044965132838115096,1.0007497072219849,0.0,0.0,0.0,-3.0354502201080322,4.555515289306641,1.564240574836731,549.4225463867188,0
237.22800000000097,-0.013278190046548843,-0.0020099214743822813,-0.0001838329335441813,0.0,0.0,0.0,0.0,0.001552634872496128,0.0012411086354404688,-0.0013559522340074182,1.0017293691635132,0.0,0.0,0.0,-3.031785249710083,4.550878524780273,1.5596635341644287,548.7591552734375,0
247.1150000000016,-0.013270814903080463,-0.0018847680184990168,-0.00013272743672132492,0.0,0.0,0.0,0.0,-0.00035434370511211455,-0.000273035722784698,-0.0020404793322086334,0.9998790621757507,0.0,0.0,0.0,-3.0190534591674805,4.5910563468933105,1.568128228187561,546.4546508789062,0
257.0060000000012,-0.013293791562318802,-0.0019088599365204573,-0.00014220988668967038,0.0,0.0,0.0,0.0,-0.0011511053889989853,-0.00443809200078249,-0.00237253587692976,0.9997060298919678,0.0,0.0,0.0,-3.016432762145996,4.585663318634033,1.5696911811828613,545.9802856445312,0
266.880000000001,-0.01332430075854063,-0.0019205327844247222,-0.0001453305740142241,0.0,0.0,0.0,0.0,0.0002755786990746856,0.006508249789476395,-0.0012151467381045222,0.9974741339683533,0.0,0.0,0.0,-3.0143229961395264,4.581981182098389,1.58414626121521,545.5984497070312,0
276.76800000000003,-0.013303031213581562,-0.001940229907631874,-0.00014273867418523878,0.0,0.0,0.0,0.0,0.0008123235311359167,-0.0012191720306873322,-0.0020197599660605192,0.9965148568153381,0.0,0.0,0.0,-3.0112760066986084,4.5741658210754395,1.566014051437378,545.0469360351562,0
286.65800000000127,-0.013265512883663177,-0.001784821506589651,-0.00014551004278473556,0.0,0.0,0.0,0.0,0.003337819129228592,-3.491173993097618e-05,-0.004578292835503817,0.9985740780830383,0.0,0.0,0.0,-2.9948923587799072,4.614580154418945,1.5786573886871338,542.0814819335938,0
296.53300000000127,-0.013269800692796707,-0.0018090785015374422,-0.00015770082245580852,0.0,0.0,0.0,0.0,0.0015823653666302562,-0.0035704285837709904,-1.2189918379590381e-05,1.0004428625106812,0.0,0.0,0.0,-2.9991495609283447,4.597930908203125,1.577416181564331,542.8519897460938,0
306.4200000000001,-0.013225476257503033,-0.001658711931668222,-0.00018243624072056264,0.0,0.0,0.0,0.0,0.0010736527619883418,0.002173240063712001,-0.0007411811384372413,1.000654697418213,0.0,0.0,0.0,-2.9852261543273926,4.621859073638916,1.5896458625793457,540.3319091796875,0
316.3020000000015,-0.013178807683289051,-0.0017508554738014936,-0.000231794489081949,0.0,0.0,0.0,0.0,-0.0016829633386805654,0.0011502887355163693,-0.003061405848711729,0.9992882013320923,0.0,0.0,0.0,-2.9819371700286865,4.611628532409668,1.5865678787231445,539.736572265625,0
326.1890000000003,-0.013194531202316284,-0.001667486154474318,-0.0001874939480330795,0.0,0.0,0.0,0.0,-0.00016224809223785996,-0.007647410035133362,-0.0011761273490265012,0.9999638795852661,0.0,0.0,0.0,-2.98878812789917,4.6253862380981445,1.5804338455200195,540.9766235351562,0
336.0740000000005,-0.013130811974406242,-0.0017404453828930855,-0.0002071771741611883,0.0,0.0,0.0,0.0,0.0022624817211180925,0.002249404089525342,-0.00017153142835013568,1.0008535385131836,0.0,0.0,0.0,-2.985684394836426,4.6192240715026855,1.5860008001327515,540.4148559570312,0
345.95700000000033,-0.013185115531086922,-0.0016925859963521361,-0.00011115571396658197,0.0,0.0,0.0,0.0,-0.00022613562759943306,-0.005410270299762487,-0.00030526574118994176,1.0006687641143799,0.0,0.0,0.0,-2.98235821723938,4.609477996826172,1.5782595872879028,539.8128051757812,0
355.85000000000036,-0.01308360043913126,-0.0018155077705159783,-0.00014585278404410928,0.0,0.0,0.0,0.0,0.002022234722971916,-0.00334482965990901,0.0006148755783215165,1.0001269578933716,0.0,0.0,0.0,-2.9789371490478516,4.604301452636719,1.592894434928894,539.1935424804688,0
365.7310000000016,-0.013101992197334766,-0.0018217068864032626,-0.00014712072152178735,0.0,0.0,0.0,0.0,0.0004467477847356349,-0.0012905639596283436,-0.0002495529770385474,1.000209093093872,0.0,0.0,0.0,-2.9756205081939697,4.596968173980713,1.6032729148864746,538.59326171875,0
375.6110000000008,-0.013066587038338184,-0.0018917931010946631,-0.00018788970191963017,0.0,0.0,0.0,0.0,0.0027222863864153624,0.0025659557431936264,-0.0007245150045491755,0.9995805025100708,0.0,0.0,0.0,-2.9802744388580322,4.5771660804748535,1.610985517501831,539.4356689453125,0
385.4990000000016,-0.01306961104273796,-0.0018019939307123423,-0.00012520815653260797,0.0,0.0,0.0,0.0,0.001589495106600225,0.000770772632677108,-0.003211159724742174,1.0023318529129028,0.0,0.0,0.0,-2.9662039279937744,4.594248294830322,1.5960255861282349,536.8888549804688,0
395.3780000000006,-0.013136233203113079,-0.0018491627415642142,-0.00018432759679853916,0.0,0.0,0.0,0.0,-0.0006092127878218889,0.0018934337422251701,0.0006199039635248482,1.0015865564346313,0.0,0.0,0.0,-2.9635987281799316,4.588776588439941,1.5962353944778442,536.4172973632812,0
405.27000000000044,-0.013151823543012142,-0.001856148475781083,-0.00018492003437131643,0.0,0.0,0.0,0.0,-0.0001534754119347781,0.001956238178536296,0.001982042333111167,1.0008107423782349,0.0,0.0,0.0,-2.95949125289917,4.5850677490234375,1.5883095264434814,535.673828125,0
415.15000000000146,-0.013195112347602844,-0.0019046759698539972,-0.00022599795192945749,0.0,0.0,0.0,0.0,0.0011417848290875554,-0.0003769648028537631,-0.0009320584358647466,1.0008715391159058,0.0,0.0,0.0,-2.954913854598999,4.579651355743408,1.577467679977417,534.8453369140625,0
425.0470000000005,-0.013253574259579182,-0.0018638389883562922,-8.219721348723397e-05,0.0,0.0,0.0,0.0,-0.001521438593044877,0.0023508165031671524,0.001249458990059793,0.9998337030410767,0.0,0.0,0.0,-2.951491594314575,4.572503566741943,1.5823454856872559,534.225830078125,0
434.9170000000013,-0.013266008347272873,-0.0018888440681621432,-8.26072646304965e-05,0.0,0.0,0.0,0.0,0.0002765520184766501,0.00013476097956299782,-0.00168898468837142,0.998820424079895,0.0,0.0,0.0,-2.9538416862487793,4.562987327575684,1.5791442394256592,534.6511840820312,0
444.8170000000009,-0.01328334491699934,-0.001824133680202067,-1.924352181958966e-05,0.0,0.0,0.0,0.0,0.0009791936026886106,-0.00037354527739807963,0.001383001683279872,1.0011966228485107,0.0,0.0,0.0,-2.961811065673828,4.5736799240112305,1.5767003297805786,536.0936889648438,0
454.6870000000017,-0.013295001350343227,-0.0018672915175557137,-3.260728044551797e-05,0.0,0.0,0.0,0.0,0.0005167318158783019,0.002215802203863859,0.0037955609150230885,0.9999209046363831,0.0,0.0,0.0,-2.964775323867798,4.562005519866943,1.5829918384552002,536.6301879882812,0
464.58600000000115,-0.013316554948687553,-0.0017982837744057178,3.6499091947916895e-05,0.0,0.0,0.0,0.0,0.0019841836765408516,-6.610937271034345e-05,0.0027342941612005234,0.9993656277656555,0.0,0.0,0.0,-2.9681315422058105,4.570952415466309,1.5749166011810303,537.2376708984375,0
474.45600000000013,-0.013259530998766422,-0.0018917445559054613,2.1316183847375214e-05,0.0,0.0,0.0,0.0,-0.003698578104376793,-0.00030489216442219913,-0.00048265213263221085,0.9980054497718811,0.0,0.0,0.0,-2.9768526554107666,4.542673587799072,1.5805892944335938,538.8162841796875,0
484.3540000000012,-0.013281808234751225,-0.0018331612227484584,7.969680882524699e-05,0.0,0.0,0.0,0.0,0.001518667209893465,0.0018250945722684264,-0.0005609439685940742,1.0009835958480835,0.0,0.0,0.0,-2.983588218688965,4.5568132400512695,1.5726138353347778,540.0354614257812,0
494.2340000000004,-0.01329017337411642,-0.0018835614901036024,7.121545786503702e-05,0.0,0.0,0.0,0.0,-0.0029242760501801968,-0.0027517592534422874,0.0006329556927084923,1.0001200437545776,0.0,0.0,0.0,-2.988398313522339,4.540885925292969,1.5687518119812012,540.906005859375,0
504.1180000000004,-0.013298924081027508,-0.001821397920139134,0.00010978161299135536,0.0,0.0,0.0,0.0,-0.0009074269910342991,0.0052931709215044975,-0.0008848786819726229,0.9998445510864258,0.0,0.0,0.0,-2.9953701496124268,4.552218914031982,1.5753593444824219,542.16796875,0
513.9940000000006,-0.013311028480529785,-0.0018928326899185777,8.620986773166806e-05,0.0,0.0,0.0,0.0,-0.0006412049406208098,0.0017136273672804236,0.0008111257338896394,0.9993577599525452,0.0,0.0,0.0,-2.9925754070281982,4.548722267150879,1.5621494054794312,541.6620483398438,0
523.9010000000017,-0.01333800982683897,-0.0019059601472690701,9.880786819849163e-05,0.0,0.0,0.0,0.0,0.0020442286040633917,-0.001887260819785297,0.002639122074469924,0.9997113943099976,0.0,0.0,0.0,-2.9890291690826416,4.543845176696777,1.5559502840042114,541.020263671875,0
533.764000000001,-0.013284939341247082,-0.0019958659540861845,7.032858411548659e-05,0.0,0.0,0.0,0.0,0.00012581938062794507,-0.0005000241799280047,-0.00091606006026268,1.0013896226882935,0.0,0.0,0.0,-2.9911890029907227,4.516326904296875,1.5736624002456665,541.4111938476562,0
543.6590000000015,-0.013311238028109074,-0.0020138658583164215,8.020328095881268e-05,0.0,0.0,0.0,0.0,-0.00022132048616185784,0.004065489862114191,-9.111158578889444e-05,0.9984737634658813,0.0,0.0,0.0,-2.98801589012146,4.5120625495910645,1.5722568035125732,540.8368530273438,0
553.5370000000003,-0.013291489332914352,-0.0020754318684339523,5.85570560360793e-05,0.0,0.0,0.0,0.0,0.0012295158812776208,-0.0007652263739146292,0.0008680623723194003,0.9997674822807312,0.0,0.0,0.0,-2.984941005706787,4.5096940994262695,1.558092713356018,540.2802734375,0
563.4270000000015,-0.013216394931077957,-0.0018947653006762266,3.3049283956643194e-05,0.0,0.0,0.0,0.0,0.0014269201783463359,0.006651794072240591,-0.0010250050108879805,0.9993329048156738,0.0,0.0,0.0,-2.989021062850952,4.566811561584473,1.5722241401672363,541.018798828125,0
573.3030000000017,-0.013257446698844433,-0.001929095364175737,8.253779014921747e-06,0.0,0.0,0.0,0.0,0.001204551663249731,0.0027616226579993963,0.0020150078926235437,0.9997838735580444,0.0,0.0,0.0,-2.98646879196167,4.562490940093994,1.5521119832992554,540.5568237304688,0
583.2020000000011,-0.013220563530921936,-0.0017931873444467783,2.4962480893009342e-05,0.0,0.0,0.0,0.0,0.001697220024652779,-0.0009227032423950732,-0.0037153479643166065,1.0006853342056274,0.0,0.0,0.0,-2.993109703063965,4.596614360809326,1.5440537929534912,541.7588500976562,0
593.0720000000001,-0.013154247775673866,-0.0018831209745258093,4.052300937473774e-06,0.0,0.0,0.0,0.0,-0.0008103241561912,0.003120829351246357,0.0013780348235741258,1.0009373426437378,0.0,0.0,0.0,-2.9917101860046387,4.5885329246521,1.5498048067092896,541.5054931640625,0
602.9650000000001,-0.013169779442250729,-0.0018946850905194879,7.463153451681137e-06,0.0,0.0,0.0,0.0,0.0009162874193862081,-0.00181110471021384,-0.0035686346236616373,1.000728726387024,0.0,0.0,0.0,-2.9872653484344482,4.581449031829834,1.55148446559906,540.700927734375,0
612.8410000000003,-0.013206667266786098,-0.0019677369855344296,-4.6107910748105496e-05,0.0,0.0,0.0,0.0,0.0009250505827367306,-0.000278365274425596,0.00141964724753052,1.0003083944320679,0.0,0.0,0.0,-2.984983205795288,4.574516773223877,1.5603796243667603,540.2879638671875,0
622.7340000000004,-0.013227093033492565,-0.0019841890316456556,-4.557251668302342e-05,0.0,0.0,0.0,0.0,0.0009058141731657088,-0.0023415156174451113,-0.0010942700318992138,0.9998721480369568,0.0,0.0,0.0,-2.98195743560791,4.568525791168213,1.5552709102630615,539.740234375,0
632.612000000001,-0.01325965579599142,-0.0020397731568664312,-8.273339335573837e-05,0.0,0.0,0.0,0.0,0.0014391266740858555,4.973822433385067e-05,0.0020324757788330317,1.0011366605758667,0.0,0.0,0.0,-2.9909920692443848,4.5489501953125,1.5576640367507935,541.37548828125,0
642.5060000000012,-0.013284463435411453,-0.002060760511085391,-8.412572060478851e-05,0.0,0.0,0.0,0.0,0.00126107526011765,-0.0020046003628522158,0.004531430080533028,0.9987832903862,0.0,0.0,0.0,-2.987818956375122,4.543883323669434,1.5633708238601685,540.8012084960938,0
652.3900000000012,-0.013190717436373234,-0.0021092360839247704,-9.744690760271624e-05,0.0,0.0,0.0,0.0,0.001949607627466321,5.6597891671117395e-05,-0.004706419073045254,1.0007374286651611,0.0,0.0,0.0,-2.9839532375335693,4.536736965179443,1.565351963043213,540.1015014648438,0
662.2780000000002,-0.01321110688149929,-0.0021342618856579065,-9.971106919692829e-05,0.0,0.0,0.0,0.0,0.0015970445238053799,0.005347755737602711,0.0018475056858733296,1.000503659248352,0.0,0.0,0.0,-2.9817349910736084,4.529102802276611,1.562497615814209,539.699951171875,0
672.1490000000013,-0.013239833526313305,-0.00216081365942955,-0.00010239312541671097,0.0,0.0,0.0,0.0,-0.0005363519885577261,-0.006491119507700205,-0.0018016679678112268,1.0005244016647339,0.0,0.0,0.0,-2.986236810684204,4.5243449211120605,1.5551093816757202,540.5147705078125,0
682.0420000000013,-0.013202415779232979,-0.001984519651159644,-7.385728531517088e-05,0.0,0.0,0.0,0.0,0.00025839870795607567,0.00809776782989502,-0.001230256981216371,0.999006450176239,0.0,0.0,0.0,-2.992344379425049,4.590301990509033,1.5690337419509888,541.6202392578125,0
691.9190000000017,-0.013194592669606209,-0.0020162067376077175,-7.118792564142495e-05,0.0,0.0,0.0,0.0,-0.00048435869393870234,-0.00229910877533257,-0.0018702989909797907,0.9991570711135864,0.0,0.0,0.0,-2.9900777339935303,4.580977916717529,1.5465800762176514,541.2100219726562,0
701.8110000000015,-0.013214264065027237,-0.0020310981199145317,-6.937755097169429e-05,0.0,0.0,0.0,0.0,0.0014139162376523018,-0.001042060786858201,-0.00279819592833519,0.99933260679245,0.0,0.0,0.0,-2.987859010696411,4.5794196128845215,1.5449060201644897,540.8084716796875,0
711.6880000000001,-0.013249646872282028,-0.0020528289023786783,-7.952161831781268e-05,0.0,0.0,0.0,0.0,0.002515466185286641,-0.0006352085038088262,-0.0018278072820976377,0.9990874528884888,0.0,0.0,0.0,-2.998767614364624,4.571636199951172,1.5464723110198975,542.7828979492188,0
721.5860000000011,-0.013233864679932594,-0.0019348658388480544,-3.143427602481097e-05,0.0,0.0,0.0,0.0,0.0014867180725559592,0.0005515351076610386,0.000654517556540668,0.9974839687347412,0.0,0.0,0.0,-3.0065975189208984,4.6073126792907715,1.5567954778671265,544.2001953125,0
731.4650000000001,-0.013279086910188198,-0.0019437880255281925,-3.942973125958815e-05,0.0,0.0,0.0,0.0,0.000769082922488451,0.005887605715543032,-0.0027863483410328627,0.9983536005020142,0.0,0.0,0.0,-3.0040600299835205,4.599422931671143,1.552782654762268,543.7407836914062,0
741.3610000000008,-0.013304934836924076,-0.0019507961114868522,-3.9440848922822624e-05,0.0,0.0,0.0,0.0,-0.0009824574226513505,-0.009721726179122925,0.001456112484447658,1.0010499954223633,0.0,0.0,0.0,-3.0016164779663086,4.590147495269775,1.5402812957763672,543.298583984375,0
751.2270000000008,-0.013251030817627907,-0.0020032634492963552,-6.084753113100305e-05,0.0,0.0,0.0,0.0,-6.39993158983998e-05,-0.0019662620034068823,-0.0027029647026211023,1.0002970695495605,0.0,0.0,0.0,-3.0088348388671875,4.575376510620117,1.577031135559082,544.6051635742188,0
761.1190000000006,-0.013267423957586288,-0.001919085276313126,1.114270526159089e-05,0.0,0.0,0.0,0.0,0.0002672270929906517,-0.0009675761102698743,-0.001804934348911047,0.9994831085205078,0.0,0.0,0.0,-3.0130066871643066,4.5965704917907715,1.5804721117019653,545.3602294921875,0
770.996000000001,-0.013247571885585785,-0.001988248433917761,-1.8682878362596966e-05,0.0,0.0,0.0,0.0,0.0006573318969458342,0.0030812339391559362,0.0009675684850662947,0.9989261627197266,0.0,0.0,0.0,-3.018322467803955,4.577921390533447,1.5890486240386963,546.3223266601562,0
780.8880000000008,-0.013193007558584213,-0.0018082908354699612,-2.2155134502099827e-05,0.0,0.0,0.0,0.0,-0.0016718190163373947,0.0013338326243683696,-0.00037668965524062514,1.000471591949463,0.0,0.0,0.0,-3.0070793628692627,4.602639198303223,1.593854546546936,544.287353515625,0
790.7650000000012,-0.013205369934439659,-0.0018756696954369545,-7.062585791572928e-05,0.0,0.0,0.0,0.0,0.0011561164865270257,-0.004000966902822256,0.0011572662042453885,1.0002034902572632,0.0,0.0,0.0,-3.005028009414673,4.598428726196289,1.5886493921279907,543.916015625,0
800.6610000000001,-0.013202241621911526,-0.0017584289889782667,-2.824540570145473e-05,0.0,0.0,0.0,0.0,0.0015731853200122714,-8.07216129032895e-05,-0.0010716839460656047,0.9995978474617004,0.0,0.0,0.0,-3.0122339725494385,4.612051486968994,1.597956657409668,545.2203979492188,0
810.5370000000003,-0.013151769526302814,-0.0018252506852149963,-3.999577529611997e-05,0.0,0.0,0.0,0.0,0.002684772713109851,0.0029421241488307714,-0.003382616676390171,0.9995036721229553,0.0,0.0,0.0,-3.0091099739074707,4.60382604598999,1.596649408340454,544.6549682617188,0
820.4300000000003,-0.013192531652748585,-0.0017896131612360477,1.629355756449513e-05,0.0,0.0,0.0,0.0,-0.0014295891160145402,0.0005169836804270744,-0.0010908222757279873,0.9998782277107239,0.0,0.0,0.0,-3.013078212738037,4.601296424865723,1.5833133459091187,545.3731689453125,0
830.3050000000003,-0.01320470217615366,-0.00186519930139184,-3.0493603844661266e-05,0.0,0.0,0.0,0.0,-0.0014877760550007224,0.0040739295072853565,-0.001486696070060134,0.998620867729187,0.0,0.0,0.0,-3.009697198867798,4.596806526184082,1.5750505924224854,544.7611694335938,0
840.1959999999999,-0.013232419267296791,-0.0018702078377828002,-3.101357287960127e-05,0.0,0.0,0.0,0.0,0.0023060746025294065,0.0010839172173291445,-0.002664570463821292,0.998384952545166,0.0,0.0,0.0,-3.007328510284424,4.594987392425537,1.5554265975952148,544.3324584960938,0
850.0740000000005,-0.013281329534947872,-0.0019052154384553432,-6.237361230887473e-05,0.0,0.0,0.0,0.0,0.004564974457025528,0.00015728984726592898,0.0015793080674484372,0.9994766116142273,0.0,0.0,0.0,-3.005068302154541,4.584712505340576,1.5460302829742432,543.9232788085938,0
859.9710000000014,-0.013314169831573963,-0.0019122726516798139,-6.76990021020174e-05,0.0,0.0,0.0,0.0,0.0037444541230797768,0.007479674182832241,0.0014364150119945407,0.9994381070137024,0.0,0.0,0.0,-3.001110553741455,4.572676658630371,1.541142225265503,543.2069091796875,0
869.8430000000008,-0.013278190046548843,-0.0019651087932288647,-0.00010698838013922796,0.0,0.0,0.0,0.0,-0.0005141490837559104,0.00205327570438385,0.003377738408744335,0.9985824823379517,0.0,0.0,0.0,-2.99867844581604,4.559463024139404,1.5160002708435059,542.7667236328125,0
879.7350000000006,-0.013312043622136116,-0.0019753098022192717,-0.0001165117064374499,0.0,0.0,0.0,0.0,0.0025842662435024977,-0.0017961381236091256,0.0005676919245161116,1.0005342960357666,0.0,0.0,0.0,-2.995016574859619,4.55634880065918,1.507846713066101,542.1039428710938,0
889.612000000001,-0.013280813582241535,-0.0020073531195521355,-0.0001433076395187527,0.0,0.0,0.0,0.0,-0.001042429357767105,0.0035711261443793774,-0.003144746646285057,1.001412272453308,0.0,0.0,0.0,-2.992004632949829,4.545705318450928,1.5059877634048462,541.5587768554688,0
899.5100000000002,-0.013293325901031494,-0.001916827168315649,-9.245115506928414e-05,0.0,0.0,0.0,0.0,0.0018594982102513313,-0.004467006307095289,-0.0017656756099313498,0.999648928642273,0.0,0.0,0.0,-2.9967706203460693,4.578197956085205,1.4928802251815796,542.4214477539062,0
909.3820000000014,-0.013257232494652271,-0.001974157290533185,-0.00010456178279127926,0.0,0.0,0.0,0.0,0.0011850482551380992,-0.0003374057705514133,0.0017358724726364017,0.9984557628631592,0.0,0.0,0.0,-3.002661943435669,4.558755397796631,1.5096960067749023,543.48779296875,0
919.2850000000017,-0.013283598236739635,-0.001907099038362503,-4.284083843231201e-05,0.0,0.0,0.0,0.0,-0.001991161610931158,0.0008202508906833827,0.0005193671095184982,0.998555600643158,0.0,0.0,0.0,-3.009284257888794,4.568583965301514,1.50541353225708,544.6864624023438,0
929.1510000000017,-0.013264724984765053,-0.0019778672140091658,-7.418979657813907e-05,0.0,0.0,0.0,0.0,0.0007419189787469804,0.0008781189098954201,-0.0005263451603241265,0.9989829659461975,0.0,0.0,0.0,-3.006716728210449,4.569228172302246,1.5041022300720215,544.2217407226562,0
939.0470000000005,-0.013270672410726547,-0.001860939897596836,-2.058642712654546e-05,0.0,0.0,0.0,0.0,0.0012050571385771036,0.0027510966174304485,-0.0031933290883898735,1.0000754594802856,0.0,0.0,0.0,-3.0096395015716553,4.588016033172607,1.5015252828598022,544.7507934570312,0
948.9200000000001,-0.013242272660136223,-0.0019395502749830484,-5.058725946582854e-05,0.0,0.0,0.0,0.0,0.0032005715183913708,0.0013361655874177814,0.0029801407363265753,1.0006664991378784,0.0,0.0,0.0,-3.0171902179718018,4.56585693359375,1.5036169290542603,546.1174926757812,0
958.8150000000005,-0.01328251976519823,-0.0018746310379356146,2.5398170691914856e-05,0.0,0.0,0.0,0.0,0.000722556549590081,0.004436457064002752,0.001219909405335784,0.9990292191505432,0.0,0.0,0.0,-3.0226125717163086,4.5687360763549805,1.4955371618270874,547.0989379882812,0
968.6940000000013,-0.013211178593337536,-0.00195590709336102,2.131137989636045e-05,0.0,0.0,0.0,0.0,0.0018756698118522763,0.0007758547435514629,-0.001947196084074676,1.001833438873291,0.0,0.0,0.0,-3.018911361694336,4.562448978424072,1.4884040355682373,546.428955078125,0
978.5830000000005,-0.013244466856122017,-0.0019653141498565674,2.459039205859881e-05,0.0,0.0,0.0,0.0,-0.0012568390229716897,-0.0021871381904929876,0.00250576832331717,0.9995421767234802,0.0,0.0,0.0,-3.015923500061035,4.554668426513672,1.490966558456421,545.8881225585938,0
988.4590000000007,-0.013255428522825241,-0.0020227546337991953,-5.350043011276284e-06,0.0,0.0,0.0,0.0,-0.001966755837202072,-0.00724232941865921,0.0016935509629547596,1.0006909370422363,0.0,0.0,0.0,-3.0201878547668457,4.54158353805542,1.5019009113311768,546.6600341796875,0
998.3640000000014,-0.01322640385478735,-0.0018853731453418732,8.324659575009719e-06,0.0,0.0,0.0,0.0,-0.0034558637998998165,0.004587008152157068,0.00013201018737163395,1.0007455348968506,0.0,0.0,0.0,-3.023536205291748,4.574875354766846,1.5244364738464355,547.26611328125,0
1008.2290000000012,-0.01318456046283245,-0.00194728490896523,1.3718794207306928e-06,0.0,0.0,0.0,0.0,0.0015716482885181904,0.0018495245603844523,-0.001810066751204431,0.9996605515480042,0.0,0.0,0.0,-3.0206618309020996,4.575483798980713,1.5124953985214233,546.7457885742188,0
1018.1230000000014,-0.013173057697713375,-0.0018239199416711926,4.443656871444546e-05,0.0,0.0,0.0,0.0,0.0003731193137355149,0.001394128892570734,0.0012482727179303765,0.9991575479507446,0.0,0.0,0.0,-3.028135299682617,4.591343879699707,1.501510500907898,548.0985107421875,0
1027.9990000000016,-0.01321136299520731,-0.0019047902897000313,-1.675074418017175e-05,0.0,0.0,0.0,0.0,-0.0008520989795215428,-0.00025134175666607916,-0.0012806588783860207,0.9981784224510193,0.0,0.0,0.0,-3.0244600772857666,4.583338737487793,1.4945297241210938,547.4332885742188,0
1037.8970000000008,-0.013217158615589142,-0.0018074593972414732,3.182459840900265e-05,0.0,0.0,0.0,0.0,-0.003070713486522436,0.0024609705433249474,0.0012328424490988255,0.9982200264930725,0.0,0.0,0.0,-3.031160593032837,4.596786975860596,1.4930932521820068,548.6460571289062,0
1047.7690000000002,-0.013228721916675568,-0.001898591173812747,-2.3701921236352064e-05,0.0,0.0,0.0,0.0,0.003112411592155695,0.006620099302381277,0.00018865757738240063,1.0021239519119263,0.0,0.0,0.0,-3.037344455718994,4.581871509552002,1.4940937757492065,549.765380859375,0
1057.6650000000009,-0.01327876839786768,-0.0018581498879939318,4.9054160626837984e-05,0.0,0.0,0.0,0.0,-0.000560414104256779,-0.00630887970328331,-0.002047955757007003,1.0005557537078857,0.0,0.0,0.0,-3.0413808822631836,4.580196380615234,1.4775890111923218,550.4960327148438,0
1067.5390000000007,-0.013166273944079876,-0.0019841070752590895,3.474436380201951e-05,0.0,0.0,0.0,0.0,0.005043824203312397,0.0032065908890217543,-0.0010877049062401056,1.0000640153884888,0.0,0.0,0.0,-3.039172887802124,4.575150012969971,1.4871658086776733,550.0963745117188,0
1077.4300000000003,-0.01314796693623066,-0.0018581089098006487,6.298214429989457e-05,0.0,0.0,0.0,0.0,0.0008914091158658266,0.0023158960975706577,-0.001583617995493114,1.000386118888855,0.0,0.0,0.0,-3.046077251434326,4.585485935211182,1.4851467609405518,551.3460693359375,0
1087.3120000000017,-0.013197205029428005,-0.0019345664186403155,1.1964963050559163e-05,0.0,0.0,0.0,0.0,0.0005881923716515303,1.3780228982795961e-05,-0.0006357844104059041,0.9993500113487244,0.0,0.0,0.0,-3.051182270050049,4.565101623535156,1.4777907133102417,552.27001953125,0
1097.2080000000005,-0.013198500499129295,-0.0018135362770408392,6.39669451629743e-05,0.0,0.0,0.0,0.0,0.0037042766343802214,0.004675027448683977,0.004431383218616247,1.0002425909042358,0.0,0.0,0.0,-3.0550739765167236,4.58045768737793,1.477831482887268,552.9744262695312,0
1107.0750000000007,-0.013222637586295605,-0.0018976903520524502,1.85618300747592e-05,0.0,0.0,0.0,0.0,-0.00044389834511093795,0.0029873212333768606,0.002881182823330164,1.0008461475372314,0.0,0.0,0.0,-3.0626683235168457,4.556666374206543,1.4673230648040771,554.3490600585938,0
1116.9680000000008,-0.013217094354331493,-0.0017752281855791807,6.1022077716188505e-05,0.0,0.0,0.0,0.0,0.0004685591266024858,-0.0018586738733574748,-0.002158581279218197,0.9985795617103577,0.0,0.0,0.0,-3.0587856769561768,4.5532612800598145,1.4557933807373047,553.6463012695312,0
1126.8450000000012,-0.01313353143632412,-0.0019102212972939014,2.227947516075801e-05,0.0,0.0,0.0,0.0,-0.002377005759626627,0.0029780552722513676,-0.003150161588564515,0.9975581765174866,0.0,0.0,0.0,-3.05715012550354,4.544381618499756,1.45412015914917,553.3502197265625,0
1136.7450000000008,-0.013145441189408302,-0.0018321246607229114,6.694249896099791e-05,0.0,0.0,0.0,0.0,0.0030100110452622175,0.000953475187998265,0.0016936715692281723,1.000968337059021,0.0,0.0,0.0,-3.0636203289031982,4.561132431030273,1.4487298727035522,554.5213012695312,0
1146.616,-0.013194193132221699,-0.001905979122966528,1.2997580597584601e-05,0.0,0.0,0.0,0.0,0.0022418794687837362,0.0016447545494884253,-0.001585259335115552,1.0001567602157593,0.0,0.0,0.0,-3.067279100418091,4.538974761962891,1.434705376625061,555.1836547851562,0
1156.5070000000014,-0.013204950839281082,-0.0018325805431231856,4.8551773943472654e-05,0.0,0.0,0.0,0.0,0.0013778087450191379,0.0009787246817722917,0.0009651153231970966,0.9994924664497375,0.0,0.0,0.0,-3.0647482872009277,4.529326438903809,1.4274036884307861,554.7254638671875,0
1166.3850000000002,-0.013262802734971046,-0.0018746346468105912,1.636344677535817e-05,0.0,0.0,0.0,0.0,-0.000471043138531968,-0.0030390298925340176,0.0005408843280747533,0.9975988864898682,0.0,0.0,0.0,-3.0691232681274414,4.515065670013428,1.4169036149978638,555.5173950195312,0
1176.2750000000015,-0.013277469202876091,-0.001805464387871325,4.764643745147623e-05,0.0,0.0,0.0,0.0,0.0019387169741094112,-0.0007108153658919036,-0.0008537013782188296,0.9990596771240234,0.0,0.0,0.0,-3.0657799243927,4.510601997375488,1.421007513999939,554.9122314453125,0
1186.152,-0.013289659284055233,-0.0018640663474798203,2.1468767954502255e-05,0.0,0.0,0.0,0.0,0.00024204594956245273,0.0016138635110110044,-0.0021091890521347523,0.9997024536132812,0.0,0.0,0.0,-3.062988042831421,4.507243633270264,1.4204301834106445,554.4068603515625,0
1196.0550000000003,-0.013298057951033115,-0.0017752958228811622,5.045104626333341e-05,0.0,0.0,0.0,0.0,-0.002370979869738221,0.00448624137789011,0.0006721857935190201,1.0003762245178223,0.0,0.0,0.0,-3.059940814971924,4.504740238189697,1.4129159450531006,553.8553466796875,0
1205.9220000000005,-0.013305067084729671,-0.001833540154621005,2.829025106620975e-05,0.0,0.0,0.0,0.0,0.0022571024019271135,-0.0010106564732268453,-0.00026944431010633707,0.9992585778236389,0.0,0.0,0.0,-3.0630383491516113,4.492393493652344,1.4091979265213013,554.416015625,0
1215.8190000000013,-0.013343434780836105,-0.0018439762061461806,2.567460251157172e-05,0.0,0.0,0.0,0.0,0.0029938146471977234,0.0005782943917438388,0.0021542804315686226,0.9965624809265137,0.0,0.0,0.0,-3.061086893081665,4.481861114501953,1.4071543216705322,554.0628051757812,0
1225.6910000000007,-0.013280034996569157,-0.0019278433173894882,-1.2885524483863264e-05,0.0,0.0,0.0,0.0,-0.0008772353758104146,-0.0008983921143226326,-0.0016951813595369458,0.9962447285652161,0.0,0.0,0.0,-3.0677120685577393,4.454037666320801,1.424325704574585,555.261962890625,0
1235.5860000000011,-0.013252362608909607,-0.001805491279810667,-3.1415231205755845e-05,0.0,0.0,0.0,0.0,0.0014424138935282826,-0.0021109352819621563,0.004480347037315369,0.9977880120277405,0.0,0.0,0.0,-3.0498692989349365,4.484678268432617,1.4279009103775024,552.0324096679688,0
1245.4610000000011,-0.01322393212467432,-0.001892456435598433,-8.2483580627013e-05,0.0,0.0,0.0,0.0,-8.432108006672934e-05,-0.0015335058560594916,0.003054190194234252,1.0003589391708374,0.0,0.0,0.0,-3.0527849197387695,4.458780288696289,1.439806342124939,552.5601196289062,0
1255.353000000001,-0.013264925219118595,-0.0018361788243055344,-3.149430267512798e-05,0.0,0.0,0.0,0.0,0.0002012249460676685,0.004058424383401871,5.965165837551467e-05,0.9990584254264832,0.0,0.0,0.0,-3.0504796504974365,4.454956531524658,1.4439541101455688,552.1428833007812,0
1265.232,-0.013238524086773396,-0.001921290997415781,-7.577738142572343e-05,0.0,0.0,0.0,0.0,0.0007176506333053112,-7.948833081172779e-05,0.0002291886485181749,0.9980299472808838,0.0,0.0,0.0,-3.05576229095459,4.435171604156494,1.4492933750152588,553.0990600585938,0
1275.1330000000016,-0.013279657810926437,-0.0018662101356312633,-2.6956753572449088e-05,0.0,0.0,0.0,0.0,0.0008005510899238288,-0.005514349322766066,-0.0017312425188720226,0.9998804926872253,0.0,0.0,0.0,-3.060739517211914,4.443829536437988,1.4452950954437256,553.9998779296875,0
1285.0010000000002,-0.013267222791910172,-0.0019485714146867394,-7.504275708924979e-05,0.0,0.0,0.0,0.0,0.0008814533357508481,-0.0032264580950140953,-0.000610667048022151,1.0006744861602783,0.0,0.0,0.0,-3.057945728302002,4.437880992889404,1.4544413089752197,553.4942016601562,0
1294.9030000000002,-0.013255651108920574,-0.0018235709285363555,-6.646229303441942e-05,0.0,0.0,0.0,0.0,7.154720515245572e-05,-0.001325067481957376,0.0003099603927694261,1.001106858253479,0.0,0.0,0.0,-3.0396885871887207,4.460540294647217,1.4664956331253052,550.1897583007812,0
1304.7710000000006,-0.013189321383833885,-0.0018948251381516457,-7.450277189491317e-05,0.0,0.0,0.0,0.0,-0.0026809123810380697,0.0016410552198067307,0.0016347907949239016,0.999694287776947,0.0,0.0,0.0,-3.0368635654449463,4.456055164337158,1.4726231098175049,549.6784057617188,0
1314.6640000000007,-0.013227679766714573,-0.0019075778545811772,-8.496638474753127e-05,0.0,0.0,0.0,0.0,0.0014060861431062222,0.0020639505237340927,-0.00021918074344284832,0.9986697435379028,0.0,0.0,0.0,-3.0337295532226562,4.456536293029785,1.4706734418869019,549.111083984375,0
1324.5390000000007,-0.013190281577408314,-0.0019394515547901392,-9.025564941111952e-05,0.0,0.0,0.0,0.0,0.003768829395994544,0.0034395153634250164,0.002576374216005206,0.9988106489181519,0.0,0.0,0.0,-3.040442943572998,4.448150634765625,1.4837334156036377,550.3262939453125,0
1334.4370000000017,-0.013227763585746288,-0.001955449813976884,-0.0001017824251903221,0.0,0.0,0.0,0.0,0.002902812557294965,0.0015893178060650826,0.0016175612108781934,1.0012474060058594,0.0,0.0,0.0,-3.037322998046875,4.436273097991943,1.4776979684829712,549.7615356445312,0
1344.3100000000013,-0.01323472335934639,-0.002004370791837573,-0.00013691990170627832,0.0,0.0,0.0,0.0,0.0005464101559482515,0.0019585122354328632,0.0037844676990062,0.9998307228088379,0.0,0.0,0.0,-3.0416767597198486,4.413112640380859,1.4808348417282104,550.549560546875,0
1354.2110000000011,-0.013212568126618862,-0.0018531630048528314,-0.0001184133070637472,0.0,0.0,0.0,0.0,-0.0009210609714500606,0.0010875375010073185,0.000893336720764637,1.0011276006698608,0.0,0.0,0.0,-3.0451486110687256,4.4555206298828125,1.4855576753616333,551.1779174804688,0
1364.0770000000011,-0.01317072194069624,-0.0019115781178697944,-0.0001294286921620369,0.0,0.0,0.0,0.0,0.0013421669136732817,-0.004181526135653257,-0.001948024844750762,1.0036036968231201,0.0,0.0,0.0,-3.0421862602233887,4.452297687530518,1.486171007156372,550.6417846679688,0
1373.982,-0.013204369693994522,-0.0019255364313721657,-0.00013599160593003035,0.0,0.0,0.0,0.0,-0.0008683210471644998,-0.0012563338968902826,5.031861292081885e-05,1.000366449356079,0.0,0.0,0.0,-3.0399386882781982,4.445346355438232,1.4926807880401611,550.2349243164062,0
1383.848,-0.013240767642855644,-0.0019409642554819584,-0.00014066940639168024,0.0,0.0,0.0,0.0,-0.0016969526186585426,-0.00025456573348492384,-0.00020635842520277947,0.9967119097709656,0.0,0.0,0.0,-3.0369932651519775,4.442265033721924,1.5023014545440674,549.701904296875,0
1393.755000000001,-0.013280423358082771,-0.0019573543686419725,-0.00014646246563643217,0.0,0.0,0.0,0.0,0.004036468453705311,-0.0012454144889488816,0.002904319204390049,0.9999949932098389,0.0,0.0,0.0,-3.034212589263916,4.442254543304443,1.5097708702087402,549.198486328125,0
1403.6170000000002,-0.013277825899422169,-0.0020113689824938774,-0.00017287455557379872,0.0,0.0,0.0,0.0,-1.78401551238494e-05,0.002512696199119091,0.0010150662856176496,0.9997270107269287,0.0,0.0,0.0,-3.0308642387390137,4.4280781745910645,1.5130032300949097,548.5924072265625,0
1413.5130000000008,-0.013315149582922459,-0.0020308399107307196,-0.00018142956832889467,0.0,0.0,0.0,0.0,-0.0015192498685792089,-0.003648733254522085,-0.0016153474571183324,1.001171588897705,0.0,0.0,0.0,-3.027893543243408,4.426272869110107,1.5118303298950195,548.0547485351562,0
1423.3860000000004,-0.013279850594699383,-0.002070169895887375,-0.00019289425108581781,0.0,0.0,0.0,0.0,0.0008009481825865805,0.0023916075006127357,-0.0020003856625407934,1.0020545721054077,0.0,0.0,0.0,-3.0255417823791504,4.420323371887207,1.511623501777649,547.6290893554688,0
1433.2870000000003,-0.013311164453625679,-0.0020923102274537086,-0.00019945771782658994,0.0,0.0,0.0,0.0,-0.0014775644522160292,-0.000648282642941922,0.002260950393974781,0.9999376535415649,0.0,0.0,0.0,-3.0238378047943115,4.415538311004639,1.515335202217102,547.3206176757812,0
1443.166000000001,-0.013343747705221176,-0.0021146624349057674,-0.00020532036432996392,0.0,0.0,0.0,0.0,0.0010518907802179456,0.0032580348197370768,0.0031709088943898678,0.9985591173171997,0.0,0.0,0.0,-3.0199060440063477,4.412329196929932,1.511664628982544,546.6090087890625,0
1453.0470000000005,-0.013378054834902287,-0.002137716393917799,-0.00021150705288164318,0.0,0.0,0.0,0.0,0.0012302275281399488,0.0009591032867319882,0.0008094049990177155,0.9997982382774353,0.0,0.0,0.0,-3.016535758972168,4.4090142250061035,1.504462480545044,545.9990234375,0
1462.9270000000015,-0.01341381948441267,-0.002161554526537657,-0.00021808690507896245,0.0,0.0,0.0,0.0,0.002635978627949953,0.001013716566376388,0.0032457883935421705,0.9997357130050659,0.0,0.0,0.0,-3.0129165649414062,4.400907516479492,1.4974974393844604,545.3439331054688,0
1472.826000000001,-0.013451340608298779,-0.0021866168826818466,-0.00022494344739243388,0.0,0.0,0.0,0.0,0.0020598776172846556,0.0032275738194584846,-0.0021737718489021063,0.9990460276603699,0.0,0.0,0.0,-3.009655714035034,4.3936967849731445,1.4930553436279297,544.753662109375,0
1482.696,-0.013232816942036152,-0.0022122678346931934,-0.00017759125330485404,0.0,0.0,0.0,0.0,-0.00277728121727705,-0.004751711152493954,0.0030780506785959005,0.9994873404502869,0.0,0.0,0.0,-3.0101633071899414,4.3817901611328125,1.5647549629211426,544.8455200195312,0
1492.5930000000008,-0.013255411759018898,-0.0022388326469808817,-0.00018166910740546882,0.0,0.0,0.0,0.0,0.0018022567965090275,0.005526219494640827,-0.0029487921856343746,1.0001304149627686,0.0,0.0,0.0,-3.0063982009887695,4.381187438964844,1.5736082792282104,544.1640625,0
1502.464,-0.013280228711664677,-0.0022649113088846207,-0.00018546549836173654,0.0,0.0,0.0,0.0,0.002373846247792244,0.0021717920899391174,-0.0022550474386662245,0.9992490410804749,0.0,0.0,0.0,-3.0042755603790283,4.367054462432861,1.5543805360794067,543.77978515625,0
1512.3550000000014,-0.013306237757205963,-0.0022918491158634424,-0.0001894621818792075,0.0,0.0,0.0,0.0,0.00035865636891685426,-0.0016812961548566818,0.00081366061931476,0.9980611205101013,0.0,0.0,0.0,-3.0017454624176025,4.358615398406982,1.543758511543274,543.3218994140625,0
1522.232,-0.01333294715732336,-0.002321363892406225,-0.0001945503754541278,0.0,0.0,0.0,0.0,0.0007504811510443687,0.0008497746894136071,0.004826146177947521,0.9999829530715942,0.0,0.0,0.0,-2.998955726623535,4.353423595428467,1.5425795316696167,542.81689453125,0
1532.130000000001,-0.013360139913856983,-0.0023544777650386095,-0.00019984104437753558,0.0,0.0,0.0,0.0,-0.0006934256525710225,0.0012601320631802082,-0.0013698502443730831,1.0036412477493286,0.0,0.0,0.0,-2.9944255352020264,4.347280025482178,1.5301107168197632,541.9969482421875,0
1542.0010000000002,-0.01338715199381113,-0.0023907856084406376,-0.00020298222079873085,0.0,0.0,0.0,0.0,-0.001233723247423768,-0.001580043463036418,-0.001451470423489809,1.0003021955490112,0.0,0.0,0.0,-2.991929531097412,4.343348026275635,1.5323529243469238,541.5452270507812,0
1551.898000000001,-0.013413767330348492,-0.0024291484151035547,-0.00020434986799955368,0.0,0.0,0.0,0.0,0.0029697692953050137,-0.003710749326273799,0.004659251309931278,1.0002448558807373,0.0,0.0,0.0,-2.989659070968628,4.340595245361328,1.54062819480896,541.1342163085938,0
1561.7830000000013,-0.013344124890863895,-0.002340781968086958,-7.621535041835159e-05,0.0,0.0,0.0,0.0,-0.0010133041068911552,-0.004844242706894875,-0.0009313374175690114,1.001852035522461,0.0,0.0,0.0,-2.9923927783966064,4.365522384643555,1.5698155164718628,541.6290283203125,0
1571.67,-0.013366466388106346,-0.002373479539528489,-6.81036472087726e-05,0.0,0.0,0.0,0.0,-0.00040085442014969885,-0.0006002012523822486,0.002364582382142544,0.9991046190261841,0.0,0.0,0.0,-2.9898953437805176,4.365900993347168,1.5825541019439697,541.1770629882812,0
1581.5400000000009,-0.013389709405601025,-0.002406940096989274,-5.939065886195749e-05,0.0,0.0,0.0,0.0,0.0010852396953850985,-0.004553336650133133,0.0010000596521422267,0.9998787641525269,0.0,0.0,0.0,-2.986953020095825,4.360073089599609,1.5792518854141235,540.6444091796875,0
1591.4320000000007,-0.013414246961474419,-0.0024419904220849276,-5.0996182835660875e-05,0.0,0.0,0.0,0.0,0.0010919241467490792,-0.00116132537368685,0.001826324500143528,0.9992584586143494,0.0,0.0,0.0,-2.9842236042022705,4.3476762771606445,1.5843790769577026,540.150390625,0
1601.309000000001,-0.013441532850265503,-0.0024788356386125088,-4.30064246756956e-05,0.0,0.0,0.0,0.0,-0.0005813400493934751,-0.002857064362615347,0.0010865807998925447,1.0002530813217163,0.0,0.0,0.0,-2.9804553985595703,4.336943626403809,1.5880662202835083,539.4683837890625,0
1611.2020000000011,-0.013472553342580795,-0.0025159590877592564,-3.5149321774952114e-05,0.0,0.0,0.0,0.0,-0.0008339170017279685,0.0007565642008557916,-0.001653587445616722,0.9994121193885803,0.0,0.0,0.0,-2.9769110679626465,4.334192276000977,1.5929304361343384,538.8268432617188,0
1621.0820000000003,-0.01350684929639101,-0.0025527498219162226,-2.7233720174990594e-05,0.0,0.0,0.0,0.0,-0.0018521217862144113,-0.0022145749535411596,-0.0012809847248718143,1.0002671480178833,0.0,0.0,0.0,-2.974506378173828,4.334217071533203,1.5918002128601074,538.3915405273438,0
1630.9830000000002,-0.013296381570398808,-0.0017644144827499986,-0.00024756076163612306,0.0,0.0,0.0,0.0,-0.00019925631931982934,-0.0021323722321540117,-0.003365092910826206,1.0030053853988647,0.0,0.0,0.0,-2.986166000366211,4.486004829406738,1.621642827987671,540.501953125,0
1640.853000000001,-0.013322520069777966,-0.001765397610142827,-0.00023770108236931264,0.0,0.0,0.0,0.0,-0.0003319249954074621,0.0037883638869971037,-0.002374419244006276,1.0002127885818481,0.0,0.0,0.0,-2.9835355281829834,4.481439113616943,1.6184731721878052,540.02587890625,0
1650.7430000000004,-0.013348204083740711,-0.0017668280052021146,-0.00022666683071292937,0.0,0.0,0.0,0.0,-0.0002456957590766251,-0.0011195138795301318,0.00019274685473646969,0.9984352588653564,0.0,0.0,0.0,-2.9811649322509766,4.47477912902832,1.6082549095153809,539.5968017578125,0
1660.6240000000016,-0.01337502896785736,-0.0017692861147224903,-0.0002163086028303951,0.0,0.0,0.0,0.0,-0.0025682379491627216,-0.0014003172982484102,0.0018231016583740711,0.9993973970413208,0.0,0.0,0.0,-2.9784789085388184,4.471243381500244,1.6084964275360107,539.110595703125,0
1670.5160000000014,-0.01342818234115839,-0.0016897370805963874,6.9499383243964985e-06,0.0,0.0,0.0,0.0,0.0032365056686103344,0.004763283301144838,0.0007014786824584007,0.9988052845001221,0.0,0.0,0.0,-2.9884185791015625,4.49570894241333,1.603290319442749,540.90966796875,0
1680.3870000000006,-0.013460705988109112,-0.0016902569914236665,2.633501026139129e-05,0.0,0.0,0.0,0.0,0.0020350804552435875,-0.00268223462626338,-0.00024217681493610144,1.002210259437561,0.0,0.0,0.0,-2.9846768379211426,4.4844651222229,1.5862383842468262,540.2324829101562,0
1690.2790000000005,-0.01349268201738596,-0.001633822568692267,0.00011933255154872313,0.0,0.0,0.0,0.0,0.0010313531383872032,-0.0011895920615643263,-0.001883427845314145,0.9987101554870605,0.0,0.0,0.0,-2.9909188747406006,4.48659086227417,1.5789861679077148,541.3622436523438,0
1700.1560000000009,-0.013525597751140594,-0.001633157255128026,0.00014333371655084193,0.0,0.0,0.0,0.0,0.0002402023965260014,0.0022488143295049667,0.0001262784790014848,0.9983435273170471,0.0,0.0,0.0,-2.9886083602905273,4.477571964263916,1.5739834308624268,540.9440307617188,0
1710.0530000000017,-0.01349643524736166,-0.0015238950727507472,0.00016593080363236368,0.0,0.0,0.0,0.0,0.0016075012972578406,0.000831727753393352,-0.0015517384745180607,1.0007684230804443,0.0,0.0,0.0,-2.972527265548706,4.508554458618164,1.5808277130126953,538.0333251953125,0
1719.9260000000013,-0.013523788191378117,-0.0015187137760221958,0.0001879866176750511,0.0,0.0,0.0,0.0,-0.00043666569399647415,0.002024749293923378,-0.00011324798106215894,0.9974968433380127,0.0,0.0,0.0,-2.9706993103027344,4.498047828674316,1.571602463722229,537.7025146484375,0
1729.8180000000011,-0.013490194454789162,-0.0014350248966366053,0.00020127710013184696,0.0,0.0,0.0,0.0,0.0006314458441920578,-0.0032200950663536787,-0.001886280020698905,1.0006823539733887,0.0,0.0,0.0,-2.962012767791748,4.5204033851623535,1.5791480541229248,536.1302490234375,0
1739.701000000001,-0.013515985570847988,-0.001425839145667851,0.0002202218893216923,0.0,0.0,0.0,0.0,-0.001575312577188015,0.0002574235259089619,0.001504408777691424,1.0003966093063354,0.0,0.0,0.0,-2.96024751663208,4.509497165679932,1.5781171321868896,535.8106689453125,0
1749.5880000000016,-0.013542049564421177,-0.0014260748866945505,0.0002240659814560786,0.0,0.0,0.0,0.0,-0.0035343824420124292,-0.004259958863258362,0.005230374168604612,1.0017179250717163,0.0,0.0,0.0,-2.9574601650238037,4.504764556884766,1.5796507596969604,535.30615234375,0
1759.464,-0.01357037853449583,-0.0014162836596369743,0.0002434053603792563,0.0,0.0,0.0,0.0,0.0026289119850844145,-0.00242989812977612,-0.0011407973943278193,1.0002270936965942,0.0,0.0,0.0,-2.9534924030303955,4.508270263671875,1.5903286933898926,534.5880126953125,0
1769.357,-0.013544411398470402,-0.0013699063565582037,0.0002477846574038267,0.0,0.0,0.0,0.0,0.002413390437141061,0.0050326925702393055,0.001167909475043416,0.9979289174079895,0.0,0.0,0.0,-2.938161849975586,4.517262935638428,1.6104793548583984,531.8131103515625,0
1779.2340000000004,-0.013570977374911308,-0.0013578967191278934,0.00026494322810322046,0.0,0.0,0.0,0.0,0.0042501818388700485,0.00020156345271971077,-0.001067728502675891,0.998296856880188,0.0,0.0,0.0,-2.934784173965454,4.5059099197387695,1.5933260917663574,531.2017211914062,0
1789.130000000001,-0.013607989065349102,-0.0013662396231666207,0.0002618529833853245,0.0,0.0,0.0,0.0,0.0017654719995334744,-0.002782869152724743,0.0038132097106426954,0.9988780617713928,0.0,0.0,0.0,-2.9437243938446045,4.482822418212891,1.5959599018096924,532.8199462890625,0
1799.0030000000006,-0.013638190925121307,-0.0013569791335612535,0.00027508503990247846,0.0,0.0,0.0,0.0,-0.00024600132019259036,-0.0024401680566370487,0.002535178791731596,0.9974779486656189,0.0,0.0,0.0,-2.940645933151245,4.4741291999816895,1.5942118167877197,532.2626953125,0
1808.8950000000004,-0.013668674044311047,-0.0013491540448740125,0.0002866486902348697,0.0,0.0,0.0,0.0,0.0017857650527730584,0.000457282701972872,-0.0006913589313626289,0.9990032911300659,0.0,0.0,0.0,-2.9361424446105957,4.470741271972656,1.5910719633102417,531.4476318359375,0
1818.7720000000008,-0.013225237838923931,-0.0017527041491121054,0.0003493874392006546,0.0,0.0,0.0,0.0,0.0007982866954989731,-0.0002957026590593159,0.0013663438148796558,0.9994872212409973,0.0,0.0,0.0,-2.942793130874634,4.37285041809082,1.6684656143188477,532.6513671875,0
1828.666000000001,-0.01323905773460865,-0.001769118825905025,0.00035163716529496014,0.0,0.0,0.0,0.0,0.0024375130888074636,0.003437111619859934,0.0012732682516798377,1.0002593994140625,0.0,0.0,0.0,-2.94051456451416,4.3661627769470215,1.6677465438842773,532.2389526367188,0
1838.549000000001,-0.013235711492598057,-0.0019091838039457798,0.00020370814308989793,0.0,0.0,0.0,0.0,-0.0005408009164966643,-0.001988518051803112,-0.001505356514826417,0.9979552030563354,0.0,0.0,0.0,-2.9464354515075684,4.323052883148193,1.6608662605285645,533.3106689453125,0
1848.4350000000013,-0.013252774253487587,-0.0019360315054655075,0.00019541515212040395,0.0,0.0,0.0,0.0,0.003574372036382556,0.003012694651260972,0.0003738460363820195,1.002902626991272,0.0,0.0,0.0,-2.943605899810791,4.322011470794678,1.6695727109909058,532.7984619140625,0
1858.3110000000015,-0.013249496929347515,-0.0020204042084515095,0.000114231719635427,0.0,0.0,0.0,0.0,-0.0003827383043244481,-0.0002914783835876733,-0.0015275474870577455,1.000304102897644,0.0,0.0,0.0,-2.95491623878479,4.296086311340332,1.6712232828140259,534.845703125,0
1868.2120000000014,-0.013186484575271606,-0.001879461808130145,8.736626477912068e-05,0.0,0.0,0.0,0.0,-0.00013039204350207,0.002499160123988986,0.0008270462858490646,0.999122142791748,0.0,0.0,0.0,-2.962226152420044,4.343942165374756,1.6817024946212769,536.1688232421875,0
1878.089,-0.013215859420597553,-0.0019661136902868748,-8.619196705694776e-06,0.0,0.0,0.0,0.0,0.0008295717416331172,0.0013159577501937747,0.0009099456365220249,1.0003663301467896,0.0,0.0,0.0,-2.959496021270752,4.334189414978027,1.6671584844589233,535.6746215820312,0
1887.9760000000006,-0.01322866976261139,-0.001995188882574439,-2.6269273803336546e-05,0.0,0.0,0.0,0.0,-0.0008011601166799664,-0.004143005236983299,-0.0034825033508241177,0.998724102973938,0.0,0.0,0.0,-2.956411361694336,4.327782154083252,1.6688542366027832,535.1163330078125,0
1897.8520000000008,-0.013222130946815014,-0.0020525821018964052,-6.643752567470074e-05,0.0,0.0,0.0,0.0,-0.00034957044408656657,-0.0010293037630617619,-0.0020837057381868362,1.0003242492675781,0.0,0.0,0.0,-2.969804048538208,4.316390514373779,1.684934377670288,537.5404663085938,0
1907.7440000000006,-0.013196111656725407,-0.0019703868310898542,-5.7602992455940694e-05,0.0,0.0,0.0,0.0,0.003403924871236086,0.007464459165930748,-0.001981314504519105,1.0003957748413086,0.0,0.0,0.0,-2.9801418781280518,4.337430477142334,1.6898258924484253,539.4116821289062,0
1917.6190000000006,-0.013171611353754997,-0.002024303190410137,-7.237723912112415e-05,0.0,0.0,0.0,0.0,0.0007975505432114005,0.0034752932842820883,0.0010627468582242727,0.999315083026886,0.0,0.0,0.0,-2.9778025150299072,4.324525833129883,1.6817165613174438,538.9882202148438,0
1927.5240000000013,-0.01314719021320343,-0.0019047814421355724,-3.265471605118364e-05,0.0,0.0,0.0,0.0,-0.0013522703666239977,-0.0005061494885012507,0.0014970316551625729,0.9991592764854431,0.0,0.0,0.0,-2.9743430614471436,4.315011978149414,1.6739192008972168,538.3619995117188,0
1937.3970000000008,-0.013106225058436394,-0.0020049656741321087,-7.935987378004938e-05,0.0,0.0,0.0,0.0,0.00012326514115557075,0.0010736252879723907,-0.003957511391490698,0.9990714192390442,0.0,0.0,0.0,-2.9714784622192383,4.3126749992370605,1.675140380859375,537.8434448242188,0
1947.2810000000009,-0.013084180653095245,-0.0018708888674154878,-2.8957607355550863e-05,0.0,0.0,0.0,0.0,0.0005687217926606536,0.0016036940505728126,0.004999908618628979,1.0010465383529663,0.0,0.0,0.0,-2.9824063777923584,4.333027362823486,1.6705982685089111,539.8214721679688,0
1957.166000000001,-0.013162869028747082,-0.0019348420901224017,-0.00010241630661766976,0.0,0.0,0.0,0.0,4.102437014807947e-05,-0.00044446196989156306,0.0015987559454515576,0.9989196062088013,0.0,0.0,0.0,-2.991406202316284,4.3235626220703125,1.6584641933441162,541.450439453125,0
1967.0470000000005,-0.013179454021155834,-0.001962278038263321,-0.0001166740694316104,0.0,0.0,0.0,0.0,0.0021643508225679398,0.001620851457118988,0.0016468832036480308,1.0016378164291382,0.0,0.0,0.0,-2.988534688949585,4.320096492767334,1.6593554019927979,540.9307250976562,0
1976.9270000000015,-0.013241836801171303,-0.001971298595890403,-0.00012396024249028414,0.0,0.0,0.0,0.0,0.005260528530925512,-0.0011091656051576138,0.002343494910746813,1.0001797676086426,0.0,0.0,0.0,-2.999485731124878,4.315773963928223,1.6494858264923096,542.912841796875,0
1986.8140000000003,-0.013261031359434128,-0.0019985779654234648,-0.0001362592593068257,0.0,0.0,0.0,0.0,0.0009460981236770749,-0.006877950858324766,-0.0006464277976192534,1.0009453296661377,0.0,0.0,0.0,-2.995800495147705,4.305288314819336,1.6515973806381226,542.2457885742188,0
1996.6990000000005,-0.013245784677565098,-0.002035207347944379,-0.00014921155525371432,0.0,0.0,0.0,0.0,0.00010298043343937024,-0.0005581012810580432,-0.003372357226908207,1.0001986026763916,0.0,0.0,0.0,-3.004800796508789,4.297056674957275,1.6641850471496582,543.8748779296875,0
2006.5960000000014,-0.013263968750834465,-0.002066140528768301,-0.000160345429321751,0.0,0.0,0.0,0.0,-0.0008160467841662467,-0.002702540485188365,-0.0016536449547857046,0.9999527931213379,0.0,0.0,0.0,-3.0028488636016846,4.292107582092285,1.6634516716003418,543.5215454101562,0
2016.4660000000003,-0.013255639001727104,-0.0021053384989500046,-0.00017574623052496463,0.0,0.0,0.0,0.0,0.000720237847417593,0.0012961906613782048,-0.002562211360782385,0.9998154640197754,0.0,0.0,0.0,-3.0084543228149414,4.286625862121582,1.6784008741378784,544.5361938476562,0
2026.3560000000016,-0.013274255208671093,-0.0021387115120887756,-0.00018684657698031515,0.0,0.0,0.0,0.0,0.0017005306435748935,-0.0009633435402065516,-0.00012974835408385843,0.9994634389877319,0.0,0.0,0.0,-3.0047214031219482,4.27742338180542,1.6755719184875488,543.8604736328125,0
2036.2380000000012,-0.01327134296298027,-0.002170850057154894,-0.00019093860464636236,0.0,0.0,0.0,0.0,-0.0005856293719261885,-0.0029972302727401257,-8.532418723916635e-05,0.9996692538261414,0.0,0.0,0.0,-3.00178599357605,4.269344329833984,1.6810609102249146,543.3292236328125,0
2046.121000000001,-0.013243798166513443,-0.002060052240267396,-0.0001638878893572837,0.0,0.0,0.0,0.0,-0.0018876453395932913,-0.003805308835580945,-0.0010979579528793693,0.9979839324951172,0.0,0.0,0.0,-3.0101006031036377,4.3168487548828125,1.6946507692337036,544.834228515625,0
2056.005000000001,-0.01324001420289278,-0.002101161750033498,-0.0001688327465672046,0.0,0.0,0.0,0.0,0.00028758731787092984,-0.004425366409122944,-0.0004108439025003463,0.9998559355735779,0.0,0.0,0.0,-3.015185832977295,4.312630653381348,1.7129884958267212,545.7546997070312,0
2065.8900000000012,-0.013254823163151741,-0.002130854409188032,-0.00017707838560454547,0.0,0.0,0.0,0.0,-0.005593590438365936,-0.0030820276588201523,-0.0027895818930119276,1.000248908996582,0.0,0.0,0.0,-3.0117337703704834,4.303869724273682,1.724446415901184,545.1298217773438,0
2075.7740000000013,-0.013265050947666168,-0.0021495651453733444,-0.0001676796964602545,0.0,0.0,0.0,0.0,0.00029722024919465184,-0.0008432451286353171,0.0019003628985956311,0.9995218515396118,0.0,0.0,0.0,-3.0098166465759277,4.311931610107422,1.730165719985962,544.7827758789062,0
2085.6590000000015,-0.01319838035851717,-0.0019672801718115807,-0.00016379331646021456,0.0,0.0,0.0,0.0,-0.0019201828399673104,0.00023316418810281903,0.0011323057115077972,0.9987025260925293,0.0,0.0,0.0,-3.0175678730010986,4.361049652099609,1.7357187271118164,546.185791015625,0
2095.5440000000017,-0.013150184415280819,-0.0020062883850187063,-0.00014571586507372558,0.0,0.0,0.0,0.0,0.0002057085803244263,0.0043482352048158646,-0.0042401566170156,0.9998675584793091,0.0,0.0,0.0,-3.021564483642578,4.350415229797363,1.7485859394073486,546.9091796875,0
2105.434000000001,-0.013165372423827648,-0.0020273278933018446,-0.00014915343490429223,0.0,0.0,0.0,0.0,-0.0002509512414690107,0.0002309003029949963,0.001048039412125945,1.002305030822754,0.0,0.0,0.0,-3.019221067428589,4.34694242477417,1.7392979860305786,546.4850463867188,0
2115.3150000000005,-0.013159981928765774,-0.0020457138307392597,-0.00013793056132271886,0.0,0.0,0.0,0.0,0.0012098468141630292,0.00165468396153301,-0.0007233905489556491,0.9995059370994568,0.0,0.0,0.0,-3.0162148475646973,4.341489791870117,1.7313960790634155,545.9408569335938,0
2125.1980000000003,-0.013175424188375473,-0.0020705333445221186,-0.0001385539653711021,0.0,0.0,0.0,0.0,-0.0009199657943099737,0.0013024917570874095,0.002823621965944767,1.0000874996185303,0.0,0.0,0.0,-3.0137650966644287,4.334380626678467,1.7180336713790894,545.4974975585938,0
2135.0870000000014,-0.013167359866201878,-0.0020935528445988894,-0.00012989886454306543,0.0,0.0,0.0,0.0,0.0008775120950303972,0.005018549505621195,-0.0004649045586120337,1.0000091791152954,0.0,0.0,0.0,-3.0103697776794434,4.328166961669922,1.7142490148544312,544.8829345703125,0
