timestamp,stateEstimate.x,stateEstimate.y,stateEstimate.z,controller.cmd_thrust,controller.cmd_roll,controller.cmd_pitch,controller.cmd_yaw,controller.r_roll,controller.r_pitch,controller.r_yaw,controller.accelz,controller.actuatorThrust,controller.roll,controller.pitch,controller.yaw,controller.rollRate,controller.pitchRate,controller.yawRate,controller.ctr_yaw
0.0,-0.00020485141430981457,-0.00012432473886292428,0.0001566541031934321,0.0,0.0,0.0,0.0,-0.0016330403741449118,-0.002574744401499629,0.0007460074848495424,0.9992557764053345,0.0,0.0,0.0,0.15964098274707794,-3.536008834838867,4.7155680656433105,-28.895334243774414,0
9.911000000000058,-0.00014099504915066063,-0.00017064395069610327,0.00016873165441211313,0.0,0.0,0.0,0.0,-0.002775668865069747,0.0021292679011821747,-0.0024031929206103086,1.0008370876312256,0.0,0.0,0.0,0.1607530266046524,-3.5314080715179443,4.714358806610107,-29.09661865234375,0
19.817000000000917,-0.00018967709911521524,-0.00014613417442888021,0.0001713625533739105,0.0,0.0,0.0,0.0,-0.0011704572243615985,0.0014164346503093839,-0.00198290660046041,0.9997965097427368,0.0,0.0,0.0,0.15952061116695404,-3.5267269611358643,4.703843116760254,-28.873546600341797,0
29.718000000000757,-0.0001475634053349495,-0.00016260126722045243,0.00018569838721305132,0.0,0.0,0.0,0.0,0.001641059760004282,0.004460874013602734,0.0005458195228129625,0.9991769790649414,0.0,0.0,0.0,0.16913360357284546,-3.533121109008789,4.700098514556885,-30.613515853881836,0
39.634000000000015,-0.00015939082368277013,-9.09746959223412e-05,0.00016694515943527222,0.0,0.0,0.0,0.0,0.0014331472339108586,0.001332784304395318,0.0007535098120570183,0.999483585357666,0.0,0.0,0.0,0.15978200733661652,-3.5225906372070312,4.689798355102539,-28.920862197875977,0
49.54200000000128,-0.00014280810137279332,-7.451434794347733e-05,0.0001874470617622137,0.0,0.0,0.0,0.0,-0.0029556083027273417,-0.0006955799763090909,0.001650840393267572,1.00104558467865,0.0,0.0,0.0,0.1595594435930252,-3.521512985229492,4.679483413696289,-28.880577087402344,0
59.45100000000093,-0.000151508254930377,-9.835268429014832e-06,0.00016016484005376697,0.0,0.0,0.0,0.0,-0.0014420431107282639,-0.002826741896569729,3.934911001124419e-05,1.0030503273010254,0.0,0.0,0.0,0.15988288819789886,-3.5075840950012207,4.6802496910095215,-28.939119338989258,0
69.3650000000016,-0.00010678559192456305,-2.9626720788655803e-05,0.0001695046667009592,0.0,0.0,0.0,0.0,0.0002720899065025151,-0.0022036954760551453,0.00016808141663204879,1.0005958080291748,0.0,0.0,0.0,0.16064335405826569,-3.5022315979003906,4.68766975402832,-29.076765060424805,0
79.27700000000004,-0.00012778808013536036,1.6413414414273575e-05,0.00015318440273404121,0.0,0.0,0.0,0.0,0.0005154613172635436,0.0015984568744897842,0.0010417929152026772,0.9976581931114197,0.0,0.0,0.0,0.16119612753391266,-3.5001220703125,4.6886982917785645,-29.17681884765625,0
89.1840000000011,-9.889173816191033e-05,-1.0545536497374997e-05,0.00014765202649869025,0.0,0.0,0.0,0.0,-0.0008929616888053715,-0.00027947218040935695,-0.0017185509204864502,0.9992361664772034,0.0,0.0,0.0,0.17753686010837555,-3.5103580951690674,4.688045978546143,-32.134525299072266,0
99.09900000000016,-0.00010026698873843998,6.218191992957145e-05,0.00011789317795773968,0.0,0.0,0.0,0.0,0.00018598920723889023,0.000945878739003092,0.0013974035391584039,0.9994322061538696,0.0,0.0,0.0,0.16806192696094513,-3.4920501708984375,4.692282199859619,-30.41954231262207,0
109.00800000000163,-8.173708920367062e-05,2.7734928153222427e-05,9.519244486000389e-05,0.0,0.0,0.0,0.0,0.001042372197844088,0.0017005524132400751,0.0004360056482255459,0.9997268915176392,0.0,0.0,0.0,0.18420995771884918,-3.504223346710205,4.686715602874756,-33.342369079589844,0
118.91800000000148,-0.00010709096386563033,7.50770268496126e-05,7.714842649875209e-05,0.0,0.0,0.0,0.0,-0.0005558718694373965,2.4981314709293656e-05,0.000903113919775933,0.9994013905525208,0.0,0.0,0.0,0.1739436835050583,-3.499999761581421,4.675689697265625,-31.484153747558594,0
128.83500000000095,-0.00013094264431856573,5.369239079300314e-05,4.150590757490136e-05,0.0,0.0,0.0,0.0,-0.0012864090967923403,0.0024723343085497618,-0.0014577393885701895,0.9980495572090149,0.0,0.0,0.0,0.1741284281015396,-3.4942986965179443,4.673262119293213,-31.517593383789062,0
138.74099999999999,-0.00017629764624871314,4.9236929044127464e-05,8.991777576738968e-06,0.0,0.0,0.0,0.0,-0.0005116980173625052,-0.001071761129423976,-0.003772747702896595,0.9995718002319336,0.0,0.0,0.0,0.16354504227638245,-3.486555814743042,4.670711517333984,-29.60197639465332,0
148.66000000000167,-0.00011314550647512078,4.77986759506166e-06,3.5700304579222575e-07,0.0,0.0,0.0,0.0,0.001867301994934678,0.000658228644169867,0.002483934396877885,1.000581979751587,0.0,0.0,0.0,0.17848502099514008,-3.494255542755127,4.686474800109863,-32.30614471435547,0
158.56800000000112,-0.00015046971384435892,1.5783320122864097e-05,-3.209446367691271e-05,0.0,0.0,0.0,0.0,0.0002869735180865973,0.00026044691912829876,0.00015669777349103242,1.0016087293624878,0.0,0.0,0.0,0.16842027008533478,-3.494201421737671,4.677746295928955,-30.484403610229492,0
168.48400000000038,-0.00010399120219517499,1.6164070984814316e-05,-1.6105026588775218e-05,0.0,0.0,0.0,0.0,-0.0005290036788210273,-0.0019247926538810134,0.002520607551559806,1.0001078844070435,0.0,0.0,0.0,0.16790004074573517,-3.4921810626983643,4.675995826721191,-30.390243530273438,0
178.38700000000063,-0.00017766034579835832,7.578368240501732e-06,-5.436335413833149e-06,0.0,0.0,0.0,0.0,0.0006266388227231801,-0.0034845415502786636,0.00016173890617210418,0.9992178678512573,0.0,0.0,0.0,0.1604345738887787,-3.4915947914123535,4.664622783660889,-29.038978576660156,0
188.29700000000048,-9.907934872899204e-05,-5.012944166082889e-05,-1.1031369467673358e-05,0.0,0.0,0.0,0.0,-0.0018270584987476468,0.0019873841665685177,-0.0009712496539577842,1.0011721849441528,0.0,0.0,0.0,0.17422674596309662,-3.508906602859497,4.687180995941162,-31.53538703918457,0
198.21399999999994,-0.00016527574916835874,-3.7927544326521456e-05,6.158468750072643e-06,0.0,0.0,0.0,0.0,0.000344624713761732,-0.003079074900597334,0.0010885713854804635,1.001431941986084,0.0,0.0,0.0,0.16364897787570953,-3.505356788635254,4.674884796142578,-29.620790481567383,0
208.1190000000006,-0.00012634247832465917,-3.62549108103849e-05,2.7798087103292346e-05,0.0,0.0,0.0,0.0,0.0008522321586497128,-0.004706980660557747,-0.0013247262686491013,0.998613715171814,0.0,0.0,0.0,0.16442598402500153,-3.4993066787719727,4.676215171813965,-29.761428833007812,0
218.03400000000147,-0.00020850260625593364,-3.430147626204416e-05,6.613634468521923e-05,0.0,0.0,0.0,0.0,0.00020123673311900347,0.0007981014787219465,0.0006000737776048481,0.997743546962738,0.0,0.0,0.0,0.1641419678926468,-3.4935431480407715,4.676698684692383,-29.71002197265625,0
227.95000000000073,-0.00013463814684655517,-9.080205200007185e-05,6.690554437227547e-05,0.0,0.0,0.0,0.0,-0.0002100539713865146,-0.0016573662869632244,-0.0029574024956673384,0.9987836480140686,0.0,0.0,0.0,0.17510206997394562,-3.508680820465088,4.688776016235352,-31.693824768066406,0
237.85200000000077,-0.00017449278675485402,-4.7773297410458326e-05,6.466168269980699e-05,0.0,0.0,0.0,0.0,-0.0013303908053785563,-0.003964627627283335,0.002325828652828932,1.0022556781768799,0.0,0.0,0.0,0.16594581305980682,-3.501622200012207,4.692134857177734,-30.03652000427246,0
247.76200000000063,-0.00012214152957312763,-8.778709161560982e-05,6.143409700598568e-05,0.0,0.0,0.0,0.0,-0.0005697465967386961,0.00019374997646082193,0.003738018684089184,1.002048373222351,0.0,0.0,0.0,0.17711104452610016,-3.5143349170684814,4.711653232574463,-32.05745315551758,0
257.6780000000017,-0.00015127690858207643,-3.39323996740859e-05,4.997438009013422e-05,0.0,0.0,0.0,0.0,-0.002295775106176734,-0.001462527783587575,0.0022021757904440165,0.9989117383956909,0.0,0.0,0.0,0.17213526368141174,-3.505692720413208,4.710695743560791,-31.156824111938477,0
267.58899999999994,-0.00010462923091836274,-7.420343172270805e-05,4.482256917981431e-05,0.0,0.0,0.0,0.0,0.0019067985704168677,0.002101447433233261,0.0018047676421701908,0.9979566335678101,0.0,0.0,0.0,0.18574035167694092,-3.511712074279785,4.726330757141113,-33.61936950683594,0
277.4990000000016,-0.00020548433531075716,-0.0001056370310834609,7.214935612864792e-05,0.0,0.0,0.0,0.0,0.0012105002533644438,0.00021196389570832253,0.0009292299509979784,0.9976992607116699,0.0,0.0,0.0,0.17979148030281067,-3.525350332260132,4.70939826965332,-32.5426139831543,0
287.40900000000147,-0.00013958480849396437,-0.0001430764386896044,8.417487697442994e-05,0.0,0.0,0.0,0.0,-0.00018204415391664952,0.0032753469422459602,0.0023328703828155994,0.9975142478942871,0.0,0.0,0.0,0.19087406992912292,-3.5373659133911133,4.7215986251831055,-34.548583984375,0
297.32100000000173,-0.00016852420230861753,-8.472372428514063e-05,7.366106729023159e-05,0.0,0.0,0.0,0.0,0.0040960367769002914,0.0017715555150061846,0.0008423467515967786,1.001731514930725,0.0,0.0,0.0,0.18136020004749298,-3.523892641067505,4.709620952606201,-32.82655715942383,0
307.2340000000004,-0.0001219401165144518,-0.00011268975504208356,7.61066548875533e-05,0.0,0.0,0.0,0.0,-0.0005177512066438794,0.002826959826052189,0.002935686381533742,1.0008058547973633,0.0,0.0,0.0,0.19323977828025818,-3.539750099182129,4.717942714691162,-34.976783752441406,0
317.14100000000144,-0.00016437965678051114,-6.603119982173666e-05,7.641258707735687e-05,0.0,0.0,0.0,0.0,0.0007511504809372127,-0.0021327484864741564,0.00041290195076726377,1.0011268854141235,0.0,0.0,0.0,0.1825074553489685,-3.524726152420044,4.710337162017822,-33.03421401977539,0
327.0450000000001,-0.00016937224427238107,-6.231206498341635e-05,7.538291538367048e-05,0.0,0.0,0.0,0.0,-0.0018204657826572657,0.0012593786232173443,-0.00016951489669736475,1.0010417699813843,0.0,0.0,0.0,0.19405369460582733,-3.5314109325408936,4.712050914764404,-35.12410354614258,0
336.96600000000035,-0.00020034462795592844,-1.1165080650243908e-05,5.521788989426568e-05,0.0,0.0,0.0,0.0,0.0010699167614802718,0.0052979374304413795,-0.005545099265873432,1.0005077123641968,0.0,0.0,0.0,0.18552976846694946,-3.5234785079956055,4.711068153381348,-33.58125305175781,0
346.866,-0.00018610885308589786,-2.9367860406637192e-05,5.377089837566018e-05,0.0,0.0,0.0,0.0,-0.0030083507299423218,-0.0008800163050182164,-0.00025282404385507107,1.0028427839279175,0.0,0.0,0.0,0.18370965123176575,-3.5182504653930664,4.693459987640381,-33.251808166503906,0
356.7900000000009,-0.00023643970780540258,5.240666723693721e-06,5.2309791499283165e-05,0.0,0.0,0.0,0.0,0.0013069652486592531,0.006372560281306505,0.0004517696797847748,1.0016287565231323,0.0,0.0,0.0,0.17319846153259277,-3.505868911743164,4.687740802764893,-31.349266052246094,0
366.6990000000005,-0.00020315058645792305,-1.423800495103933e-05,6.332169868983328e-05,0.0,0.0,0.0,0.0,0.0012530125677585602,-0.0017701516626402736,0.0014285672223195434,0.9993776082992554,0.0,0.0,0.0,0.17343193292617798,-3.5055923461914062,4.672698497772217,-31.39152717590332,0
376.6130000000012,-0.00025714607909321785,4.458739567780867e-06,6.168297841213644e-05,0.0,0.0,0.0,0.0,-0.0012108910595998168,-0.00155549100600183,-0.00024313238100148737,0.9992209076881409,0.0,0.0,0.0,0.1653689593076706,-3.503253698348999,4.6742844581604,-29.932111740112305,0
386.5100000000002,-0.00015701768279541284,-3.9418246160494164e-05,9.015484829433262e-05,0.0,0.0,0.0,0.0,-0.0030804055277258158,0.0009966304060071707,-0.002392600057646632,0.9996368288993835,0.0,0.0,0.0,0.18276217579841614,-3.518415689468384,4.699334621429443,-33.080318450927734,0
396.4370000000017,-0.00024682239745743573,-6.381565617630258e-05,0.0001178042366518639,0.0,0.0,0.0,0.0,-0.0012817851966246963,0.0008866615244187415,-0.002288484713062644,0.9989831447601318,0.0,0.0,0.0,0.18190696835517883,-3.5112884044647217,4.697070598602295,-32.92552185058594,0
406.33200000000033,-0.00017535596271045506,-9.376656089443713e-05,0.0001454163866583258,0.0,0.0,0.0,0.0,-0.0032860778737813234,0.005707886535674334,0.002748263068497181,1.0000418424606323,0.0,0.0,0.0,0.19662164151668549,-3.5194578170776367,4.707029819488525,-35.588905334472656,0
416.25800000000163,-0.0002547380281612277,-8.154658280545846e-05,0.00018617862951941788,0.0,0.0,0.0,0.0,0.0009862070437520742,0.0015169583493843675,0.0038601874839514494,1.0014081001281738,0.0,0.0,0.0,0.1881665289402008,-3.511018753051758,4.683749675750732,-34.05851745605469,0
426.15300000000025,-0.0001473581069149077,-0.00015713172615505755,0.00020923017291352153,0.0,0.0,0.0,0.0,1.3215186299930792e-05,0.002421977696940303,-0.005685318261384964,1.0004733800888062,0.0,0.0,0.0,0.20040689408779144,-3.52836012840271,4.692622184753418,-36.2740478515625,0
436.0799999999999,-0.00019968932610936463,-0.00015113098197616637,0.00021680314966943115,0.0,0.0,0.0,0.0,-0.001216648961417377,-0.0004885487724095583,0.0029551119077950716,0.9997079372406006,0.0,0.0,0.0,0.19091002643108368,-3.5251057147979736,4.680922031402588,-34.555091857910156,0
445.97600000000057,-0.00015447023906745017,-0.0001514716277597472,0.00026415084721520543,0.0,0.0,0.0,0.0,0.00223363796249032,-0.0014121350832283497,-0.0014255335554480553,0.9974653124809265,0.0,0.0,0.0,0.19099371135234833,-3.5169951915740967,4.669175624847412,-34.57024002075195,0
455.89500000000044,-0.0001375618448946625,-7.031175482552499e-05,0.00022069444821681827,0.0,0.0,0.0,0.0,0.0008043718407861888,0.0005821897648274899,-0.0027391971088945866,0.998659610748291,0.0,0.0,0.0,0.18253673613071442,-3.502612590789795,4.673783302307129,-33.039512634277344,0
465.7980000000007,-6.742162076989189e-05,-0.00012365861039143056,0.00023654020333196968,0.0,0.0,0.0,0.0,-0.002888182643800974,0.00039708090480417013,-0.0024176721926778555,0.9999902248382568,0.0,0.0,0.0,0.18231523036956787,-3.49757981300354,4.665034294128418,-32.999420166015625,0
475.71300000000156,-0.00013899162877351046,-0.00014432620082516223,0.00025478770839981735,0.0,0.0,0.0,0.0,0.001211925526149571,0.004142723977565765,0.0032840336207300425,1.0007965564727783,0.0,0.0,0.0,0.1819104105234146,-3.490351438522339,4.6601881980896,-32.926143646240234,0
485.6220000000012,-8.508611063007265e-05,-0.000189165017218329,0.00026972126215696335,0.0,0.0,0.0,0.0,0.0016306590987369418,0.002256934531033039,-0.0018277530325576663,1.0003128051757812,0.0,0.0,0.0,0.1832309067249298,-3.4937150478363037,4.647715091705322,-33.165157318115234,0
495.53200000000106,-0.00013487364049069583,-0.00018610018014442176,0.00027351692551746964,0.0,0.0,0.0,0.0,-0.00024271670554298908,-0.0022520539350807667,0.0017061061225831509,0.9995282292366028,0.0,0.0,0.0,0.17659986019134521,-3.4962260723114014,4.644840717315674,-31.96492576599121,0
505.4420000000009,-8.805155084701255e-05,-0.00020592397777363658,0.0003027947386726737,0.0,0.0,0.0,0.0,-0.0013204683782532811,-0.0026527666486799717,0.0005894651403650641,0.9988049864768982,0.0,0.0,0.0,0.17737562954425812,-3.4921863079071045,4.644779205322266,-32.105342864990234,0
515.3610000000008,-6.791359191993251e-05,-0.00010898604523390532,0.0002621850580908358,0.0,0.0,0.0,0.0,5.793412492494099e-05,-0.002087682718411088,-0.002861799905076623,1.0005693435668945,0.0,0.0,0.0,0.17138032615184784,-3.4675419330596924,4.6557745933532715,-31.02018165588379,0
525.2650000000012,-7.872820424381644e-05,-0.00014648721844423562,0.00024063780438154936,0.0,0.0,0.0,0.0,-0.00030549251823686063,-5.167371637071483e-05,-0.0005631495150737464,1.0002816915512085,0.0,0.0,0.0,0.17100337147712708,-3.4611706733703613,4.658339977264404,-30.951948165893555,0
535.1770000000015,-8.542181603843346e-05,-7.742833986412734e-05,0.00021522457245737314,0.0,0.0,0.0,0.0,-0.003045527497306466,-0.0061795711517333984,-0.0005196681595407426,0.9995629191398621,0.0,0.0,0.0,0.17124024033546448,-3.4562149047851562,4.651711463928223,-30.99482536315918,0
545.0870000000014,-0.00010305202886229381,-7.451891724485904e-05,0.0002161824522772804,0.0,0.0,0.0,0.0,-0.0007982405950315297,-0.0014373504091054201,-0.0004702633887063712,0.9998770952224731,0.0,0.0,0.0,0.17114144563674927,-3.444056272506714,4.660998821258545,-30.976940155029297,0
555.0020000000004,-0.00012656362378038466,-3.3707583497744054e-05,0.00018928245117422193,0.0,0.0,0.0,0.0,0.0019015887519344687,0.007056542672216892,-0.0005180429434403777,0.9987577795982361,0.0,0.0,0.0,0.16337114572525024,-3.433570146560669,4.668738842010498,-29.57050132751465,0
564.9100000000017,-6.393836520146579e-05,-6.974635471124202e-05,0.00013098104682285339,0.0,0.0,0.0,0.0,-0.002040969906374812,-0.00018504499166738242,-0.00018209875270258635,0.9986602067947388,0.0,0.0,0.0,0.15277519822120667,-3.425837278366089,4.6599345207214355,-27.65261459350586,0
574.8280000000013,-0.00010611327161313966,-3.755786019610241e-05,0.000124287253129296,0.0,0.0,0.0,0.0,0.0026495293714106083,0.0006522972253151238,-0.0015287207206711173,1.0000475645065308,0.0,0.0,0.0,0.15145350992679596,-3.4165456295013428,4.654128074645996,-27.413389205932617,0
584.7330000000002,-0.0001306099002249539,-1.647204226173926e-05,7.167756120907143e-05,0.0,0.0,0.0,0.0,-0.0006690290756523609,-0.00580679951235652,0.004428265616297722,0.9999457597732544,0.0,0.0,0.0,0.15088027715682983,-3.415931224822998,4.6486592292785645,-27.309627532958984,0
594.6450000000004,-0.00017551683413330466,1.8892404114012606e-05,6.109788228059188e-05,0.0,0.0,0.0,0.0,0.003512126626446843,-0.00027291651349514723,-0.003003476420417428,1.000327706336975,0.0,0.0,0.0,0.15121564269065857,-3.409339427947998,4.646969318389893,-27.370332717895508,0
604.5620000000017,-0.00020203733583912253,-2.4518903956050053e-05,3.946416836697608e-05,0.0,0.0,0.0,0.0,0.0005469878669828176,-0.000984851038083434,-0.0008709268877282739,0.9998686909675598,0.0,0.0,0.0,0.16793221235275269,-3.419297456741333,4.648505210876465,-30.39606475830078,0
614.4680000000008,-0.0002502112474758178,1.1086311133112758e-05,2.8206835850141943e-05,0.0,0.0,0.0,0.0,-0.0014652644749730825,-0.0021755737252533436,0.0012575447326526046,1.00136137008667,0.0,0.0,0.0,0.1680581122636795,-3.4159586429595947,4.646299839019775,-30.418851852416992,0
624.3830000000016,-0.00015125999925658107,-1.3881009181204718e-05,4.502184674493037e-05,0.0,0.0,0.0,0.0,0.0021408756729215384,0.0026899450458586216,0.004311634227633476,0.9996047616004944,0.0,0.0,0.0,0.16807666420936584,-3.412224769592285,4.645035266876221,-30.422210693359375,0
634.2940000000017,-0.00019651393813546747,2.2874806745676324e-05,3.699134322232567e-05,0.0,0.0,0.0,0.0,-0.002007242990657687,0.0014839156065136194,0.00013593060430139303,0.9996395707130432,0.0,0.0,0.0,0.16901113092899323,-3.409083604812622,4.6404290199279785,-30.591350555419922,0
644.2120000000014,-0.00020061717077624053,-8.377583435503766e-05,8.091421477729455e-05,0.0,0.0,0.0,0.0,0.0003173614095430821,0.0035838696639984846,-0.002586907707154751,1.0004417896270752,0.0,0.0,0.0,0.17973339557647705,-3.433133125305176,4.646061420440674,-32.532100677490234,0
654.1130000000012,-0.0002468606398906559,-5.043735291110352e-05,7.677291432628408e-05,0.0,0.0,0.0,0.0,-0.001216029399074614,0.0004827982629649341,0.003666587406769395,1.0014976263046265,0.0,0.0,0.0,0.17909111082553864,-3.428481101989746,4.63300895690918,-32.41584396362305,0
664.023000000001,-0.00014217566058505327,-5.204599801800214e-05,0.0001035943569149822,0.0,0.0,0.0,0.0,-0.0014876470668241382,0.00014330893463920802,-0.0012957894941791892,1.000329852104187,0.0,0.0,0.0,0.17160767316818237,-3.4170961380004883,4.62857723236084,-31.061330795288086,0
673.9460000000017,-0.00018640569760464132,-1.5583093045279384e-05,0.00010349249350838363,0.0,0.0,0.0,0.0,0.000189979953574948,0.0001073743260349147,0.004239307250827551,0.9993516206741333,0.0,0.0,0.0,0.1708156317472458,-3.4142658710479736,4.613309383392334,-30.917970657348633,0
683.8490000000002,-0.00020977370149921626,-4.72107922178111e-06,0.0001096584674087353,0.0,0.0,0.0,0.0,-0.00014816368639003485,-0.000676875002682209,-0.002817448927089572,0.9999882578849792,0.0,0.0,0.0,0.1635463833808899,-3.413633108139038,4.605836391448975,-29.602218627929688,0
693.7620000000006,-0.00025877851294353604,3.280544842709787e-05,0.00011008769070031121,0.0,0.0,0.0,0.0,0.00020329240942373872,-0.002712625078856945,0.00048012816114351153,0.9980470538139343,0.0,0.0,0.0,0.16251039505004883,-3.400639295578003,4.604152202606201,-29.414703369140625,0
703.6680000000015,-0.00014946390001568943,-2.37877120525809e-05,0.00014121974527370185,0.0,0.0,0.0,0.0,-0.000445749843493104,0.0014060382964089513,0.00267237750813365,1.00029456615448,0.0,0.0,0.0,0.1544172614812851,-3.3966031074523926,4.603142738342285,-27.949831008911133,0
713.585000000001,-0.00019920937484130263,1.4063820344745182e-05,0.00014216963609214872,0.0,0.0,0.0,0.0,0.0010226566810160875,-0.0024108956567943096,-0.0017487198347225785,1.0004690885543823,0.0,0.0,0.0,0.1546296775341034,-3.3887698650360107,4.5944318771362305,-27.988279342651367,0
723.491,-0.00014282333722803742,-3.198499689460732e-05,0.0001584304409334436,0.0,0.0,0.0,0.0,-0.003636466572061181,0.00552256777882576,-0.0005789739079773426,0.9995296597480774,0.0,0.0,0.0,0.1447198987007141,-3.387213945388794,4.593949794769287,-26.194589614868164,0
733.4070000000011,-0.00019408317166380584,6.210979336174205e-06,0.00016074611630756408,0.0,0.0,0.0,0.0,-0.002958570374175906,-0.0006392787327058613,-0.0030090806540101767,0.9985305070877075,0.0,0.0,0.0,0.14415386319160461,-3.3804986476898193,4.579842567443848,-26.09213638305664,0
743.3150000000005,-0.00015531395911239088,-0.00012516519927885383,0.0001699323474895209,0.0,0.0,0.0,0.0,0.0006642942316830158,-0.0013458121102303267,0.0029571920167654753,0.9971932768821716,0.0,0.0,0.0,0.14505726099014282,-3.370718002319336,4.58172082901001,-26.255653381347656,0
753.2380000000012,-0.00020696455612778664,-9.06140630831942e-05,0.00017016674974001944,0.0,0.0,0.0,0.0,0.0006878267740830779,-0.002411356894299388,-0.0001278434065170586,0.9983777403831482,0.0,0.0,0.0,0.1450975388288498,-3.367316484451294,4.578027248382568,-26.262943267822266,0
763.1350000000002,-5.6007014791248366e-05,-9.517714352114126e-05,0.0001711404329398647,0.0,0.0,0.0,0.0,-0.0003645910182967782,-0.0021752994507551193,-0.00026668389909900725,1.0007355213165283,0.0,0.0,0.0,0.144729346036911,-3.364189624786377,4.580055236816406,-26.196300506591797,0
773.0600000000013,-0.00010479023330844939,-5.7536966778570786e-05,0.00016809949011076242,0.0,0.0,0.0,0.0,-0.002169098239392042,0.00580954784527421,0.0018253365997225046,0.9998675584793091,0.0,0.0,0.0,0.14462418854236603,-3.3557024002075195,4.588873386383057,-26.177265167236328,0
782.9610000000011,-5.341931318980642e-05,-2.0493342162808403e-05,0.00012034668907290325,0.0,0.0,0.0,0.0,-0.00030910992063581944,0.002447182312607765,0.00258654891513288,0.9978647232055664,0.0,0.0,0.0,0.13685986399650574,-3.3341946601867676,4.590946674346924,-24.771909713745117,0
792.8770000000004,-0.00010341306187910959,2.1919469872955233e-05,0.000113229027192574,0.0,0.0,0.0,0.0,0.0014488801825791597,0.002163897966966033,-0.0017471307655796409,0.9985618591308594,0.0,0.0,0.0,0.1367667019367218,-3.3257410526275635,4.579519748687744,-24.75504493713379,0
802.7790000000005,-0.00010087667760672048,-4.8719706683186814e-05,9.28365407162346e-05,0.0,0.0,0.0,0.0,0.0050457194447517395,-0.004078435245901346,0.0028773630037903786,0.9984927177429199,0.0,0.0,0.0,0.13701608777046204,-3.3256771564483643,4.574632167816162,-24.80018424987793,0
812.6940000000013,-0.00015541263564955443,-7.851933332858607e-06,8.164702012436464e-05,0.0,0.0,0.0,0.0,-0.003046080470085144,-0.005452697165310383,-0.0005532931536436081,0.9999447464942932,0.0,0.0,0.0,0.13707122206687927,-3.3357226848602295,4.5799880027771,-24.810163497924805,0
822.5990000000002,-0.00015648320550099015,-6.91134700900875e-05,9.938320727087557e-05,0.0,0.0,0.0,0.0,0.0004868420073762536,0.0035207963082939386,0.00011628343781922013,0.9989900588989258,0.0,0.0,0.0,0.15170438587665558,-3.344881057739258,4.596519470214844,-27.45879554748535,0
832.5200000000004,-0.0002145289327017963,-2.8466329240472987e-05,8.904904825612903e-05,0.0,0.0,0.0,0.0,-0.003014580812305212,-0.0018408526666462421,0.0017845856491476297,0.9997696876525879,0.0,0.0,0.0,0.1506963074207306,-3.338811159133911,4.592451572418213,-27.27633285522461,0
842.4220000000005,-0.00024191713600885123,-8.374593744520098e-05,9.087168291443959e-05,0.0,0.0,0.0,0.0,0.0015619471669197083,0.0004667328903451562,-0.0019204124109819531,0.998597264289856,0.0,0.0,0.0,0.15041063725948334,-3.3327555656433105,4.590338230133057,-27.224624633789062,0
852.3490000000002,-0.00030357003561221063,-4.158168667345308e-05,8.004537812666968e-05,0.0,0.0,0.0,0.0,-0.0010047921678051353,0.00042511741048656404,-0.004918532911688089,0.9997283816337585,0.0,0.0,0.0,0.1495583951473236,-3.3319950103759766,4.586060523986816,-27.07036781311035,0
862.2510000000002,-0.00021163478959351778,4.831031219509896e-06,0.00011052688932977617,0.0,0.0,0.0,0.0,0.0008264114148914814,0.0018534044502303004,0.00396268256008625,1.0000826120376587,0.0,0.0,0.0,0.13948088884353638,-3.3193283081054688,4.584347248077393,-25.24631690979004,0
872.1620000000003,-0.0002708237443584949,5.030496686231345e-05,0.00010135091724805534,0.0,0.0,0.0,0.0,-0.000738279486540705,-7.49714599805884e-05,-0.0021185956429690123,1.0008037090301514,0.0,0.0,0.0,0.14020554721355438,-3.3183960914611816,4.5782575607299805,-25.37748146057129,0
882.0660000000007,-0.0002149709325749427,5.2509523811750114e-05,9.281876555178314e-05,0.0,0.0,0.0,0.0,-0.000925251399166882,0.006715663243085146,-0.0014025525888428092,1.0004818439483643,0.0,0.0,0.0,0.13305148482322693,-3.3127756118774414,4.580822944641113,-24.08258628845215,0
891.9890000000014,-0.0002734496374614537,0.00010132943862117827,8.43031593831256e-05,0.0,0.0,0.0,0.0,0.0036345385015010834,0.003838895820081234,-0.001214509131386876,0.9997152090072632,0.0,0.0,0.0,0.13306039571762085,-3.3112590312957764,4.562495708465576,-24.084197998046875,0
901.8910000000014,-0.0001773965050233528,4.4185690057929605e-05,5.715398947359063e-05,0.0,0.0,0.0,0.0,3.685300180222839e-05,0.003192709991708398,-0.0013379917945712805,0.9979656934738159,0.0,0.0,0.0,0.13324986398220062,-3.311298131942749,4.551154613494873,-24.118492126464844,0
911.8100000000013,-0.00023569868062622845,9.1972055088263e-05,4.59790499007795e-05,0.0,0.0,0.0,0.0,-0.002332919742912054,-0.00299448031000793,0.0013931425055488944,1.0016587972640991,0.0,0.0,0.0,0.1324087530374527,-3.310662269592285,4.534469127655029,-23.966249465942383,0
921.7110000000011,-8.20362038211897e-05,3.002908852067776e-05,5.649971353705041e-05,0.0,0.0,0.0,0.0,0.0014367346884682775,-0.0009327760199084878,0.0012694788165390491,1.0018823146820068,0.0,0.0,0.0,0.12176116555929184,-3.2988786697387695,4.535425186157227,-22.039012908935547,0
931.6330000000016,-0.00013609914458356798,7.810018723830581e-05,4.760354568134062e-05,0.0,0.0,0.0,0.0,-0.00020928152662236243,0.0011542786378413439,-0.0007006338564679027,0.9988400340080261,0.0,0.0,0.0,0.12180322408676147,-3.2986738681793213,4.530043125152588,-22.046627044677734,0
941.5320000000011,-9.9241740826983e-05,-5.1845283451257274e-05,4.9536280130269006e-05,0.0,0.0,0.0,0.0,-0.003676000516861677,-0.0012127018999308348,-0.002461255993694067,1.0000535249710083,0.0,0.0,0.0,0.12440647184848785,-3.3306846618652344,4.539575099945068,-22.517818450927734,0
951.4560000000001,-0.00015187938697636127,-5.729805707233027e-06,4.184725185041316e-05,0.0,0.0,0.0,0.0,-0.0011523240245878696,0.007623037789016962,-0.0023155580274760723,0.9991520643234253,0.0,0.0,0.0,0.1250223070383072,-3.327042818069458,4.536840915679932,-22.62928581237793,0
961.362000000001,-0.00011583896412048489,-2.4136706997524016e-05,3.858470154227689e-05,0.0,0.0,0.0,0.0,-0.0015273259487003088,-0.0028618695214390755,-0.0013224234571680427,0.9997018575668335,0.0,0.0,0.0,0.1352539211511612,-3.3342864513397217,4.548897743225098,-24.481229782104492,0
971.2810000000009,-0.00016827780927997082,2.4989747544168495e-05,3.0695438908878714e-05,0.0,0.0,0.0,0.0,1.7589860362932086e-05,0.0033633909188210964,0.003952566999942064,1.0002578496932983,0.0,0.0,0.0,0.13476769626140594,-3.324429988861084,4.548292636871338,-24.393220901489258,0
981.1850000000013,-0.0001519549114163965,-8.526150850229897e-06,3.733191260835156e-05,0.0,0.0,0.0,0.0,0.004358622711151838,0.0011503674322739244,-0.0053015281446278095,1.0003008842468262,0.0,0.0,0.0,0.1321435570716858,-3.334564685821533,4.54571008682251,-23.918249130249023,0
991.0990000000002,-3.5946843127021566e-05,-5.268992026685737e-05,5.9601956309052184e-05,0.0,0.0,0.0,0.0,-0.0011610118672251701,0.0007346499478444457,-0.0004034122684970498,1.0009124279022217,0.0,0.0,0.0,0.13316145539283752,-3.3360633850097656,4.544928550720215,-24.102489471435547,0
1001.0,-0.0001441897766198963,-5.485250585479662e-05,0.00010151742753805593,0.0,0.0,0.0,0.0,0.0016811586683616042,0.00021740456577390432,0.00013924464292358607,0.9964554309844971,0.0,0.0,0.0,0.1324235200881958,-3.334498405456543,4.5399274826049805,-23.96891975402832,0
1010.9240000000009,-9.469542419537902e-05,-6.0991980717517436e-05,0.00012339570093899965,0.0,0.0,0.0,0.0,0.0020902168471366167,0.0009049869840964675,0.0009518337901681662,0.998073935508728,0.0,0.0,0.0,0.13233789801597595,-3.3386521339416504,4.52617883682251,-23.95342254638672,0
1020.8220000000001,-0.0001781854371074587,-4.2180021409876645e-05,0.00014281437324825674,0.0,0.0,0.0,0.0,-0.004702947102487087,0.006861838977783918,0.0028795634862035513,0.9998018741607666,0.0,0.0,0.0,0.1254797726869583,-3.3392348289489746,4.532751083374023,-22.71208953857422,0
1030.7490000000016,-0.00016620235692244023,-2.603929715405684e-05,0.00015769801393616945,0.0,0.0,0.0,0.0,-0.001334837987087667,0.0007884655497036874,0.00024331564782187343,1.0002772808074951,0.0,0.0,0.0,0.12574031949043274,-3.3364033699035645,4.519391059875488,-22.759248733520508,0
1040.6450000000004,-0.0002126699691871181,1.0415033102617599e-05,0.00013202866830397397,0.0,0.0,0.0,0.0,-0.0014982036082074046,0.002566669834777713,-0.002413433277979493,0.9985281825065613,0.0,0.0,0.0,0.11772700399160385,-3.3320653438568115,4.513277053833008,-21.308820724487305,0
1050.576000000001,-0.00016231766494456679,1.2271495506865904e-05,0.00015377483214251697,0.0,0.0,0.0,0.0,0.0005200044834055007,-0.0010938444174826145,-0.0011209681397303939,0.9975160360336304,0.0,0.0,0.0,0.11824749410152435,-3.3324172496795654,4.501553535461426,-21.403030395507812,0
1060.4680000000008,-0.00022344847093336284,3.3574709959793836e-05,0.00013517655315808952,0.0,0.0,0.0,0.0,-0.00041551736649125814,0.0018307555001229048,0.0007936739712022245,0.9995977878570557,0.0,0.0,0.0,0.1107407957315445,-3.3438286781311035,4.493915557861328,-20.04430389404297,0
1070.3950000000004,-0.00015514851838815957,2.914432843681425e-05,0.00016140042862389237,0.0,0.0,0.0,0.0,-0.0017445740522816777,0.0015149813843891025,0.001216172007843852,1.0007216930389404,0.0,0.0,0.0,0.1108490452170372,-3.33821964263916,4.4843854904174805,-20.06389617919922,0
1080.2880000000005,-0.00020067305013071746,6.798624963266775e-05,0.00012785136641468853,0.0,0.0,0.0,0.0,0.0023862768430262804,0.0016330713406205177,0.0012395817320793867,1.0013002157211304,0.0,0.0,0.0,0.11039797216653824,-3.331007719039917,4.473167896270752,-19.98225212097168,0
1090.2130000000016,-0.00010716037650126964,9.932984539773315e-06,0.00013084750389680266,0.0,0.0,0.0,0.0,-0.001305388635955751,0.0019481685012578964,-0.00028938622563146055,0.9989199042320251,0.0,0.0,0.0,0.12448209524154663,-3.354994297027588,4.489964485168457,-22.53150749206543,0
1100.1110000000008,-0.0001839031174313277,-1.255318693438312e-05,0.00010347954230383039,0.0,0.0,0.0,0.0,0.0010415395954623818,0.00014150816423352808,0.0028705529402941465,1.0002812147140503,0.0,0.0,0.0,0.12490535527467728,-3.3519105911254883,4.480584144592285,-22.608118057250977,0
1110.0340000000015,-0.00011145463940920308,-4.0646980778547004e-05,0.00011923089914489537,0.0,0.0,0.0,0.0,-0.0007597269141115248,-0.0011523413704708219,0.00013931762077845633,0.9999344348907471,0.0,0.0,0.0,0.13755187392234802,-3.3662564754486084,4.501887798309326,-24.89716148376465,0
1119.9350000000013,-0.00016861766926012933,-8.220104973588604e-06,0.00010414701682748273,0.0,0.0,0.0,0.0,0.0029198741540312767,0.0015133228152990341,-0.0007875909795984626,0.9987987875938416,0.0,0.0,0.0,0.1374301165342331,-3.3667984008789062,4.498537540435791,-24.875125885009766,0
1129.8550000000014,-0.00013533640594687313,-3.617309994297102e-05,0.00010521079821046442,0.0,0.0,0.0,0.0,-0.00018458803242538124,0.0010493280133232474,0.0029403651133179665,0.9981371164321899,0.0,0.0,0.0,0.13732707500457764,-3.3647611141204834,4.489202976226807,-24.856475830078125,0
1139.755000000001,-0.0002344191016163677,-5.431724639493041e-05,0.00011120566341560334,0.0,0.0,0.0,0.0,5.57794692213065e-06,0.004337634891271591,0.003287446917966008,0.9982142448425293,0.0,0.0,0.0,0.1366971731185913,-3.3614444732666016,4.476552486419678,-24.742460250854492,0
1149.6690000000017,-0.00014155158714856952,-0.00010009911784436554,0.00013024428335484117,0.0,0.0,0.0,0.0,-0.0011713929707184434,-0.003959401976317167,-0.0005660656024701893,0.9995153546333313,0.0,0.0,0.0,0.15101085603237152,-3.37851881980896,4.493743896484375,-27.33326530456543,0
1159.585000000001,-0.00023025226255413145,-7.070269930409268e-05,0.00014984191511757672,0.0,0.0,0.0,0.0,0.001224336912855506,0.0009628165862523019,-0.0005421133246272802,0.998012125492096,0.0,0.0,0.0,0.14313626289367676,-3.3712639808654785,4.49589204788208,-25.907949447631836,0
1169.491,-0.00012247179984115064,-0.0001437200407963246,0.00016329762001987547,0.0,0.0,0.0,0.0,-0.0002981774159707129,-0.0017576562240719795,0.0006055354024283588,0.9995105862617493,0.0,0.0,0.0,0.14271770417690277,-3.3707656860351562,4.492578506469727,-25.832189559936523,0
1179.3990000000013,-0.00020885601406916976,-0.00010912484140135348,0.00018135187565349042,0.0,0.0,0.0,0.0,-6.50280635454692e-05,0.0004212029743939638,0.0005446029244922101,0.997382402420044,0.0,0.0,0.0,0.1422802209854126,-3.357492446899414,4.492969036102295,-25.753002166748047,0
1189.3310000000001,-0.00011840275692520663,-0.00017133784422185272,0.00019055207667406648,0.0,0.0,0.0,0.0,-1.5822128261788748e-05,0.0019047444220632315,0.00046007425407879055,0.996187686920166,0.0,0.0,0.0,0.1532081812620163,-3.3697025775909424,4.5183305740356445,-27.730985641479492,0
1199.2220000000016,-0.0001913846645038575,-0.0001474126911489293,0.00018404140428174287,0.0,0.0,0.0,0.0,0.0006168808322399855,0.007183082401752472,0.0002891182084567845,0.998886227607727,0.0,0.0,0.0,0.14816133677959442,-3.3662192821502686,4.50777530670166,-26.817495346069336,0
1209.1360000000004,-0.00010056615428766236,-0.00022326393809635192,0.00017991659115068614,0.0,0.0,0.0,0.0,-0.0005202572792768478,-0.0029085210990160704,-0.004176934249699116,1.001369833946228,0.0,0.0,0.0,0.14739274978637695,-3.361743927001953,4.494101524353027,-26.678380966186523,0
1219.0520000000015,-0.00013209391909185797,-0.00013450410915538669,0.00015156531298998743,0.0,0.0,0.0,0.0,0.0013260956620797515,0.00941407959908247,0.000510402605868876,1.001381278038025,0.0,0.0,0.0,0.13961906731128693,-3.3469958305358887,4.495542526245117,-25.271329879760742,0
1228.9590000000007,-8.941256237449124e-05,-0.00015717952919658273,0.00015470704238396138,0.0,0.0,0.0,0.0,-0.0005166118498891592,-0.0009819110855460167,0.0011402303352952003,1.00044846534729,0.0,0.0,0.0,0.1490994542837143,-3.3603689670562744,4.502123832702637,-26.987295150756836,0
1238.8670000000002,-0.00015473082021344453,-0.00010427358938613907,0.00015499470464419574,0.0,0.0,0.0,0.0,0.0009205176611430943,0.005642745178192854,-0.002999032149091363,1.0000114440917969,0.0,0.0,0.0,0.143311008810997,-3.355015277862549,4.49611759185791,-25.939577102661133,0
1248.7800000000007,-9.052287350641564e-05,-0.00014839463983662426,0.00015912081289570779,0.0,0.0,0.0,0.0,0.00028548986301757395,-0.0010266315657645464,-0.004002586007118225,0.9997428059577942,0.0,0.0,0.0,0.15400318801403046,-3.3685455322265625,4.500690460205078,-27.874881744384766,0
1258.6980000000003,-0.00011364887905074283,-6.137606396805495e-05,0.0001234836963703856,0.0,0.0,0.0,0.0,0.003070525825023651,0.0009985229698941112,-0.001362424693070352,0.998505711555481,0.0,0.0,0.0,0.14683260023593903,-3.355996608734131,4.494653701782227,-26.57699203491211,0
1268.6050000000014,-6.51789378025569e-05,-0.00010036776075139642,0.00011776727478718385,0.0,0.0,0.0,0.0,0.0007253095391206443,-0.0016680138651281595,-0.0032192394137382507,0.9980502128601074,0.0,0.0,0.0,0.16045045852661133,-3.374472141265869,4.504405975341797,-29.041851043701172,0
1278.5160000000014,-0.00011402393283788115,-3.597310933400877e-05,9.778417006600648e-05,0.0,0.0,0.0,0.0,-0.002776083303615451,0.002472905209288001,-0.000599636638071388,0.9983899593353271,0.0,0.0,0.0,0.16023898124694824,-3.3767521381378174,4.502590179443359,-29.003572463989258,0
1288.4220000000005,-6.091273462516256e-05,-7.914609159342945e-05,8.851561142364517e-05,0.0,0.0,0.0,0.0,0.00021370640024542809,-0.0014218988362699747,-1.4418392311199568e-05,0.9999481439590454,0.0,0.0,0.0,0.1594720184803009,-3.363283395767212,4.493279933929443,-28.86475372314453,0
1298.3360000000011,-0.00017745193326845765,-0.0001056216424331069,0.00010500320058781654,0.0,0.0,0.0,0.0,0.0009315027855336666,-0.0005080646951682866,-0.0017693274421617389,0.9993494749069214,0.0,0.0,0.0,0.15950247645378113,-3.359959840774536,4.4851250648498535,-28.870264053344727,0
1308.2470000000012,-0.00011470956087578088,-9.811288327910006e-05,0.0001405180082656443,0.0,0.0,0.0,0.0,-0.0019018740858882666,-0.00287141976878047,0.0027328324504196644,0.999682605266571,0.0,0.0,0.0,0.1584618091583252,-3.3637266159057617,4.477447986602783,-28.681903839111328,0
1318.1580000000013,-0.00020619646238628775,-0.00010604712588246912,0.000136055241455324,0.0,0.0,0.0,0.0,-0.001037592301145196,0.001601328724063933,0.0020397191401571035,1.0012969970703125,0.0,0.0,0.0,0.15245653688907623,-3.367257833480835,4.473023891448975,-27.59493637084961,0
1328.0680000000011,-0.00013555726036429405,-0.0001134724952862598,0.00016636242798995227,0.0,0.0,0.0,0.0,0.0018135252175852656,0.00039737828774377704,-0.0016919678309932351,1.0002483129501343,0.0,0.0,0.0,0.15243007242679596,-3.365351915359497,4.466853618621826,-27.59014892578125,0
1337.9800000000014,-0.0001587527513038367,-2.5863761038635857e-05,0.00012906418123748153,0.0,0.0,0.0,0.0,-0.0006006262265145779,-0.0038153233472257853,0.0026776688173413277,0.9986515045166016,0.0,0.0,0.0,0.15181325376033783,-3.3630683422088623,4.458571434020996,-27.478500366210938,0
1347.8940000000002,-0.00014735289732925594,-4.7666973841842264e-05,0.0001142182300100103,0.0,0.0,0.0,0.0,0.002401571488007903,0.0006571592530235648,0.0006196246831677854,0.9991379976272583,0.0,0.0,0.0,0.15188710391521454,-3.362201690673828,4.458669185638428,-27.49186897277832,0
1357.800000000001,-0.00018461952276993543,1.3946269973530434e-05,7.664022268727422e-05,0.0,0.0,0.0,0.0,0.0012615954037755728,0.0002298601611983031,0.0005967093165963888,1.000412106513977,0.0,0.0,0.0,0.15219517052173615,-3.367689847946167,4.447724342346191,-27.547630310058594,0
1367.7120000000014,-0.0001281656586797908,-1.618455098650884e-05,7.567209104308859e-05,0.0,0.0,0.0,0.0,-0.0010198837844654918,0.0010171692119911313,5.83569890295621e-05,0.9988281726837158,0.0,0.0,0.0,0.15085949003696442,-3.3656511306762695,4.426313877105713,-27.30586814880371,0
1377.6240000000016,-0.00018932361854240298,2.9122109481249936e-05,6.460244912886992e-05,0.0,0.0,0.0,0.0,-0.0038638708647340536,-0.0024710074067115784,-0.0021816943772137165,0.9972881078720093,0.0,0.0,0.0,0.15176479518413544,-3.3604824542999268,4.431581020355225,-27.469730377197266,0
1387.5330000000013,-0.0002191101375501603,8.262004848802462e-05,-6.173990641400451e-06,0.0,0.0,0.0,0.0,-0.0013516695471480489,-0.00031508185202255845,0.0008392902673222125,1.0002752542495728,0.0,0.0,0.0,0.14403678476810455,-3.346184253692627,4.439340591430664,-26.07094383239746,0
1397.4560000000001,-0.0002862076507881284,0.0001328585931332782,-2.4675004169694148e-05,0.0,0.0,0.0,0.0,0.0011812724405899644,-0.0027885192539542913,-0.0004972325987182558,1.0000799894332886,0.0,0.0,0.0,0.14379452168941498,-3.3361966609954834,4.438923358917236,-26.0270938873291,0
1407.3560000000016,-0.0003041716117877513,0.0002051685587503016,-0.00010803206532727927,0.0,0.0,0.0,0.0,0.0004961767117492855,-0.0012524620397016406,-0.0028479238972067833,1.0003231763839722,0.0,0.0,0.0,0.1350145936012268,-3.328402519226074,4.461846351623535,-24.437910079956055,0
1417.268,-0.00037206715205684304,0.00026399255148135126,-0.00013119268987793475,0.0,0.0,0.0,0.0,0.00016305860481224954,-0.003800913691520691,0.000676338211633265,0.9976984262466431,0.0,0.0,0.0,0.1344771683216095,-3.326383590698242,4.463681697845459,-24.340635299682617,0
1427.1780000000017,-0.00043603137601166964,0.0002646100474521518,-0.00020085746655240655,0.0,0.0,0.0,0.0,0.00021302429377101362,0.003346025478094816,0.002043352462351322,0.9988160133361816,0.0,0.0,0.0,0.12533867359161377,-3.3451905250549316,4.467422008514404,-22.686548233032227,0
1437.0910000000003,-0.0005069534527137876,0.0003243999963160604,-0.00022975692991167307,0.0,0.0,0.0,0.0,0.001601886353455484,-0.0009563046041876078,0.0003988026292063296,0.9989489316940308,0.0,0.0,0.0,0.1257108896970749,-3.3440041542053223,4.469210147857666,-22.753921508789062,0
1447.005000000001,-0.0005679985042661428,0.00034505859366618097,-0.0003000484430231154,0.0,0.0,0.0,0.0,-0.0007943258970044553,-0.003063111798837781,-0.0015573896234855056,0.9989089965820312,0.0,0.0,0.0,0.12502910196781158,-3.3438804149627686,4.458810806274414,-22.630517959594727,0
1456.9130000000005,-0.000641161110252142,0.0004051085561513901,-0.00033417544909752905,0.0,0.0,0.0,0.0,0.003660189686343074,0.00042105047032237053,0.0009583900100551546,0.9996700286865234,0.0,0.0,0.0,0.12506885826587677,-3.34297776222229,4.464981555938721,-22.637712478637695,0
1466.8220000000001,-0.0007415908621624112,0.00040959002217277884,-0.00038309532101266086,0.0,0.0,0.0,0.0,0.0008277708548121154,0.0006220937357284129,0.0017215536208823323,1.0010751485824585,0.0,0.0,0.0,0.11953646689653397,-3.368096113204956,4.451303958892822,-21.636337280273438,0
1476.737000000001,-0.0008231427054852247,0.00046508354716934264,-0.00041904213139787316,0.0,0.0,0.0,0.0,-0.003077668370679021,-0.0015122992917895317,0.0027907441835850477,1.0011802911758423,0.0,0.0,0.0,0.11946611106395721,-3.364309072494507,4.448363780975342,-21.62360382080078,0
1486.6440000000002,-0.0009111912804655731,0.00047692819498479366,-0.0004824030911549926,0.0,0.0,0.0,0.0,-0.0012673387536779046,-4.9062076868722215e-05,-0.0011632997775450349,1.0005472898483276,0.0,0.0,0.0,0.12046296894550323,-3.356443405151367,4.451537609100342,-21.80403709411621,0
1496.5560000000005,-0.0009993318235501647,0.0005324373487383127,-0.0005184275796636939,0.0,0.0,0.0,0.0,0.0005061142146587372,-0.004514647647738457,0.0004184034769423306,0.9991781115531921,0.0,0.0,0.0,0.11972063034772873,-3.3550472259521484,4.440904140472412,-21.669673919677734,0
1506.4660000000003,-0.001073958002962172,0.0005529590998776257,-0.000591857940889895,0.0,0.0,0.0,0.0,0.00023172926739789546,-0.001086487784050405,-0.003279863391071558,0.9993913173675537,0.0,0.0,0.0,0.11881686747074127,-3.354440689086914,4.435259819030762,-21.506092071533203,0
1516.384,-0.001166490837931633,0.0006104541243985295,-0.0006308007286861539,0.0,0.0,0.0,0.0,-0.0014108808245509863,-0.0003989461692981422,-0.001007274491712451,0.9984610676765442,0.0,0.0,0.0,0.11832918226718903,-3.3473870754241943,4.435622692108154,-21.417816162109375,0
1526.2930000000015,-0.0012302674585953355,0.0006376839010044932,-0.0007118805078789592,0.0,0.0,0.0,0.0,0.001680999412201345,0.0025693364441394806,0.003169495379552245,0.9998835325241089,0.0,0.0,0.0,0.11712366342544556,-3.3461859226226807,4.423557281494141,-21.199615478515625,0
1536.2040000000015,-0.0013254607329145074,0.0006957153673283756,-0.0007559333462268114,0.0,0.0,0.0,0.0,-0.0018759029917418957,0.00021985298371873796,-0.0012272788444533944,1.0008195638656616,0.0,0.0,0.0,0.11731401830911636,-3.346327304840088,4.414942264556885,-21.23406982421875,0
1546.116,-0.0013365148333832622,0.0007187461596913636,-0.0008748134132474661,0.0,0.0,0.0,0.0,-0.001142766559496522,0.00022756645921617746,-0.0011832754826173186,0.999547004699707,0.0,0.0,0.0,0.11770474910736084,-3.341590642929077,4.410728931427002,-21.304792404174805,0
1556.0220000000008,-0.0014302247436717153,0.0007810356328263879,-0.00092475232668221,0.0,0.0,0.0,0.0,-0.003879254451021552,0.007361270487308502,-7.385016942862421e-05,0.9986534118652344,0.0,0.0,0.0,0.11705563962459564,-3.3316211700439453,4.412634372711182,-21.18730354309082,0
1565.934000000001,-0.001450092764571309,0.0008024979615584016,-0.0010445639491081238,0.0,0.0,0.0,0.0,0.0014487199950963259,0.001230814610607922,0.005231310613453388,0.999074399471283,0.0,0.0,0.0,0.11609038710594177,-3.322770595550537,4.393614768981934,-21.012590408325195,0
1575.8540000000012,-0.0015450138598680496,0.000867089198436588,-0.0011023030383512378,0.0,0.0,0.0,0.0,0.000779793132096529,-0.0036181758623570204,0.003365443553775549,1.000466227531433,0.0,0.0,0.0,0.11625152081251144,-3.324342727661133,4.380598545074463,-21.041757583618164,0
1585.7620000000006,-0.001644051168113947,0.0009340944816358387,-0.0011607486521825194,0.0,0.0,0.0,0.0,-0.002660617232322693,0.00172159424982965,-0.003138211788609624,1.0025089979171753,0.0,0.0,0.0,0.11652755737304688,-3.321881055831909,4.381297588348389,-21.091718673706055,0
1595.6690000000017,-0.0017470292514190078,0.0010023496579378843,-0.0012183582875877619,0.0,0.0,0.0,0.0,-0.002926661865785718,0.000821699621155858,-0.0009458769345656037,0.9997051358222961,0.0,0.0,0.0,0.1163548156619072,-3.3164913654327393,4.379188537597656,-21.060453414916992,0
1605.5810000000001,-0.0018537157448008657,0.0010711548384279013,-0.0012743390398100019,0.0,0.0,0.0,0.0,-0.0038708248175680637,0.0003499151498544961,0.0015281137311831117,0.9965627789497375,0.0,0.0,0.0,0.11538171023130417,-3.3089864253997803,4.3823418617248535,-20.884319305419922,0
1615.4920000000002,-0.001964372117072344,0.0011413163738325238,-0.0013307901099324226,0.0,0.0,0.0,0.0,0.003304959274828434,-0.0027728844434022903,-0.0005481765256263316,0.997336208820343,0.0,0.0,0.0,0.11421844363212585,-3.298454761505127,4.365100383758545,-20.673765182495117,0
1625.402,-0.00027229663101024926,0.0001059576534316875,0.00014864502009004354,0.0,0.0,0.0,0.0,0.0003589505504351109,0.006802340969443321,0.004865436814725399,0.998884379863739,0.0,0.0,0.0,0.13881753385066986,-3.496145725250244,4.661807537078857,-25.126249313354492,0
1635.3200000000015,-0.0003134915605187416,0.0001342931791441515,0.00013640127144753933,0.0,0.0,0.0,0.0,-0.0013074770104140043,-0.0007387217483483255,0.0038838463369756937,1.0003106594085693,0.0,0.0,0.0,0.1385546177625656,-3.4966771602630615,4.642712116241455,-25.07866096496582,0
1645.2300000000014,-0.000174871674971655,8.25172828626819e-05,0.0001628862228244543,0.0,0.0,0.0,0.0,-0.0024101778399199247,0.0021382865961641073,-0.0015644504455849528,0.9996499419212341,0.0,0.0,0.0,0.15975867211818695,-3.5175368785858154,4.653482437133789,-28.916637420654297,0
1655.1370000000006,-0.000209883350180462,0.00010650216427166015,0.0001513720490038395,0.0,0.0,0.0,0.0,0.0008115520467981696,0.0038836845196783543,0.0012118901358917356,0.9982509613037109,0.0,0.0,0.0,0.1593320220708847,-3.511610746383667,4.644820690155029,-28.839412689208984,0
1665.049000000001,-0.0001278025738429278,7.288160122698173e-05,8.605983748566359e-05,0.0,0.0,0.0,0.0,0.0014859355287626386,-3.904681761923712e-06,0.0003797124372795224,0.9984611868858337,0.0,0.0,0.0,0.1596004068851471,-3.502495765686035,4.631351947784424,-28.887990951538086,0
1674.9560000000001,-0.00016453418356832117,9.601299825590104e-05,6.920383020769805e-05,0.0,0.0,0.0,0.0,0.0051634060218930244,0.0034765976015478373,-0.0010450960835441947,0.9997968673706055,0.0,0.0,0.0,0.15860770642757416,-3.4997570514678955,4.62550687789917,-28.708309173583984,0
1684.8770000000004,-6.853689410490915e-05,9.609293920220807e-05,3.390602796571329e-05,0.0,0.0,0.0,0.0,-0.0023742138873785734,-0.0008203695761039853,0.000630440132226795,1.002331256866455,0.0,0.0,0.0,0.15887723863124847,-3.504405975341797,4.618956089019775,-28.757097244262695,0
1694.7830000000013,-0.00010616188228596002,0.00011936241935472935,1.5592675481457263e-05,0.0,0.0,0.0,0.0,-0.0009846154134720564,0.002867696573957801,0.0002661284524947405,1.000508427619934,0.0,0.0,0.0,0.15826527774333954,-3.492737054824829,4.614593982696533,-28.646331787109375,0
1704.6890000000003,-2.4990204110508785e-05,9.185848466586322e-05,-6.435822433559224e-05,0.0,0.0,0.0,0.0,0.0031927519012242556,0.006652006413787603,-6.493787077488378e-05,0.9994304776191711,0.0,0.0,0.0,0.15748944878578186,-3.487717390060425,4.60847806930542,-28.505903244018555,0
1714.6040000000012,-6.258200301090255e-05,0.0001111242818296887,-8.529994374839589e-05,0.0,0.0,0.0,0.0,-0.000687698251567781,0.001108556054532528,0.0004465841921046376,1.0007656812667847,0.0,0.0,0.0,0.15763473510742188,-3.4866890907287598,4.594659805297852,-28.532201766967773,0
1724.5120000000006,-2.0225212210789323e-05,9.970114479074255e-05,-0.00014262345212046057,0.0,0.0,0.0,0.0,0.0003065122291445732,0.0010191486217081547,-0.0006272721802815795,0.9985149502754211,0.0,0.0,0.0,0.15842148661613464,-3.4874532222747803,4.584225177764893,-28.674604415893555,0
1734.424000000001,-5.82641368964687e-05,0.00011911393085028976,-0.00016601949755568057,0.0,0.0,0.0,0.0,0.0028219709638506174,0.0036368882283568382,-0.0013960660435259342,0.9981813430786133,0.0,0.0,0.0,0.1571643352508545,-3.484323501586914,4.570940017700195,-28.44705581665039,0
1744.3380000000016,-9.676314948592335e-05,0.0001405486254952848,-0.00019025766232516617,0.0,0.0,0.0,0.0,-0.004537971690297127,-0.0008420459926128387,-0.0012502392055466771,0.9993756413459778,0.0,0.0,0.0,0.1570240706205368,-3.483811140060425,4.5633769035339355,-28.421669006347656,0
1754.246000000001,-0.00013619160745292902,0.00016342292656190693,-0.00021567453222814947,0.0,0.0,0.0,0.0,-0.0012603175127878785,0.0002634718839544803,-0.004007373470813036,1.000823736190796,0.0,0.0,0.0,0.15634037554264069,-3.479341983795166,4.558289051055908,-28.29791831970215,0
1764.157000000001,-0.000176812827703543,0.0001878555049188435,-0.000241241927142255,0.0,0.0,0.0,0.0,-0.0024307500571012497,0.001957457046955824,-0.00021602798369713128,1.0009104013442993,0.0,0.0,0.0,0.1554669737815857,-3.4742319583892822,4.55476713180542,-28.13983154296875,0
1774.0700000000015,-0.0002185092744184658,0.00021291451412253082,-0.0002658708253875375,0.0,0.0,0.0,0.0,-0.0016208246815949678,0.0004638588288798928,-0.0005918631213717163,1.0004137754440308,0.0,0.0,0.0,0.15515142679214478,-3.4677162170410156,4.546072006225586,-28.08271598815918,0
1783.9890000000014,-0.0002615429402794689,0.00023798781330697238,-0.00028964318335056305,0.0,0.0,0.0,0.0,0.0037254998460412025,-0.000344577943906188,-0.0005286616506054997,1.0003503561019897,0.0,0.0,0.0,0.15499208867549896,-3.4662232398986816,4.537496089935303,-28.053876876831055,0
1793.8920000000016,-0.0003067202342208475,0.00026263727340847254,-0.00031281699193641543,0.0,0.0,0.0,0.0,-0.001557253417558968,0.001069531892426312,-0.0006577076856046915,0.999986469745636,0.0,0.0,0.0,0.15540872514247894,-3.459747314453125,4.5341105461120605,-28.129289627075195,0
1803.8070000000007,-0.00035454786848276854,0.00028708658646792173,-0.0003354838117957115,0.0,0.0,0.0,0.0,0.000514184357598424,0.0005671132821589708,-0.00032491033198311925,0.9987150430679321,0.0,0.0,0.0,0.15483318269252777,-3.455188035964966,4.524283409118652,-28.025114059448242,0
1813.7170000000006,-0.00040515727596357465,0.0003135198203381151,-0.0003581800847314298,0.0,0.0,0.0,0.0,0.00017636653501540422,-0.005794759374111891,0.0027002906426787376,0.9985968470573425,0.0,0.0,0.0,0.15516632795333862,-3.4507458209991455,4.5218329429626465,-28.08541488647461,0
1823.6350000000002,-0.000509793811943382,0.00021101215679664165,-0.00029394126613624394,0.0,0.0,0.0,0.0,0.0035487913992255926,-0.003226015018299222,0.0001541142992209643,0.9989475011825562,0.0,0.0,0.0,0.14572830498218536,-3.4821228981018066,4.513038635253906,-26.37711524963379,0
1833.5370000000003,-0.0005699991015717387,0.00023631144722457975,-0.0003175226738676429,0.0,0.0,0.0,0.0,-3.1868534279055893e-05,0.0031770123168826103,-0.000845140079036355,1.0010253190994263,0.0,0.0,0.0,0.14567390084266663,-3.477128028869629,4.513648986816406,-26.367263793945312,0
1843.4540000000015,-0.0006269550649449229,0.00025691164773888886,-0.0003814108786173165,0.0,0.0,0.0,0.0,-0.0020691314712166786,-9.697965879240655e-07,8.185103069990873e-05,1.0007963180541992,0.0,0.0,0.0,0.13405853509902954,-3.4747166633605957,4.505643844604492,-24.264863967895508,0
1853.357,-0.0006918022409081459,0.0002841261448338628,-0.0004068748385179788,0.0,0.0,0.0,0.0,-0.0010380280436947942,0.0011763544753193855,0.002607085509225726,0.999986469745636,0.0,0.0,0.0,0.1339000016450882,-3.466487169265747,4.504815101623535,-24.23616600036621,0
1863.2800000000007,-0.0007458714535459876,0.00028119244961999357,-0.0005168381030671299,0.0,0.0,0.0,0.0,-0.002803611336275935,-0.0011395829496905208,-0.0027553110849112272,0.9994381070137024,0.0,0.0,0.0,0.13427281379699707,-3.4648313522338867,4.487750053405762,-24.303647994995117,0
1873.1860000000015,-0.0008151014917530119,0.0003094287239946425,-0.0005464856512844563,0.0,0.0,0.0,0.0,-0.00039680692134425044,-0.0039422959089279175,0.005450884345918894,0.9996227622032166,0.0,0.0,0.0,0.1333412528038025,-3.4616925716400146,4.486339569091797,-24.135032653808594,0
1883.1080000000002,-0.0008622006280347705,0.0003504381747916341,-0.0006151996785774827,0.0,0.0,0.0,0.0,0.001751918694935739,-0.0010692613432183862,0.003721448592841625,0.9990711808204651,0.0,0.0,0.0,0.13312773406505585,-3.460113763809204,4.482649326324463,-24.096385955810547,0
1893.0070000000014,-0.0009333847556263208,0.0003836099349427968,-0.0006474899128079414,0.0,0.0,0.0,0.0,0.0011882752878591418,0.003494667587801814,-0.00044296434498392045,0.9992826581001282,0.0,0.0,0.0,0.13370025157928467,-3.458386182785034,4.483888149261475,-24.200010299682617,0
1902.929,-0.0010144800180569291,0.000384499435313046,-0.0007146496209315956,0.0,0.0,0.0,0.0,-0.003743227571249008,-0.002078158315271139,0.0003850595676340163,1.0001304149627686,0.0,0.0,0.0,0.1256033182144165,-3.4772255420684814,4.466497421264648,-22.734451293945312,0
1912.8270000000011,-0.00109107606112957,0.00041643701842986047,-0.0007499984931200743,0.0,0.0,0.0,0.0,-0.001180195831693709,0.003375997766852379,-0.003638228867202997,1.0002518892288208,0.0,0.0,0.0,0.12490744888782501,-3.4671807289123535,4.466915130615234,-22.608495712280273,0
1922.7580000000016,-0.0011249150848016143,0.0004568489966914058,-0.0008176623377948999,0.0,0.0,0.0,0.0,-0.00142727792263031,-0.001309543615207076,-0.002244500210508704,0.9991169571876526,0.0,0.0,0.0,0.11127432435750961,-3.4512856006622314,4.4796977043151855,-20.1408748626709,0
1932.652,-0.0012021391885355115,0.0004936564364470541,-0.0008556843386031687,0.0,0.0,0.0,0.0,-0.0007029643165878952,0.0009415656677447259,-0.002121545374393463,0.9979396462440491,0.0,0.0,0.0,0.11110587418079376,-3.4485316276550293,4.474903583526611,-20.110383987426758,0
1942.5740000000005,-0.0012814018409699202,0.0005330294370651245,-0.0008947251481004059,0.0,0.0,0.0,0.0,0.0012023183517158031,-0.0018713531317189336,-0.0009760514367371798,0.9991956949234009,0.0,0.0,0.0,0.11101935803890228,-3.4408888816833496,4.462559223175049,-20.094724655151367,0
1952.4760000000006,-0.0013710112543776631,0.0005781222716905177,-0.0009389256010763347,0.0,0.0,0.0,0.0,-0.0005174477701075375,0.00856009777635336,-0.0004148975422140211,0.998932421207428,0.0,0.0,0.0,0.11120472848415375,-3.4410831928253174,4.471306800842285,-20.128276824951172,0
1962.3940000000002,-0.00145474832970649,0.0006201319047249854,-0.000979915726929903,0.0,0.0,0.0,0.0,0.002454976085573435,-0.0014536232920363545,0.0011505403090268373,1.000178575515747,0.0,0.0,0.0,0.11037765443325043,-3.4443135261535645,4.450145244598389,-19.978574752807617,0
1972.2970000000005,-0.0001236465759575367,-0.00015454042295459658,0.00011120310227852315,0.0,0.0,0.0,0.0,-0.00029787790845148265,0.0012181837810203433,-0.001821079640649259,0.9974822998046875,0.0,0.0,0.0,0.1134914681315422,-3.6024553775787354,4.756124496459961,-20.54218101501465,0
1982.219000000001,-0.00014304845535662025,-0.00014615117106586695,0.00010148480942007154,0.0,0.0,0.0,0.0,-0.000638856494333595,-0.0033622283954173326,-0.002173010027036071,0.998476505279541,0.0,0.0,0.0,0.11310829967260361,-3.599318027496338,4.747267723083496,-20.472827911376953,0
1992.1230000000014,-7.827756780898198e-05,-0.00019983260426670313,6.904954352648929e-05,0.0,0.0,0.0,0.0,0.0017721011536195874,0.00027920014690607786,-0.002659081481397152,1.0004198551177979,0.0,0.0,0.0,0.1318730264902115,-3.6122734546661377,4.752932548522949,-23.869279861450195,0
2002.0380000000005,-9.850591595750302e-05,-0.00019300615531392395,5.426689313026145e-05,0.0,0.0,0.0,0.0,-0.0011614718241617084,0.004669105634093285,-0.00038629313348792493,1.000626802444458,0.0,0.0,0.0,0.13186128437519073,-3.6115968227386475,4.749147891998291,-23.867155075073242,0
2011.9370000000017,-7.923597877379507e-05,-0.00016166019486263394,9.527021029498428e-05,0.0,0.0,0.0,0.0,0.0015766839496791363,-3.804091829806566e-05,-0.004685534164309502,0.9987211227416992,0.0,0.0,0.0,0.13260813057422638,-3.6024906635284424,4.738460063934326,-24.002334594726562,0
2021.8590000000004,-0.00010268893674947321,-0.00015217716281767935,8.460793469566852e-05,0.0,0.0,0.0,0.0,0.00011784130765590817,-0.000868291943334043,-0.0012449458008632064,0.9956586360931396,0.0,0.0,0.0,0.1328529417514801,-3.6014652252197266,4.727626323699951,-24.046646118164062,0
2031.7620000000006,-0.0001121326131396927,-0.00011122639989480376,0.00012649009295273572,0.0,0.0,0.0,0.0,-0.000602560059633106,0.000722798053175211,0.00021740750526078045,0.9989215731620789,0.0,0.0,0.0,0.14194265007972717,-3.5833423137664795,4.728121757507324,-25.69190216064453,0
2041.6860000000015,-0.00014063919661566615,-9.875642717815936e-05,0.00011540438572410494,0.0,0.0,0.0,0.0,0.0016893616411834955,0.0043136184103786945,-0.002528164768591523,1.0003983974456787,0.0,0.0,0.0,0.1418028473854065,-3.5740694999694824,4.718143939971924,-25.666597366333008,0
2051.5840000000007,-0.00011484488641144708,-8.179811266018078e-05,0.00011459730012575164,0.0,0.0,0.0,0.0,-0.001979670487344265,-0.0019506425596773624,-0.00034858667640946805,0.9979302287101746,0.0,0.0,0.0,0.16184747219085693,-3.571338415145874,4.7205352783203125,-29.294713973999023,0
2061.509,-0.0001483239175286144,-6.85790873831138e-05,0.00010343504982301965,0.0,0.0,0.0,0.0,-0.002540780697017908,0.008056080900132656,-0.0025625319685786963,0.9998623132705688,0.0,0.0,0.0,0.16147755086421967,-3.567476272583008,4.717127323150635,-29.22775650024414,0
2071.4130000000005,-8.118538971757516e-05,-7.96386375441216e-05,6.255916377995163e-05,0.0,0.0,0.0,0.0,-0.00016035023145377636,0.00011190935765625909,0.0025798596907407045,1.0008741617202759,0.0,0.0,0.0,0.17978154122829437,-3.5736899375915527,4.713271141052246,-32.54081726074219,0
2081.3330000000005,-0.00011704745702445507,-6.628236587857828e-05,4.828516102861613e-05,0.0,0.0,0.0,0.0,-0.0011737594613805413,0.004332211799919605,0.001136495848186314,1.0014159679412842,0.0,0.0,0.0,0.18003696203231812,-3.5725297927856445,4.697082042694092,-32.5870475769043,0
2091.2260000000006,-0.00010939635103568435,-6.772528286091983e-05,1.066100230673328e-05,0.0,0.0,0.0,0.0,0.0019028837559744716,-0.0017284711357206106,-0.0031328725162893534,0.9994315505027771,0.0,0.0,0.0,0.19804084300994873,-3.5773093700408936,4.69700288772583,-35.845787048339844,0
2101.152,-0.00014698128507006913,-5.51821431145072e-05,-3.3705364330671728e-06,0.0,0.0,0.0,0.0,-0.0020400655921548605,-0.00025516923051327467,-0.0006475422414951026,0.9963471293449402,0.0,0.0,0.0,0.19753023982048035,-3.5696215629577637,4.693777084350586,-35.75336837768555,0
