timestamp,stateEstimate.x,stateEstimate.y,stateEstimate.z,controller.cmd_thrust,controller.cmd_roll,controller.cmd_pitch,controller.cmd_yaw,controller.r_roll,controller.r_pitch,controller.r_yaw,controller.accelz,controller.actuatorThrust,controller.roll,controller.pitch,controller.yaw,controller.rollRate,controller.pitchRate,controller.yawRate,controller.ctr_yaw
0.0,-0.00012747332220897079,0.0001396613079123199,-4.7534515033476055e-05,0.0,0.0,0.0,0.0,0.000809939403552562,-0.00013758576824329793,0.0032528922893106937,0.9999986290931702,0.0,0.0,0.0,0.3796340823173523,-2.7783379554748535,5.305931091308594,-68.71452331542969,0
9.907999999999447,-0.00013027360546402633,0.00011303648352622986,-5.7316432503284886e-05,0.0,0.0,0.0,0.0,-0.001546221668832004,0.001133205252699554,-0.0003081161412410438,1.0001596212387085,0.0,0.0,0.0,0.3805615305900574,-2.7785849571228027,5.302926063537598,-68.88240051269531,0
19.816999999999098,-0.00019948552653659135,0.00015034002717584372,-5.858122676727362e-05,0.0,0.0,0.0,0.0,0.0003970387624576688,0.003632414387539029,-0.0011376005131751299,0.9992872476577759,0.0,0.0,0.0,0.37947553396224976,-2.7825520038604736,5.295546531677246,-68.68582916259766,0
29.727999999999156,-0.00016738075646571815,0.00012744570267386734,-7.376127905445173e-05,0.0,0.0,0.0,0.0,0.0015758242225274444,0.002115568146109581,0.0026982303243130445,1.0000972747802734,0.0,0.0,0.0,0.37924203276634216,-2.7791152000427246,5.2887067794799805,-68.6435546875,0
39.63999999999942,-0.00023899212828837335,0.00016182786202989519,-7.645253936061636e-05,0.0,0.0,0.0,0.0,0.0010605946881696582,-0.0009454842074774206,0.0015175798907876015,1.0007630586624146,0.0,0.0,0.0,0.3789055049419403,-2.778496742248535,5.2791242599487305,-68.5826416015625,0
49.54500000000007,-0.00016738056729082018,0.0001410518743796274,-0.00010154833580600098,0.0,0.0,0.0,0.0,-0.0022036954760551453,-0.0005522780120372772,0.00040336913662031293,0.9997968673706055,0.0,0.0,0.0,0.3798062205314636,-2.7818164825439453,5.27195930480957,-68.74568939208984,0
59.456999999998516,-0.00023915806377772242,0.00017440193914808333,-0.00010575570195214823,0.0,0.0,0.0,0.0,-0.0004090745060238987,-0.007278743665665388,0.0006210666033439338,1.000008463859558,0.0,0.0,0.0,0.37959614396095276,-2.77362322807312,5.283584117889404,-68.7076644897461,0
69.36699999999837,-0.00015405399608425796,0.00017116847448050976,-0.000131152497488074,0.0,0.0,0.0,0.0,0.0005215987330302596,0.0016207813750952482,-0.0028725096490234137,1.0016825199127197,0.0,0.0,0.0,0.3847586214542389,-2.7914862632751465,5.3253302574157715,-69.64208221435547,0
79.28199999999924,-0.00020259866141714156,0.00023017304192762822,-0.00020495128410402685,0.0,0.0,0.0,0.0,-0.0012590085389092565,0.0038977237418293953,-0.0017168682534247637,0.9994667768478394,0.0,0.0,0.0,0.38471081852912903,-2.7873973846435547,5.313964366912842,-69.63343048095703,0
89.1919999999991,-0.0001362249895464629,0.00017221544112544507,-0.00020158104598522186,0.0,0.0,0.0,0.0,0.0006585954688489437,-0.006638065911829472,0.0005207891808822751,1.0006611347198486,0.0,0.0,0.0,0.38355037569999695,-2.7828311920166016,5.302018642425537,-69.42337799072266,0
99.10199999999895,-0.00020797448814846575,0.00020771558047272265,-0.00021037962869741023,0.0,0.0,0.0,0.0,0.0011431585298851132,-0.004732909146696329,0.006056647747755051,0.9995000958442688,0.0,0.0,0.0,0.38421833515167236,-2.7739384174346924,5.308450222015381,-69.5442886352539,0
109.01800000000003,-5.8092082326766104e-05,0.00014327114331535995,-0.00023213836539071053,0.0,0.0,0.0,0.0,0.0031098544131964445,0.004338839091360569,-0.001762807834893465,0.9994027614593506,0.0,0.0,0.0,0.3929884135723114,-2.801168203353882,5.355230808258057,-71.1316909790039,0
118.92199999999866,-0.00012522756878752261,0.00017523489077575505,-0.00024255966127384454,0.0,0.0,0.0,0.0,0.00010257471876684576,-0.00010752384696388617,-0.0016127645503729582,1.000282645225525,0.0,0.0,0.0,0.3920423090457916,-2.806438446044922,5.340467929840088,-70.96044158935547,0
128.83499999999913,-0.00010566776472842321,0.0001882807118818164,-0.0002542759757488966,0.0,0.0,0.0,0.0,-0.0006592909339815378,-0.0030248870607465506,0.0009581939084455371,0.9984130263328552,0.0,0.0,0.0,0.39175117015838623,-2.806312322616577,5.335151672363281,-70.90774536132812,0
138.74399999999878,-0.00024015456438064575,0.0001376899454044178,-0.00019009348761755973,0.0,0.0,0.0,0.0,0.0013766047777608037,0.0004302626184653491,0.0005635905545204878,1.0005801916122437,0.0,0.0,0.0,0.38388365507125854,-2.819683074951172,5.310279369354248,-69.48370361328125,0
148.66599999999926,-0.00015185755910351872,6.433979433495551e-05,-0.00017233191465493292,0.0,0.0,0.0,0.0,-0.0028316108509898186,-0.0041884807869791985,-0.002494365908205509,1.0004520416259766,0.0,0.0,0.0,0.3831159472465515,-2.813880443572998,5.312577247619629,-69.3447494506836,0
158.5619999999999,-0.00021993531845510006,9.214218880515546e-05,-0.00017845236288849264,0.0,0.0,0.0,0.0,0.0017191936494782567,-0.004597556311637163,0.0006802270072512329,0.9987266659736633,0.0,0.0,0.0,0.38310009241104126,-2.812274932861328,5.314041614532471,-69.34187316894531,0
168.47299999999996,-0.0001362074981443584,6.968628440517932e-05,-0.0001721969892969355,0.0,0.0,0.0,0.0,-0.00020846942788921297,0.0030637511517852545,0.00020485713321249932,0.9993583559989929,0.0,0.0,0.0,0.3822099566459656,-2.798771619796753,5.319013595581055,-69.18075561523438,0
178.3829999999998,-0.00020204749307595193,9.662982483860105e-05,-0.00017782866780180484,0.0,0.0,0.0,0.0,0.000903598906006664,-5.373704698286019e-05,0.00010317991836927831,1.0001537799835205,0.0,0.0,0.0,0.38226282596588135,-2.7930567264556885,5.315133571624756,-69.1903305053711,0
188.29599999999846,-8.254907152149826e-05,8.363787492271513e-05,-0.00018997275037690997,0.0,0.0,0.0,0.0,-0.001785140368156135,-0.0005420212401077151,0.00027350356685929,1.0000298023223877,0.0,0.0,0.0,0.38086822628974915,-2.809380531311035,5.346368789672852,-68.93790435791016,0
198.20799999999872,-0.00014300367911346257,0.00011208991782041267,-0.0001964381372090429,0.0,0.0,0.0,0.0,0.0003160803171340376,-0.004516738001257181,-0.001634059241041541,0.9995975494384766,0.0,0.0,0.0,0.3812379539012909,-2.8057076930999756,5.339564323425293,-69.00482940673828,0
208.11999999999898,-7.463833026122302e-05,0.00011041799007216468,-0.00021536066196858883,0.0,0.0,0.0,0.0,-0.003421974368393421,-0.002862886991351843,-0.0034662457183003426,0.998826265335083,0.0,0.0,0.0,0.3808208703994751,-2.8040566444396973,5.332785606384277,-68.92933654785156,0
218.03699999999844,-0.0001296409172937274,0.000138934759888798,-0.0002228360972367227,0.0,0.0,0.0,0.0,0.001787354238331318,0.006446025334298611,0.003253629431128502,0.9999185800552368,0.0,0.0,0.0,0.37945836782455444,-2.80056095123291,5.33631706237793,-68.6827163696289,0
227.9409999999989,-0.00010495245805941522,0.00010569070582278073,-0.00022744049783796072,0.0,0.0,0.0,0.0,0.002273671329021454,0.001380928442813456,0.00348817091435194,0.9996888637542725,0.0,0.0,0.0,0.3813638687133789,-2.797821283340454,5.323007106781006,-69.02762603759766,0
237.85099999999875,5.7958700381277595e-06,8.758265903452411e-05,-0.00022040001931600273,0.0,0.0,0.0,0.0,-0.0016023438656702638,0.0041389260441064835,-0.0032065310515463352,1.000454306602478,0.0,0.0,0.0,0.38148561120033264,-2.8019351959228516,5.31950044631958,-69.04965209960938,0
247.76800000000003,-4.460689888219349e-05,0.0001167472728411667,-0.0002281187626067549,0.0,0.0,0.0,0.0,-0.0018052496016025543,-0.004932935815304518,-0.0006715116905979812,1.0001800060272217,0.0,0.0,0.0,0.3810555338859558,-2.806605815887451,5.310722351074219,-68.97180938720703,0
257.6779999999999,-3.077801375184208e-05,0.0001264633610844612,-0.00024343559925910085,0.0,0.0,0.0,0.0,-0.00031636253697797656,-0.003410568693652749,-0.0010123512474820018,1.001249074935913,0.0,0.0,0.0,0.3802303075790405,-2.7949509620666504,5.306484699249268,-68.82244110107422,0
267.5829999999987,-8.091006748145446e-05,0.00015632054419256747,-0.00025026174262166023,0.0,0.0,0.0,0.0,-0.0016018165042623878,-0.004144782666116953,0.0019114331807941198,0.9986579418182373,0.0,0.0,0.0,0.3799518942832947,-2.7924792766571045,5.307222843170166,-68.77204895019531,0
277.4969999999994,-6.501434836536646e-05,0.00016444305947516114,-0.00027243889053352177,0.0,0.0,0.0,0.0,0.0032115813810378313,-0.0011902697151526809,0.0013505276292562485,0.9999989867210388,0.0,0.0,0.0,0.3802590072154999,-2.7933740615844727,5.3112568855285645,-68.82764434814453,0
287.40499999999884,-0.00011669861851260066,0.0001948785356944427,-0.0002804441028274596,0.0,0.0,0.0,0.0,-0.00032789394026622176,-0.0010118617210537195,-0.001019683782942593,1.0013635158538818,0.0,0.0,0.0,0.380220890045166,-2.7927629947662354,5.299479007720947,-68.82073974609375,0
297.3159999999989,-0.00017340506019536406,0.00022884605277795345,-0.0002880443644244224,0.0,0.0,0.0,0.0,0.0009907953208312392,0.0011580738937482238,0.0038359009195119143,0.9992130398750305,0.0,0.0,0.0,0.3805977702140808,-2.7958526611328125,5.29582405090332,-68.88895416259766,0
307.22799999999916,-9.929603402270004e-05,0.0002393031754763797,-0.0003802854334935546,0.0,0.0,0.0,0.0,0.0003136593149974942,0.0001577826333232224,0.0017021892126649618,0.9970899820327759,0.0,0.0,0.0,0.38672468066215515,-2.808727502822876,5.329461574554443,-69.99794006347656,0
317.1399999999994,-7.886700768722221e-05,0.00022784883913118392,-0.00038174717337824404,0.0,0.0,0.0,0.0,-0.0008870848687365651,-0.0018004876328632236,0.00448776688426733,1.0014678239822388,0.0,0.0,0.0,0.3864201307296753,-2.8039355278015137,5.316647052764893,-69.94281005859375,0
327.0529999999999,-0.00013582021347247064,0.0002662697806954384,-0.00039625668432563543,0.0,0.0,0.0,0.0,0.0005024511483497918,0.0011270473478361964,-0.0033521975856274366,1.000526785850525,0.0,0.0,0.0,0.38669079542160034,-2.8049471378326416,5.314978122711182,-69.9917984008789,0
336.96399999999994,-4.531799640972167e-05,0.0002620912855491042,-0.00039433734491467476,0.0,0.0,0.0,0.0,0.0022266872692853212,-0.0021526075433939695,-0.0035634173545986414,1.0009026527404785,0.0,0.0,0.0,0.39334383606910706,-2.8102593421936035,5.344724178314209,-71.19601440429688,0
346.8769999999986,-9.99429466901347e-05,0.00030091064400039613,-0.00040658703073859215,0.0,0.0,0.0,0.0,0.00039134229882620275,0.005146067123860121,0.0017476835055276752,0.999106764793396,0.0,0.0,0.0,0.39238253235816956,-2.814192295074463,5.337490081787109,-71.02201843261719,0
356.78399999999965,2.780352224363014e-05,0.00030842318665236235,-0.0004134095215704292,0.0,0.0,0.0,0.0,0.004405923653393984,0.002789595862850547,-0.003636579029262066,0.9995242357254028,0.0,0.0,0.0,0.3942846655845642,-2.8180480003356934,5.367112159729004,-71.36630249023438,0
366.6929999999993,-2.324307570233941e-05,0.0003456297272350639,-0.00042562579619698226,0.0,0.0,0.0,0.0,0.0011872135801240802,0.00011149297642987221,0.001712957862764597,0.999113142490387,0.0,0.0,0.0,0.393024206161499,-2.823667287826538,5.358936309814453,-71.13816833496094,0
376.60999999999876,3.0268878617789596e-05,0.00035370353725738823,-0.0004587558505591005,0.0,0.0,0.0,0.0,-0.0009687459678389132,0.005073463544249535,0.0018288170685991645,0.9981279969215393,0.0,0.0,0.0,0.39194273948669434,-2.8249428272247314,5.352133750915527,-70.94241333007812,0
386.51800000000003,-2.0841263904003426e-05,0.0003902428434230387,-0.000474744476377964,0.0,0.0,0.0,0.0,-0.0013489850098267198,-0.003519873134791851,1.0919384294538759e-05,1.0000334978103638,0.0,0.0,0.0,0.391818642616272,-2.8204736709594727,5.336012840270996,-70.91996002197266,0
396.4349999999995,8.791859727352858e-05,0.0003769949544221163,-0.0005337239126674831,0.0,0.0,0.0,0.0,-0.0014798284973949194,-0.0004123027028981596,0.0022477617021650076,0.9985475540161133,0.0,0.0,0.0,0.3934532701969147,-2.837815284729004,5.381133079528809,-71.2158203125,0
406.34000000000015,4.1526738641550764e-05,0.0004096286138519645,-0.0005546920583583415,0.0,0.0,0.0,0.0,-0.0010296710534021258,0.001383248483762145,-0.0018966919742524624,0.9983283877372742,0.0,0.0,0.0,0.39251670241355896,-2.8338630199432373,5.380681037902832,-71.04631042480469,0
416.2509999999984,6.32286537438631e-05,0.00041983608389273286,-0.0005941485287621617,0.0,0.0,0.0,0.0,-0.001209658570587635,-0.006213718559592962,-0.00010529047722229734,1.0011398792266846,0.0,0.0,0.0,0.39280375838279724,-2.831162691116333,5.3768630027771,-71.09825897216797,0
426.16100000000006,1.5424699085997418e-05,0.0004511894076131284,-0.0006185144884511828,0.0,0.0,0.0,0.0,-0.0021504643373191357,0.0018388202879577875,0.00048152118688449264,0.9999716281890869,0.0,0.0,0.0,0.39118507504463196,-2.827120065689087,5.37626838684082,-70.8052749633789,0
436.0729999999985,9.861436410574242e-05,0.00046076776925474405,-0.0006470426451414824,0.0,0.0,0.0,0.0,0.004014872945845127,0.002130946610122919,0.0020878203213214874,0.9984793663024902,0.0,0.0,0.0,0.3933578431606293,-2.8351597785949707,5.418912410736084,-71.19854736328125,0
445.9879999999994,5.462441549752839e-05,0.0004952276358380914,-0.0006709112785756588,0.0,0.0,0.0,0.0,-0.005338320508599281,0.0009860714199021459,-0.002103586448356509,0.9980627298355103,0.0,0.0,0.0,0.39227187633514404,-2.833219528198242,5.409623146057129,-71.00199127197266,0
455.8949999999986,6.770036998204887e-05,0.0005025294958613813,-0.0007147578289732337,0.0,0.0,0.0,0.0,0.0012826010352000594,-6.440574361477047e-05,-0.004415761213749647,0.9985855221748352,0.0,0.0,0.0,0.3979226052761078,-2.846501111984253,5.421749114990234,-72.0247802734375,0
465.8149999999987,2.3769236577209085e-05,0.0005372303421609104,-0.0007434384315274656,0.0,0.0,0.0,0.0,-0.00010763577301986516,-0.0030395272187888622,0.0005992905353195965,0.9999987483024597,0.0,0.0,0.0,0.39941251277923584,-2.841064929962158,5.420959949493408,-72.29446411132812,0
475.71899999999914,0.00010128289432032034,0.0005364613607525826,-0.0007756978156976402,0.0,0.0,0.0,0.0,-0.0009249072754755616,-0.0017923718551173806,-0.0001246733299922198,0.9998864531517029,0.0,0.0,0.0,0.4056943356990814,-2.85914945602417,5.452537536621094,-73.43148040771484,0
485.6299999999992,6.361925625242293e-05,0.0005680125905200839,-0.0008064615540206432,0.0,0.0,0.0,0.0,-0.0042353058233857155,-0.003197156358510256,-0.0015583817148581147,0.9970055818557739,0.0,0.0,0.0,0.4061093330383301,-2.8557825088500977,5.44698429107666,-73.506591796875,0
495.5499999999993,9.259435319108889e-05,0.0005770386196672916,-0.0008371745934709907,0.0,0.0,0.0,0.0,-0.0005483262939378619,0.001061973045580089,-1.8971166355186142e-05,0.9977931976318359,0.0,0.0,0.0,0.40685442090034485,-2.842021942138672,5.458950042724609,-73.6414566040039,0
505.4569999999985,5.5307438742602244e-05,0.0006069647497497499,-0.0008706526132300496,0.0,0.0,0.0,0.0,0.0010358365252614021,-0.0015319650992751122,-0.006666131783276796,0.9977628588676453,0.0,0.0,0.0,0.40471529960632324,-2.8342366218566895,5.458070755004883,-73.2542724609375,0
515.3599999999988,6.901279266458005e-05,0.000601039151661098,-0.0009162081405520439,0.0,0.0,0.0,0.0,-0.0015304813859984279,0.003899644361808896,0.001058086403645575,0.9978575706481934,0.0,0.0,0.0,0.4037935137748718,-2.822557210922241,5.455329418182373,-73.0874252319336,0
525.2779999999984,3.217599805793725e-05,0.0006298299995251,-0.0009548846282996237,0.0,0.0,0.0,0.0,0.00037480919854715466,-0.0015089594526216388,0.0017610990907996893,0.9987053275108337,0.0,0.0,0.0,0.40275534987449646,-2.8214974403381348,5.454866886138916,-72.89952850341797,0
535.1819999999989,9.837871766649187e-05,0.0006191905122250319,-0.0009766652947291732,0.0,0.0,0.0,0.0,0.00036559486761689186,-0.0008717181044630706,0.002140955999493599,0.9998756647109985,0.0,0.0,0.0,0.4072398245334625,-2.83459734916687,5.4946489334106445,-73.71121978759766,0
545.0929999999989,-0.00018865229503717273,0.00012605795927811414,-0.0002529471239540726,0.0,0.0,0.0,0.0,-0.0020019595976918936,-0.003282044315710664,0.0048212106339633465,1.0006297826766968,0.0,0.0,0.0,0.40791767835617065,-2.9229159355163574,5.450376987457275,-73.83391571044922,0
555.009,-3.872310117003508e-05,6.572985876118764e-05,-0.00016383826732635498,0.0,0.0,0.0,0.0,-0.00026509270537644625,-0.00030476838583126664,0.0018094836268574,1.0005383491516113,0.0,0.0,0.0,0.40815848112106323,-2.922724962234497,5.442999362945557,-73.87749481201172,0
564.9169999999995,-7.430557161569595e-05,7.290141365956515e-05,-0.000173028907738626,0.0,0.0,0.0,0.0,-0.0029915119521319866,-0.0033370929304510355,0.002680716570466757,0.9997420310974121,0.0,0.0,0.0,0.40866613388061523,-2.911978244781494,5.44606876373291,-73.9693832397461,0
574.8349999999991,-5.4897867812542245e-05,7.354609988396987e-05,-0.00016242574201896787,0.0,0.0,0.0,0.0,0.0024813604541122913,0.001113426755182445,-0.0006385673186741769,1.0004867315292358,0.0,0.0,0.0,0.40774330496788025,-2.9058456420898438,5.4440999031066895,-73.8023452758789,0
584.7389999999996,-9.295381460106e-05,8.239268936449662e-05,-0.00016984838293865323,0.0,0.0,0.0,0.0,-0.00034030183451250196,0.003057967172935605,-0.0014955137157812715,0.9988933205604553,0.0,0.0,0.0,0.40772101283073425,-2.9024832248687744,5.440330982208252,-73.7983169555664,0
594.6539999999986,-6.01511201239191e-05,8.602997695561498e-05,-0.00016280004638247192,0.0,0.0,0.0,0.0,-0.003735811449587345,-0.0019979390781372786,0.0035533092450350523,0.9992355704307556,0.0,0.0,0.0,0.4063698351383209,-2.899718999862671,5.435844421386719,-73.55374908447266,0
604.5630000000001,-0.00010162997932638973,9.578013850841671e-05,-0.00016974948812276125,0.0,0.0,0.0,0.0,-0.003541272133588791,-0.0011387954000383615,0.001097046653740108,0.9990773797035217,0.0,0.0,0.0,0.4066608250141144,-2.8947882652282715,5.423111915588379,-73.6064224243164,0
614.4709999999995,-6.788189784856513e-05,9.63740239967592e-05,-0.00017447007121518254,0.0,0.0,0.0,0.0,0.0009239618084393442,0.0003053166437894106,-0.00297501846216619,0.9987186789512634,0.0,0.0,0.0,0.40563562512397766,-2.887470006942749,5.418313026428223,-73.42085266113281,0
624.384,-0.00011043317499570549,0.00010730300709838048,-0.000182727089850232,0.0,0.0,0.0,0.0,0.001133298734202981,-0.001471183612011373,-0.001748634735122323,0.9981675744056702,0.0,0.0,0.0,0.4044211804866791,-2.882030487060547,5.405987739562988,-73.20104217529297,0
634.2969999999987,-6.516345456475392e-05,9.986523218685761e-05,-0.0002018338127527386,0.0,0.0,0.0,0.0,6.721922545693815e-05,0.0014521502889692783,-0.0026428126730024815,0.9992684721946716,0.0,0.0,0.0,0.4042973518371582,-2.8764758110046387,5.4048542976379395,-73.17861938476562,0
644.2029999999995,-0.00010941809159703553,0.0001131997414631769,-0.00021359583479352295,0.0,0.0,0.0,0.0,0.0014976541278883815,-0.00012501522724051028,0.0015382813289761543,1.0004632472991943,0.0,0.0,0.0,0.40369346737861633,-2.877040386199951,5.396285057067871,-73.06932067871094,0
654.1229999999996,-6.65647312416695e-05,0.00012990242976229638,-0.0002305108937434852,0.0,0.0,0.0,0.0,0.00013374614354688674,-0.003009529085829854,-0.003574485657736659,0.9998612403869629,0.0,0.0,0.0,0.4032400846481323,-2.8810784816741943,5.370399475097656,-72.98725891113281,0
664.0349999999999,-6.65647312416695e-05,0.00012990242976229638,-0.0002305108937434852,0.0,0.0,0.0,0.0,-0.0015384163707494736,0.0003156187594868243,0.001771135488525033,0.9983784556388855,0.0,0.0,0.0,0.4032400846481323,-2.8810784816741943,5.370399475097656,-72.98725891113281,0
673.9369999999999,-3.427091724006459e-05,0.00012856826651841402,-0.00027413625502958894,0.0,0.0,0.0,0.0,0.0014131359057500958,-0.005845864303410053,0.0021400873083621264,0.998210072517395,0.0,0.0,0.0,0.4033313989639282,-2.870462656021118,5.36666202545166,-73.00379180908203,0
683.8559999999998,-3.427091724006459e-05,0.00012856826651841402,-0.00027413625502958894,0.0,0.0,0.0,0.0,-0.001803679158911109,-0.005332896485924721,5.794708340545185e-05,0.9997625946998596,0.0,0.0,0.0,0.4033313989639282,-2.870462656021118,5.36666202545166,-73.00379180908203,0
693.7639999999992,-1.964236616913695e-05,0.00013008549285586923,-0.0003165901580359787,0.0,0.0,0.0,0.0,-0.0015774848870933056,0.003868203377351165,0.004806988872587681,0.9994978904724121,0.0,0.0,0.0,0.403720885515213,-2.8720929622650146,5.371566295623779,-73.07427978515625,0
703.6829999999991,-1.964236616913695e-05,0.00013008549285586923,-0.0003165901580359787,0.0,0.0,0.0,0.0,-0.0026510555762797594,0.0005154035170562565,-0.000830715405754745,1.0005865097045898,0.0,0.0,0.0,0.403720885515213,-2.8720929622650146,5.371566295623779,-73.07427978515625,0
713.5839999999989,-2.141307049896568e-05,0.00012397905811667442,-0.0003464103792794049,0.0,0.0,0.0,0.0,-0.0025442836340516806,-0.005327211692929268,0.004298986401408911,0.999656617641449,0.0,0.0,0.0,0.40400823950767517,-2.866481304168701,5.355381011962891,-73.12629699707031,0
723.5079999999998,-0.000103116559330374,0.00010974881297443062,-0.00030981050804257393,0.0,0.0,0.0,0.0,-0.0025400000158697367,-0.0008522049756720662,-0.002185435499995947,0.9987169504165649,0.0,0.0,0.0,0.3975706100463867,-2.8649234771728516,5.34349250793457,-71.96106719970703,0
733.4049999999988,-7.964846190589014e-06,8.833475294522941e-05,-0.00023041550593916327,0.0,0.0,0.0,0.0,0.0035728130023926497,-0.00029796949820593,0.002355410950258374,0.998850405216217,0.0,0.0,0.0,0.39792007207870483,-2.861717939376831,5.349341869354248,-72.02432250976562,0
743.3229999999985,-6.552249396918342e-05,9.828252950683236e-05,-0.0002345010288991034,0.0,0.0,0.0,0.0,-0.0015083533944562078,0.0018290001899003983,-0.0008280713809654117,0.9974607825279236,0.0,0.0,0.0,0.3972858488559723,-2.859981060028076,5.351627349853516,-71.9095230102539,0
753.2279999999992,-4.9337926611769944e-05,9.200184285873547e-05,-0.00021418716642074287,0.0,0.0,0.0,0.0,0.0007109430734999478,0.0021254955790936947,0.0003606655518524349,0.9992111921310425,0.0,0.0,0.0,0.4041805565357208,-2.8607184886932373,5.34386682510376,-73.15748596191406,0
763.1479999999992,-9.849970956565812e-05,0.00011237209400860593,-0.0002363408711971715,0.0,0.0,0.0,0.0,-0.0006613389705307782,-0.0024138507433235645,-0.0005478530074469745,1.0017619132995605,0.0,0.0,0.0,0.4029729962348938,-2.864590644836426,5.340259552001953,-72.93891906738281,0
773.0479999999989,-8.248368976637721e-05,0.000105195191281382,-0.00022774467652197927,0.0,0.0,0.0,0.0,5.492285708896816e-05,0.001175393583253026,0.0007719036075286567,1.00017511844635,0.0,0.0,0.0,0.4027725160121918,-2.8584721088409424,5.3309645652771,-72.90262603759766,0
782.9669999999987,-0.0001285058242501691,0.00013229686010163277,-0.00024969156947918236,0.0,0.0,0.0,0.0,-0.001964045222848654,-0.000492910563480109,-0.002080346690490842,0.9989656209945679,0.0,0.0,0.0,0.40295934677124023,-2.8583741188049316,5.3225202560424805,-72.93644714355469,0
792.8739999999998,-0.00015405913291033357,0.0001547172578284517,-0.00024740994558669627,0.0,0.0,0.0,0.0,0.0008196269627660513,-0.0010301652364432812,0.0014903343981131911,1.0000677108764648,0.0,0.0,0.0,0.40218034386634827,-2.86323618888855,5.316015243530273,-72.7954330444336,0
802.7889999999989,-0.0002093518851324916,0.00017751281848177314,-0.0002585211768746376,0.0,0.0,0.0,0.0,-0.0004255096719134599,0.0021612083073705435,0.0010910244891420007,1.000780463218689,0.0,0.0,0.0,0.40288615226745605,-2.846998929977417,5.316205978393555,-72.92320251464844,0
812.6919999999991,-0.00012823627912439406,0.00019849294039886445,-0.0002316060708835721,0.0,0.0,0.0,0.0,-0.00034065250656567514,-0.004469471517950296,0.0009797230595722795,1.0004675388336182,0.0,0.0,0.0,0.40224915742874146,-2.835141181945801,5.313217639923096,-72.80789947509766,0
822.6139999999996,-0.00019360764417797327,0.00021158695744816214,-0.0002522642898838967,0.0,0.0,0.0,0.0,0.0015896038385108113,-0.0005400554509833455,0.0008553687366656959,1.001065731048584,0.0,0.0,0.0,0.40134644508361816,-2.839005708694458,5.304953575134277,-72.6445083618164,0
832.518,-8.1333149864804e-05,0.00015063925820868462,-0.00022526239627040923,0.0,0.0,0.0,0.0,-0.002130092354491353,0.00033658306347206235,0.0036046551540493965,1.0003775358200073,0.0,0.0,0.0,0.4014182984828949,-2.8433823585510254,5.316092014312744,-72.65750885009766,0
842.4399999999987,-0.00014187097258400172,0.00017095218936447054,-0.00024418759858235717,0.0,0.0,0.0,0.0,0.0014724083011969924,-0.0007830939721316099,0.0032880904618650675,1.000484824180603,0.0,0.0,0.0,0.4014829099178314,-2.8411457538604736,5.308589458465576,-72.66920471191406,0
852.3419999999987,7.3426599556114525e-06,7.367240323219448e-05,-0.00021434269729070365,0.0,0.0,0.0,0.0,-0.0010567281860858202,0.0007259249687194824,-0.003232147777453065,0.9977531433105469,0.0,0.0,0.0,0.4009784758090973,-2.836926221847534,5.311608791351318,-72.57789611816406,0
862.2559999999994,-5.848847285960801e-05,0.00010352062963647768,-0.00021718733478337526,0.0,0.0,0.0,0.0,0.0010026722447946668,0.0006131948903203011,0.00227082590572536,0.9991547465324402,0.0,0.0,0.0,0.40156790614128113,-2.837270975112915,5.291186809539795,-72.6845932006836,0
872.1619999999984,2.0853234673268162e-05,3.0371102184290066e-05,-0.00021046283654868603,0.0,0.0,0.0,0.0,0.0003739202511496842,-0.0008078651735559106,-0.00046696930075995624,0.9995954036712646,0.0,0.0,0.0,0.40793538093566895,-2.8575830459594727,5.3109660148620605,-73.83711242675781,0
882.0819999999985,-4.405640720506199e-05,6.967463559703901e-05,-0.00021556658612098545,0.0,0.0,0.0,0.0,-0.0009347275481559336,0.0030464157462120056,-0.0003645604883786291,1.0003571510314941,0.0,0.0,0.0,0.4084486663341522,-2.8611021041870117,5.313408851623535,-73.93001556396484,0
891.9849999999988,2.445019708829932e-05,1.5166423509072047e-05,-0.00020448968280106783,0.0,0.0,0.0,0.0,-0.0018397248350083828,0.004915094468742609,0.002333148382604122,1.0012412071228027,0.0,0.0,0.0,0.4157273769378662,-2.8703300952911377,5.322415828704834,-75.24748229980469,0
901.9039999999986,-4.262314541847445e-05,4.712904046755284e-05,-0.00020821590442210436,0.0,0.0,0.0,0.0,0.000524386006873101,-2.9769804314128123e-05,0.0013681093696504831,0.9997007846832275,0.0,0.0,0.0,0.4155843257904053,-2.8677005767822266,5.313149929046631,-75.22159576416016,0
911.8019999999997,1.4930406905477867e-05,3.081922113779001e-05,-0.00021037446276750416,0.0,0.0,0.0,0.0,0.0017638157587498426,9.66116858762689e-05,-0.00043758898391388357,0.9982115626335144,0.0,0.0,0.0,0.41663894057273865,-2.866647243499756,5.307577133178711,-75.4124755859375,0
921.732,-5.3189851314527914e-05,6.375025259330869e-05,-0.00021330489835236222,0.0,0.0,0.0,0.0,-0.00022395291307475418,-0.002013544086366892,0.005809635855257511,0.999757707118988,0.0,0.0,0.0,0.4151843786239624,-2.8642868995666504,5.301222324371338,-75.14920043945312,0
931.6229999999996,-2.1456539798236918e-06,8.019408414838836e-05,-0.00021135489805601537,0.0,0.0,0.0,0.0,-0.0014924381393939257,0.0003106606309302151,-0.006497126072645187,0.9995422959327698,0.0,0.0,0.0,0.4148346781730652,-2.8617169857025146,5.300446033477783,-75.08589935302734,0
941.5459999999985,-6.80283410474658e-05,0.00011446743155829608,-0.00021555600687861443,0.0,0.0,0.0,0.0,-0.002006109803915024,0.000448155275080353,0.002797001041471958,1.0005738735198975,0.0,0.0,0.0,0.415486216545105,-2.8589608669281006,5.293936252593994,-75.2038345336914,0
951.4449999999997,-2.366134140174836e-06,0.0001397428713971749,-0.0002169724175473675,0.0,0.0,0.0,0.0,-0.0024475122336298227,-0.001521059195511043,-0.0025872120168060064,1.0017027854919434,0.0,0.0,0.0,0.41446465253829956,-2.850311279296875,5.289062023162842,-75.01892852783203,0
961.366,-6.772580672986805e-05,0.00017768354155123234,-0.00022038731549400836,0.0,0.0,0.0,0.0,0.0010521061485633254,-0.0009512446122244,0.00046961550833657384,1.0002843141555786,0.0,0.0,0.0,0.4139415919780731,-2.842646598815918,5.281251430511475,-74.92425537109375,0
971.2729999999992,6.838224180683028e-06,0.00019710700144059956,-0.00023107619199436158,0.0,0.0,0.0,0.0,-0.00018280612130183727,-0.0036643457133322954,-0.0012011361541226506,1.0003530979156494,0.0,0.0,0.0,0.413516104221344,-2.8342082500457764,5.279991149902344,-74.84722900390625,0
981.1880000000001,-5.577472984441556e-05,0.00023566784511785954,-0.00023286578652914613,0.0,0.0,0.0,0.0,-0.002283893059939146,0.0034214139450341463,0.0006314744823612273,0.9998074173927307,0.0,0.0,0.0,0.41291508078575134,-2.8237693309783936,5.282098293304443,-74.73845672607422,0
991.0900000000001,-2.5115741664194502e-05,0.00024004575971048325,-0.0002622921019792557,0.0,0.0,0.0,0.0,-2.8703138013952412e-05,-0.0008748637046664953,-0.0042188046500086784,0.9989722371101379,0.0,0.0,0.0,0.41138339042663574,-2.823782205581665,5.279058933258057,-74.46121215820312,0
1001.0139999999992,-8.719468314666301e-05,0.00027753631002269685,-0.00026630505453795195,0.0,0.0,0.0,0.0,0.0019991265144199133,0.0034175519831478596,-0.002212129533290863,1.0012844800949097,0.0,0.0,0.0,0.41022706031799316,-2.8218071460723877,5.270674705505371,-74.25192260742188,0
1010.9139999999989,-2.384688559686765e-05,0.00027773570036515594,-0.0003291171742603183,0.0,0.0,0.0,0.0,-0.0029803612269461155,-0.005354604218155146,-0.0008013542974367738,1.0019755363464355,0.0,0.0,0.0,0.41653990745544434,-2.8624324798583984,5.3007731437683105,-75.39454650878906,0
1020.8329999999987,-2.384688559686765e-05,0.00027773570036515594,-0.0003291171742603183,0.0,0.0,0.0,0.0,-0.002281841589137912,0.0008684671483933926,-0.00036665875813923776,1.0000872611999512,0.0,0.0,0.0,0.41653990745544434,-2.8624324798583984,5.3007731437683105,-75.39454650878906,0
1030.7349999999988,-1.2760167010128498e-05,0.00030923745362088084,-0.0003517024451866746,0.0,0.0,0.0,0.0,-0.0023926617577672005,-0.0018017363036051393,-0.004794566426426172,0.9982943534851074,0.0,0.0,0.0,0.41781923174858093,-2.8702597618103027,5.3288984298706055,-75.62611389160156,0
1040.6599999999999,-1.2760167010128498e-05,0.00030923745362088084,-0.0003517024451866746,0.0,0.0,0.0,0.0,0.003348416183143854,0.0014919412788003683,0.0008229143568314612,0.9994644522666931,0.0,0.0,0.0,0.41781923174858093,-2.8702597618103027,5.3288984298706055,-75.62611389160156,0
1050.5559999999987,-1.4221687706594821e-05,0.00029275703127495944,-0.00039620170718990266,0.0,0.0,0.0,0.0,-0.001855492708273232,0.0007951953448355198,-0.0012884625466540456,0.999733567237854,0.0,0.0,0.0,0.4176267385482788,-2.869001626968384,5.322212219238281,-75.59126281738281,0
1060.4799999999996,-6.673390453215688e-05,0.0003237701894249767,-0.00040733558125793934,0.0,0.0,0.0,0.0,0.00216252775862813,-0.002674390561878681,-0.002367953071370721,1.000307559967041,0.0,0.0,0.0,0.4183270335197449,-2.862328290939331,5.323279857635498,-75.71803283691406,0
1070.3869999999988,-4.468587212613784e-05,0.0003152717254124582,-0.0004331456439103931,0.0,0.0,0.0,0.0,0.0012680517975240946,0.002893208060413599,0.0001207797322422266,1.0012257099151611,0.0,0.0,0.0,0.4167170524597168,-2.855335235595703,5.3246259689331055,-75.42662048339844,0
1080.2959999999985,-9.599126497050747e-05,0.00034737924579530954,-0.00044542099931277335,0.0,0.0,0.0,0.0,-0.002348599024116993,-0.0003410068165976554,-0.0010889400728046894,0.9988988041877747,0.0,0.0,0.0,0.4166540205478668,-2.851003885269165,5.3157219886779785,-75.41519927978516,0
1090.2109999999993,-6.0696442233165726e-05,0.00033785364939831197,-0.0004606484726537019,0.0,0.0,0.0,0.0,0.003345305332913995,0.0031042059417814016,-0.002118665026500821,1.000045657157898,0.0,0.0,0.0,0.4204494059085846,-2.8701252937316895,5.355353355407715,-76.1021728515625,0
1100.1139999999996,-0.0001079699068213813,0.00036881823325529695,-0.00047392401029355824,0.0,0.0,0.0,0.0,-0.0008533798973076046,0.003639648435637355,-0.002883181907236576,1.000469446182251,0.0,0.0,0.0,0.4199198782444,-2.861048936843872,5.3539581298828125,-76.00633239746094,0
1110.030999999999,-6.557766755577177e-05,0.00035813896101899445,-0.0004791219544131309,0.0,0.0,0.0,0.0,-0.003115512663498521,-0.007076250854879618,-0.0005300251650623977,0.9996107220649719,0.0,0.0,0.0,0.4223465621471405,-2.8786733150482178,5.388003826141357,-76.44557189941406,0
1119.9349999999995,-0.0001608620659681037,0.00030807527946308255,-0.00042869217577390373,0.0,0.0,0.0,0.0,0.0014393519377335906,-0.0024023037403821945,0.003620291594415903,0.9996470212936401,0.0,0.0,0.0,0.4214828610420227,-2.8698782920837402,5.378903388977051,-76.28923797607422,0
1129.8459999999995,-3.415341780055314e-05,0.0002541354042477906,-0.0003683275426737964,0.0,0.0,0.0,0.0,-0.0034330354537814856,0.004657278768718243,-0.0014510691398754716,1.0011690855026245,0.0,0.0,0.0,0.4286215901374817,-2.8882761001586914,5.416050434112549,-77.58135986328125,0
1139.7659999999996,-9.242829401046038e-05,0.00024690324789844453,-0.0003907803038600832,0.0,0.0,0.0,0.0,-0.0006603626534342766,-0.0025863684713840485,0.003209406044334173,1.0001133680343628,0.0,0.0,0.0,0.4289628565311432,-2.88631534576416,5.408260822296143,-77.64312744140625,0
1149.6709999999985,-1.519494708190905e-05,0.00020619173301383853,-0.00035768511588685215,0.0,0.0,0.0,0.0,-0.001555511262267828,0.003978376276791096,4.894646554021165e-05,0.9999209642410278,0.0,0.0,0.0,0.42844492197036743,-2.8817548751831055,5.396705627441406,-77.54938507080078,0
1159.5829999999987,-6.015945109538734e-05,0.0002296093589393422,-0.0003654897736851126,0.0,0.0,0.0,0.0,0.003340391907840967,-0.0002314673038199544,-0.0033640600740909576,0.998656153678894,0.0,0.0,0.0,0.4280449450016022,-2.8812477588653564,5.392935752868652,-77.47698211669922,0
1169.4929999999986,-1.281640197703382e-05,0.00023090181639418006,-0.0003545261570252478,0.0,0.0,0.0,0.0,-0.0029249894432723522,3.5036304325331e-05,0.0025276094675064087,0.9970107078552246,0.0,0.0,0.0,0.4271717369556427,-2.880267381668091,5.386674404144287,-77.31893920898438,0
1179.4009999999998,-7.538119825767353e-05,0.00021653059229720384,-0.00038014413439668715,0.0,0.0,0.0,0.0,-0.0019013563869521022,0.0004305254842620343,0.00137859967071563,0.9979648590087891,0.0,0.0,0.0,0.42683830857276917,-2.883295774459839,5.379321098327637,-77.25858306884766,0
1189.3109999999997,3.1784686143510044e-05,0.0001807849039323628,-0.0003370884223841131,0.0,0.0,0.0,0.0,-0.0007556938799098134,-0.001156889135017991,-0.00048589069047011435,1.0019158124923706,0.0,0.0,0.0,0.42707571387290955,-2.878575086593628,5.3730902671813965,-77.30155181884766,0
1199.2249999999985,-1.3986820704303682e-05,0.00019797359709627926,-0.0003474499681033194,0.0,0.0,0.0,0.0,0.0011539752595126629,-3.866248152917251e-05,0.0025909559335559607,1.0020891427993774,0.0,0.0,0.0,0.4259701073169708,-2.8695037364959717,5.378018856048584,-77.1014404296875,0
1209.1329999999998,-2.1698171622119844e-05,0.0001922938972711563,-0.0003631730214692652,0.0,0.0,0.0,0.0,-0.001233285991474986,-0.003576017217710614,0.0002639223530422896,0.9994932413101196,0.0,0.0,0.0,0.42549929022789,-2.872483730316162,5.376541614532471,-77.01622009277344,0
1219.0439999999999,-7.251923670992255e-05,0.00021052348893135786,-0.00037115058512426913,0.0,0.0,0.0,0.0,0.00012114156561437994,-0.001653021783567965,0.003078676760196686,0.9988214373588562,0.0,0.0,0.0,0.42516323924064636,-2.866929292678833,5.372227191925049,-76.95538330078125,0
1228.9629999999997,-4.7857396566541865e-05,0.00021906016627326608,-0.000373625080101192,0.0,0.0,0.0,0.0,-0.0009645989048294723,-0.0034553806763142347,0.0008799058268778026,0.9987204074859619,0.0,0.0,0.0,0.4248392581939697,-2.8668835163116455,5.368590354919434,-76.89674377441406,0
1238.8729999999996,-0.00010103375825565308,0.0002388723223702982,-0.00038208591286092997,0.0,0.0,0.0,0.0,0.0007651736959815025,-0.0012958520092070103,0.0055844346061348915,0.9986318945884705,0.0,0.0,0.0,0.4251641631126404,-2.8603837490081787,5.372354984283447,-76.95555877685547,0
1248.7789999999986,-4.6691919123986736e-05,0.0002350895229028538,-0.00040647760033607483,0.0,0.0,0.0,0.0,-0.002353522228077054,-0.0017973866779357195,0.00012254365719854832,1.0000667572021484,0.0,0.0,0.0,0.42481210827827454,-2.8562326431274414,5.375916004180908,-76.89183807373047,0
1258.688,-0.00010027980897575617,0.000253764126682654,-0.0004180844989605248,0.0,0.0,0.0,0.0,-0.0016699119005352259,-0.0007109064608812332,0.0007776409620419145,1.001021146774292,0.0,0.0,0.0,0.42516472935676575,-2.847383737564087,5.376474380493164,-76.95565795898438,0
1268.5999999999985,-3.792367715504952e-05,0.00026137521490454674,-0.00043071931577287614,0.0,0.0,0.0,0.0,-0.004244242329150438,0.003874527756124735,-0.002954649506136775,0.9980244636535645,0.0,0.0,0.0,0.4250619113445282,-2.8432021141052246,5.371687889099121,-76.93704223632812,0
1278.5119999999988,-0.00020771616254933178,0.00014035899948794395,-0.0002606028865557164,0.0,0.0,0.0,0.0,0.00024554194533266127,-0.00017710727115627378,-0.0007331969100050628,0.9989007711410522,0.0,0.0,0.0,0.4135049879550934,-2.867541551589966,5.351160049438477,-74.84523010253906,0
1288.4209999999985,-9.76216615526937e-05,8.450029417872429e-05,-0.00019178108777850866,0.0,0.0,0.0,0.0,-0.0002851811295840889,-0.006381952203810215,-0.0014929712051525712,1.0001955032348633,0.0,0.0,0.0,0.41258928179740906,-2.8596434593200684,5.337001800537109,-74.67947387695312,0
1298.333999999999,-0.00015423819422721863,9.714059706311673e-05,-0.00019059207988902926,0.0,0.0,0.0,0.0,-0.0007258114637807012,-0.0035952068865299225,-0.0006079162703827024,1.000349998474121,0.0,0.0,0.0,0.41190963983535767,-2.8537650108337402,5.332080841064453,-74.55646514892578,0
1308.2479999999996,-1.227639768330846e-05,5.1545979658840224e-05,-0.0001708217605482787,0.0,0.0,0.0,0.0,0.0013597728684544563,-0.0016599086811766028,0.0007116500055417418,0.9977241158485413,0.0,0.0,0.0,0.4119901955127716,-2.848240375518799,5.334430694580078,-74.571044921875,0
1318.155999999999,-5.99194536334835e-05,7.815357821527869e-05,-0.00019449193496257067,0.0,0.0,0.0,0.0,-6.790885527152568e-05,0.0018898496637120843,0.002764774253591895,0.9991195797920227,0.0,0.0,0.0,0.4048425257205963,-2.8369455337524414,5.334825038909912,-73.27729797363281,0
1328.08,-9.665515972301364e-05,5.46371957170777e-05,-0.00018218009790871292,0.0,0.0,0.0,0.0,-0.0005735248560085893,0.0004916962352581322,-0.0017479498637840152,0.9990043044090271,0.0,0.0,0.0,0.4065955579280853,-2.8358705043792725,5.3310675621032715,-73.59461212158203,0
1337.976999999999,-9.665515972301364e-05,5.46371957170777e-05,-0.00018218009790871292,0.0,0.0,0.0,0.0,0.0017809240380302072,0.004997564479708672,-0.005423516500741243,1.0010204315185547,0.0,0.0,0.0,0.4065955579280853,-2.8358705043792725,5.3310675621032715,-73.59461212158203,0
1347.8959999999988,-0.00014477071817964315,7.632873894181103e-05,-0.00016543912352062762,0.0,0.0,0.0,0.0,0.0018411213532090187,0.0006253942847251892,-0.0008033622289076447,1.001777172088623,0.0,0.0,0.0,0.4125681221485138,-2.8313419818878174,5.32963752746582,-74.67565155029297,0
1357.8029999999999,-0.00011456104402896017,0.0001141069587902166,-0.00021267231204546988,0.0,0.0,0.0,0.0,-0.0019776630215346813,0.00047724039177410305,-0.0003571762063074857,0.9993574619293213,0.0,0.0,0.0,0.40498024225234985,-2.821442127227783,5.336118698120117,-73.3022232055664,0
1367.7189999999991,-8.557389082852751e-05,9.607140236767009e-05,-0.00015804685244802386,0.0,0.0,0.0,0.0,-0.002813492901623249,0.0011335661401972175,-0.003678790759295225,0.9993467330932617,0.0,0.0,0.0,0.40410035848617554,-2.8071165084838867,5.319484233856201,-73.1429672241211,0
1377.6229999999996,-0.00019391998648643494,7.564209954580292e-05,-0.00012721671373583376,0.0,0.0,0.0,0.0,7.647186430403963e-05,0.0022168210707604885,-0.001708865980617702,1.0008742809295654,0.0,0.0,0.0,0.40215566754341125,-2.8007607460021973,5.306036949157715,-72.79096984863281,0
1387.5459999999985,-0.0002635241544339806,9.715830674394965e-05,-0.0001232578360941261,0.0,0.0,0.0,0.0,-0.001684290706180036,-0.0013807937502861023,0.0021766461431980133,1.0012340545654297,0.0,0.0,0.0,0.4015401303768158,-2.798759698867798,5.300546169281006,-72.67955780029297,0
1397.4470000000001,-0.0002635241544339806,9.715830674394965e-05,-0.0001232578360941261,0.0,0.0,0.0,0.0,0.0014742027269676328,0.00012723472900688648,0.001925275893881917,1.0006091594696045,0.0,0.0,0.0,0.4015401303768158,-2.798759698867798,5.300546169281006,-72.67955780029297,0
1407.369999999999,-0.00034343721927143633,0.00012109936506021768,-0.00011756768799386919,0.0,0.0,0.0,0.0,-0.00015791069017723203,0.006089517381042242,-0.002419940195977688,1.001677393913269,0.0,0.0,0.0,0.40113431215286255,-2.7907230854034424,5.297412872314453,-72.60610961914062,0
1417.2689999999984,-0.00041998783126473427,0.0001433080469723791,-0.00011131251812912524,0.0,0.0,0.0,0.0,-0.0022658980451524258,-0.0018825758015736938,-0.002423930214717984,1.0012352466583252,0.0,0.0,0.0,0.4023143947124481,-2.7917444705963135,5.290860652923584,-72.8197021484375,0
1427.191999999999,-0.0004998481599614024,0.000167029385920614,-0.00010362945613451302,0.0,0.0,0.0,0.0,-0.0013020670739933848,-0.006590807344764471,0.0063279676251113415,0.9983574151992798,0.0,0.0,0.0,0.40069618821144104,-2.7832884788513184,5.269139766693115,-72.52680206298828,0
1437.0909999999985,-0.0005821897066198289,0.00019279879052191973,-9.493101970292628e-05,0.0,0.0,0.0,0.0,0.0015682127559557557,-0.003832864575088024,-0.0009710958111099899,0.9974344372749329,0.0,0.0,0.0,0.39992058277130127,-2.7792654037475586,5.268150806427002,-72.38642120361328,0
1447.0049999999992,-0.0006674229516647756,0.00022080806957092136,-8.704981883056462e-05,0.0,0.0,0.0,0.0,-0.0009288591099902987,0.004279972519725561,-0.0011001762468367815,0.9995874166488647,0.0,0.0,0.0,0.39996010065078735,-2.775317430496216,5.278846263885498,-72.39356994628906,0
1456.9119999999984,-0.0005905015277676284,0.0002960322890430689,-0.0003002752782776952,0.0,0.0,0.0,0.0,-0.0030664096120744944,0.000773022708017379,-0.0016320561990141869,0.9982872605323792,0.0,0.0,0.0,0.3902548849582672,-2.7546772956848145,5.330060958862305,-70.63690948486328,0
1466.8329999999987,-0.000666073348838836,0.00033210671972483397,-0.00031066304654814303,0.0,0.0,0.0,0.0,-0.000898174534086138,-0.0015147951198741794,-0.0034625043626874685,0.9998474717140198,0.0,0.0,0.0,0.3896278142929077,-2.7542221546173096,5.32281494140625,-70.5234146118164,0
1476.7379999999994,-0.0006806198507547379,0.0003691732417792082,-0.000418022129451856,0.0,0.0,0.0,0.0,0.0011321812635287642,0.0002646880457177758,-0.0008594394894316792,0.9999833703041077,0.0,0.0,0.0,0.3901158273220062,-2.7463161945343018,5.309774398803711,-70.61174011230469,0
1486.6489999999994,-0.000754432869143784,0.0004096327756997198,-0.0004360332677606493,0.0,0.0,0.0,0.0,0.0037183829117566347,0.0008524045115336776,-0.00024030200438573956,1.0008783340454102,0.0,0.0,0.0,0.3893141448497772,-2.7430644035339355,5.302259922027588,-70.46662902832031,0
1496.554,-0.0008300218032673001,0.00045106044854037464,-0.000453913671663031,0.0,0.0,0.0,0.0,0.00034262731787748635,0.001763056148774922,0.0016702542779967189,0.9978768229484558,0.0,0.0,0.0,0.38863223791122437,-2.7487142086029053,5.289254665374756,-70.34321594238281,0
1506.4689999999991,-0.0009077375289052725,0.000493808533065021,-0.00047154995263554156,0.0,0.0,0.0,0.0,-0.0009363434510305524,0.0017912215553224087,-0.0012164004147052765,0.9992653727531433,0.0,0.0,0.0,0.38742953538894653,-2.7447853088378906,5.2804484367370605,-70.12551879882812,0
1516.3819999999996,-0.0008475466747768223,0.0005420839879661798,-0.0006495675770565867,0.0,0.0,0.0,0.0,-0.0006249431171454489,0.001287852763198316,-0.00012417638208717108,0.9990326762199402,0.0,0.0,0.0,0.3808645009994507,-2.7344002723693848,5.330098628997803,-68.9372329711914,0
1526.2909999999993,-0.0009185781818814576,0.0005881362012587488,-0.000680371536873281,0.0,0.0,0.0,0.0,-0.002869693096727133,-0.0006805897573940456,0.002226009964942932,0.9986844658851624,0.0,0.0,0.0,0.3810569941997528,-2.7333478927612305,5.321650981903076,-68.9720687866211,0
1536.1989999999987,-0.0009923127945512533,0.0006355010555125773,-0.0007118813809938729,0.0,0.0,0.0,0.0,0.0012743755942210555,0.0014810190768912435,-0.001373505569063127,0.998012900352478,0.0,0.0,0.0,0.3807235062122345,-2.7276532649993896,5.313305854797363,-68.91171264648438,0
1546.1099999999988,-0.001068656682036817,0.0006835339008830488,-0.000744515797123313,0.0,0.0,0.0,0.0,-0.0001632369530852884,-0.00042465858859941363,-0.0015416975365951657,0.999739944934845,0.0,0.0,0.0,0.38103562593460083,-2.719608783721924,5.305995941162109,-68.96820831298828,0
1556.0299999999988,-0.0011481730034574866,0.0007319581345655024,-0.0007785226916894317,0.0,0.0,0.0,0.0,-9.176081221085042e-06,-0.0007901524077169597,0.006410427391529083,0.9995855689048767,0.0,0.0,0.0,0.37935686111450195,-2.7142741680145264,5.2970290184021,-68.66433715820312,0
1565.9439999999995,-0.0012311791069805622,0.000781457987613976,-0.0008130061323754489,0.0,0.0,0.0,0.0,0.000543574511539191,0.0008424815023317933,0.0022444576025009155,0.9968662858009338,0.0,0.0,0.0,0.3801915943622589,-2.7109384536743164,5.295856952667236,-68.81543731689453,0
1575.842999999999,-0.0013181078247725964,0.00083259615348652,-0.000847996911033988,0.0,0.0,0.0,0.0,-0.0020683472976088524,0.004261405672878027,0.0010378860170021653,0.9970524907112122,0.0,0.0,0.0,0.37883445620536804,-2.715090036392212,5.288838863372803,-68.56979370117188,0
1585.7689999999984,-0.0014099613763391972,0.000885212270077318,-0.0008852391038089991,0.0,0.0,0.0,0.0,-0.000910070666577667,-0.0008967825560830534,0.001957772532477975,1.001959204673767,0.0,0.0,0.0,0.3790239691734314,-2.7064576148986816,5.292018413543701,-68.60409545898438,0
1595.664999999999,-0.0015061586163938046,0.0009389554033987224,-0.0009245183318853378,0.0,0.0,0.0,0.0,-0.0018100879387930036,-0.004853455349802971,0.0011355980532243848,1.0031695365905762,0.0,0.0,0.0,0.37821295857429504,-2.7106451988220215,5.2805094718933105,-68.4572982788086,0
1605.5989999999983,-0.0016053711296990514,0.000994412461295724,-0.0009627139661461115,0.0,0.0,0.0,0.0,0.00010402195039205253,0.001916817738674581,0.002883250592276454,0.9991326928138733,0.0,0.0,0.0,0.3766164481639862,-2.7009780406951904,5.287230014801025,-68.16832733154297,0
1615.4929999999986,-0.001707590650767088,0.0010515477042645216,-0.0009984199423342943,0.0,0.0,0.0,0.0,-0.000686451094225049,0.0006832070066593587,-0.0015214845770969987,1.0006709098815918,0.0,0.0,0.0,0.3764338791370392,-2.692415952682495,5.286736488342285,-68.13528442382812,0
1625.4119999999984,-6.653324089711532e-05,-5.6200529797933996e-05,3.0367407816811465e-05,0.0,0.0,0.0,0.0,-0.00033398231607861817,0.0012182985665276647,0.0008352682343684137,0.9987488985061646,0.0,0.0,0.0,0.38572049140930176,-2.90590763092041,5.577611923217773,-69.81616973876953,0
1635.3099999999995,-9.850326750893146e-05,-4.529073339654133e-05,2.5346153051941656e-05,0.0,0.0,0.0,0.0,0.0025989131536334753,-0.0010972667951136827,-0.0031288585159927607,0.9995859861373901,0.0,0.0,0.0,0.38488033413887024,-2.9035606384277344,5.571161270141602,-69.66410064697266,0
1645.2389999999996,-3.86206156690605e-05,-9.12441173568368e-05,2.7586007490754128e-05,0.0,0.0,0.0,0.0,0.001289301784709096,0.0015392083441838622,0.0035133352503180504,0.9994076490402222,0.0,0.0,0.0,0.38399413228034973,-2.9034321308135986,5.557012557983398,-69.50370025634766,0
1655.1319999999996,-7.285588071681559e-05,-7.820227619959041e-05,2.108525950461626e-05,0.0,0.0,0.0,0.0,0.0013900089543312788,0.0032812904100865126,0.002515756757929921,0.9999372959136963,0.0,0.0,0.0,0.3832460939884186,-2.9027814865112305,5.556558132171631,-69.36830139160156,0
1665.0559999999987,-0.00015035714022815228,-4.628651367966086e-05,8.191360393539071e-06,0.0,0.0,0.0,0.0,0.0010326665360480547,0.005833171773701906,-0.0001376934233121574,1.001524567604065,0.0,0.0,0.0,0.38198772072792053,-2.899196147918701,5.531271934509277,-69.14053344726562,0
1674.9569999999985,-0.00015035714022815228,-4.628651367966086e-05,8.191360393539071e-06,0.0,0.0,0.0,0.0,-0.001156457350589335,-0.004607915412634611,0.0005308210384100676,0.9990188479423523,0.0,0.0,0.0,0.38198772072792053,-2.899196147918701,5.531271934509277,-69.14053344726562,0
1684.8829999999998,-0.00018890711362473667,-2.9978489692439325e-05,-1.442591837985674e-05,0.0,0.0,0.0,0.0,0.0009093686239793897,-0.0011315940646454692,0.007225519046187401,0.9984058141708374,0.0,0.0,0.0,0.38077056407928467,-2.891585350036621,5.512679100036621,-68.92022705078125,0
1694.7749999999996,-0.00018890711362473667,-2.9978489692439325e-05,-1.442591837985674e-05,0.0,0.0,0.0,0.0,-0.004262513481080532,0.003620843170210719,-0.0018634347943589091,1.0000163316726685,0.0,0.0,0.0,0.38077056407928467,-2.891585350036621,5.512679100036621,-68.92022705078125,0
1704.7019999999993,-0.0001981120149139315,-1.3724851669394411e-05,-4.8939476982923225e-05,0.0,0.0,0.0,0.0,-0.0010376133723184466,-0.0019905634690076113,0.002135271206498146,0.9974679350852966,0.0,0.0,0.0,0.3872140347957611,-2.8904924392700195,5.51694393157959,-70.08651733398438,0
1714.5999999999985,-0.0001981120149139315,-1.3724851669394411e-05,-4.8939476982923225e-05,0.0,0.0,0.0,0.0,0.0012059486471116543,0.0003507300280034542,-0.0030034598894417286,0.9979529976844788,0.0,0.0,0.0,0.3872140347957611,-2.8904924392700195,5.51694393157959,-70.08651733398438,0
1724.5169999999998,-0.0002016725775320083,2.9180937417550012e-05,-6.75268383929506e-05,0.0,0.0,0.0,0.0,0.002231778111308813,0.004366772249341011,-4.559072476695292e-05,1.0015206336975098,0.0,0.0,0.0,0.3865353763103485,-2.8854880332946777,5.499910831451416,-69.96367645263672,0
1734.42,-0.0002016725775320083,2.9180937417550012e-05,-6.75268383929506e-05,0.0,0.0,0.0,0.0,-0.0015824248548597097,-0.0009284969419240952,0.003691878402605653,1.000868320465088,0.0,0.0,0.0,0.3865353763103485,-2.8854880332946777,5.499910831451416,-69.96367645263672,0
1744.3439999999991,-0.00020724254136439413,3.17666563205421e-05,-0.00010129743895959109,0.0,0.0,0.0,0.0,-0.0020561779383569956,-0.0012853092048317194,0.004487527534365654,0.9996989369392395,0.0,0.0,0.0,0.38756415247917175,-2.883601188659668,5.48182487487793,-70.14988708496094,0
1754.2459999999992,-0.00024958860012702644,5.18918750458397e-05,-0.00011071770859416574,0.0,0.0,0.0,0.0,0.0018303266260772943,-0.0014100447297096252,0.0002620043233036995,0.9990315437316895,0.0,0.0,0.0,0.38743987679481506,-2.8776862621307373,5.477916240692139,-70.12738800048828,0
1764.1659999999993,-0.00020362029317766428,5.617028728011064e-05,-0.0001549886364955455,0.0,0.0,0.0,0.0,0.00039218395249918103,0.0021079976577311754,-0.0019169858423992991,0.9994471073150635,0.0,0.0,0.0,0.3904510736465454,-2.8949708938598633,5.5170063972473145,-70.67241668701172,0
1774.066999999999,-0.00024187739472836256,7.599566015414894e-05,-0.00016602696268819273,0.0,0.0,0.0,0.0,0.0005924035212956369,0.00043863916653208435,0.003359164111316204,0.9980473518371582,0.0,0.0,0.0,0.39041781425476074,-2.8918652534484863,5.501805782318115,-70.66639709472656,0
1783.9919999999984,-0.00019576813792809844,8.715513104107231e-05,-0.0002046113513642922,0.0,0.0,0.0,0.0,0.0005492853815667331,-0.004640483763068914,0.002629297785460949,0.9986255764961243,0.0,0.0,0.0,0.3929300606250763,-2.9096760749816895,5.53809928894043,-71.12112426757812,0
1793.8869999999988,-0.0002272608398925513,0.00011101135169155896,-0.00021813948114868253,0.0,0.0,0.0,0.0,0.0030316750053316355,-0.00013992379535920918,0.004554761573672295,1.0003176927566528,0.0,0.0,0.0,0.39217162132263184,-2.9015421867370605,5.534807205200195,-70.98384094238281,0
1803.8029999999999,-0.00013831262185703963,0.0001297828130191192,-0.0002577821724116802,0.0,0.0,0.0,0.0,-0.0024341701064258814,-0.0010992081370204687,0.0031478162854909897,0.9997747540473938,0.0,0.0,0.0,0.403857946395874,-2.9213454723358154,5.599406719207764,-73.0990982055664,0
1813.7129999999997,-0.00017515450599603355,0.000184760894626379,-0.00032945399289019406,0.0,0.0,0.0,0.0,-0.000763263669796288,-0.004805088974535465,0.002831145655363798,0.9993245005607605,0.0,0.0,0.0,0.4055034816265106,-2.9215495586395264,5.587838172912598,-73.39693450927734,0
1823.637999999999,-4.307668859837577e-05,0.00012775315553881228,-0.0003000064752995968,0.0,0.0,0.0,0.0,-0.00018490802904125303,-0.00046644671238027513,-0.004429195076227188,0.9988489747047424,0.0,0.0,0.0,0.40552669763565063,-2.913851261138916,5.592667102813721,-73.40113067626953,0
1833.5319999999992,-6.352978380164132e-05,0.00014820035721641034,-0.00031679694075137377,0.0,0.0,0.0,0.0,-0.004390518181025982,-0.0008884768467396498,-0.0009225442772731185,0.9996066689491272,0.0,0.0,0.0,0.4057815372943878,-2.9058725833892822,5.589118003845215,-73.447265625,0
1843.450999999999,-9.82464371190872e-06,0.00014272007683757693,-0.0003316239744890481,0.0,0.0,0.0,0.0,-0.0013335432158783078,-0.00038815889274701476,0.0010370744857937098,1.0019806623458862,0.0,0.0,0.0,0.40386706590652466,-2.899151086807251,5.577328205108643,-73.10073852539062,0
1853.360999999999,-3.314263085485436e-05,0.00016374087135773152,-0.00034971084096468985,0.0,0.0,0.0,0.0,-0.00167214369866997,0.002055747201666236,-0.003474106779322028,1.0019989013671875,0.0,0.0,0.0,0.40360355377197266,-2.8911569118499756,5.571412563323975,-73.05305480957031,0
1863.277,1.0104021384904627e-05,0.00016588794824201614,-0.00037450724630616605,0.0,0.0,0.0,0.0,-0.0002523448783904314,0.001310050138272345,0.002314958954229951,0.997848391532898,0.0,0.0,0.0,0.4029219448566437,-2.8841755390167236,5.558376789093018,-72.92967987060547,0
1873.1749999999993,-1.532948954263702e-05,0.00018852876382879913,-0.0003900342562701553,0.0,0.0,0.0,0.0,-0.0026599313132464886,0.0031037337612360716,-0.0007089658174663782,0.998834490776062,0.0,0.0,0.0,0.4007301926612854,-2.8788576126098633,5.550815582275391,-72.532958984375,0
1883.0959999999995,2.3750799300614744e-05,0.00019646281725727022,-0.0004149726592004299,0.0,0.0,0.0,0.0,0.0001447834074497223,-0.0012212850851938128,-0.0007975640473887324,1.000372290611267,0.0,0.0,0.0,0.4014708995819092,-2.869830369949341,5.54937744140625,-72.66703033447266,0
1892.9979999999996,-5.465124559123069e-06,0.00022039419854991138,-0.00043301552068442106,0.0,0.0,0.0,0.0,-0.0024208552204072475,-0.004918844439089298,0.0023070506285876036,0.998697817325592,0.0,0.0,0.0,0.4011392295360565,-2.863548994064331,5.5428547859191895,-72.60700225830078,0
1902.9189999999999,3.509691305225715e-05,0.0002240510657429695,-0.00046678283251821995,0.0,0.0,0.0,0.0,-0.00043149388511665165,0.0007398055167868733,0.0009472612873651087,0.9996843338012695,0.0,0.0,0.0,0.4014246165752411,-2.854667901992798,5.5426130294799805,-72.65865325927734,0
1912.8229999999985,5.8463047025725245e-06,0.0002469716710038483,-0.00048713613068684936,0.0,0.0,0.0,0.0,-0.005180032458156347,-0.0004897173494100571,-0.0012091564713045955,1.0016984939575195,0.0,0.0,0.0,0.4013771116733551,-2.8481554985046387,5.541306972503662,-72.65005493164062,0
1922.744999999999,2.5426370484638028e-05,0.0002706435334403068,-0.0004928220296278596,0.0,0.0,0.0,0.0,-0.0033146697096526623,-0.0013872553827241063,0.0031677810475230217,0.9986640810966492,0.0,0.0,0.0,0.40056246519088745,-2.842607021331787,5.531719207763672,-72.50260162353516,0
1932.6509999999998,-9.682586824055761e-05,0.0001729764771880582,-0.00033191771944984794,0.0,0.0,0.0,0.0,-0.0005375340115278959,-0.001746031572110951,-0.001509711379185319,0.9986190795898438,0.0,0.0,0.0,0.4003649950027466,-2.8335773944854736,5.528194427490234,-72.46686553955078,0
1942.571,-5.039932148065418e-05,0.00016302673611789942,-0.0003028164792340249,0.0,0.0,0.0,0.0,-0.0020707696676254272,-0.004047556780278683,0.0008706391090527177,0.9977483749389648,0.0,0.0,0.0,0.4002099633216858,-2.819376230239868,5.523012638092041,-72.43879699707031,0
1952.4659999999985,-8.480940596200526e-05,0.00018707159324549139,-0.00031311975908465683,0.0,0.0,0.0,0.0,0.0036214215215295553,0.0021753001492470503,0.0009247470297850668,0.9985916614532471,0.0,0.0,0.0,0.399793416261673,-2.8171725273132324,5.521057605743408,-72.3634033203125,0
1962.3849999999984,-1.8853334040613845e-05,0.00018568680388852954,-0.00030819911626167595,0.0,0.0,0.0,0.0,0.0010203623678535223,-0.001108231139369309,0.0014504636637866497,1.0008848905563354,0.0,0.0,0.0,0.4061565101146698,-2.8277249336242676,5.53277587890625,-73.51512908935547,0
1972.2879999999986,-5.1748451369348913e-05,0.00021172527340240777,-0.0003206034016329795,0.0,0.0,0.0,0.0,0.0003365956072229892,-0.0016300610732287169,-0.004429575987160206,0.9995478987693787,0.0,0.0,0.0,0.40540310740470886,-2.8303580284118652,5.52724552154541,-73.3787612915039,0
1982.2109999999993,-2.198040056100581e-05,0.00021337353973649442,-0.0003481944731902331,0.0,0.0,0.0,0.0,0.001071531092748046,0.0013794831465929747,0.00035481929080560803,0.9999710917472839,0.0,0.0,0.0,0.40376487374305725,-2.8235957622528076,5.526665210723877,-73.0822525024414,0
1992.1079999999984,-0.00014318031026050448,0.0001421452616341412,-0.00023405574029311538,0.0,0.0,0.0,0.0,0.0013540645595639944,0.0010650800541043282,0.003192788688465953,1.0003547668457031,0.0,0.0,0.0,0.40330591797828674,-2.8231959342956543,5.521744251251221,-72.99917602539062,0
2002.0289999999986,-6.188404222484678e-05,0.00011468349839560688,-0.00019599257211666554,0.0,0.0,0.0,0.0,-0.003912927117198706,-0.005922677926719189,0.0015750816091895103,1.00077223777771,0.0,0.0,0.0,0.40873298048973083,-2.8297839164733887,5.517993450164795,-73.98148345947266,0
2011.929,-0.0001333385444013402,0.00010840965114766732,-0.00016548611165490001,0.0,0.0,0.0,0.0,-0.0023678368888795376,-0.00036820766399614513,0.0018206479726359248,0.9988552331924438,0.0,0.0,0.0,0.40907180309295654,-2.8290514945983887,5.518683910369873,-74.04280853271484,0
2021.8559999999998,-0.00012058165157213807,9.883541497401893e-05,-0.00014561088755726814,0.0,0.0,0.0,0.0,0.00013894736184738576,0.004555460065603256,-0.0018976138671860099,0.9983844757080078,0.0,0.0,0.0,0.407781720161438,-2.80595064163208,5.512784004211426,-73.80931091308594,0
2031.7569999999996,-0.00012058165157213807,9.883541497401893e-05,-0.00014561088755726814,0.0,0.0,0.0,0.0,-0.0004613340424839407,-0.004573129117488861,0.004882315639406443,0.9982596039772034,0.0,0.0,0.0,0.407781720161438,-2.80595064163208,5.512784004211426,-73.80931091308594,0
2041.6759999999995,-0.0001086457195924595,0.00011973694199696183,-0.00013780256267637014,0.0,0.0,0.0,0.0,0.001296477159485221,0.003759412094950676,-0.001807263121008873,0.9989479780197144,0.0,0.0,0.0,0.41180577874183655,-2.806727886199951,5.511683940887451,-74.53766632080078,0
2051.5729999999985,-0.0001086457195924595,0.00011973694199696183,-0.00013780256267637014,0.0,0.0,0.0,0.0,-0.0010262689320370555,-0.0006287689320743084,-0.0002820439694914967,0.9988876581192017,0.0,0.0,0.0,0.41180577874183655,-2.806727886199951,5.511683940887451,-74.53766632080078,0
2061.4979999999996,-9.588807006366551e-05,0.00014349825505632907,-0.00014660204760730267,0.0,0.0,0.0,0.0,-0.0012684467947110534,-0.0034104548394680023,0.0024552352260798216,0.9990358352661133,0.0,0.0,0.0,0.4112056791782379,-2.808924436569214,5.50629186630249,-74.42904663085938,0
2071.396999999999,-9.899665019474924e-05,0.000135315814986825,-0.0001697646512184292,0.0,0.0,0.0,0.0,0.0015682399971410632,0.0007509104907512665,-0.0005243485793471336,0.9988197088241577,0.0,0.0,0.0,0.4112056791782379,-2.808924436569214,5.50629186630249,-74.42904663085938,0
2081.324999999999,-4.7159031964838505e-05,8.049382449826226e-05,-0.0001774009724613279,0.0,0.0,0.0,0.0,0.0046075074933469296,0.0019447506638243794,-0.0006367776659317315,1.0009959936141968,0.0,0.0,0.0,0.41025713086128235,-2.8042895793914795,5.508237838745117,-74.25735473632812,0
2091.2259999999987,-8.968931797426194e-05,0.00010224916331935674,-0.0001861201017163694,0.0,0.0,0.0,0.0,-0.0042000082321465015,0.001910768449306488,0.00133884244132787,1.0020588636398315,0.0,0.0,0.0,0.409074068069458,-2.8029565811157227,5.503210067749023,-74.043212890625,0
2101.1399999999994,-4.955781332682818e-05,0.00011012199684046209,-0.00017882173415273428,0.0,0.0,0.0,0.0,0.0003764291759580374,0.004539115354418755,-0.0008164209430105984,0.9992156624794006,0.0,0.0,0.0,0.4079003930091858,-2.794901132583618,5.487817764282227,-73.83078002929688,0
2111.0429999999997,-0.00010134009789908305,0.0001213167779496871,-0.00019444298231974244,0.0,0.0,0.0,0.0,0.0005227800575084984,0.0010840496979653835,0.00024301659141201526,0.9981197714805603,0.0,0.0,0.0,0.40801694989204407,-2.7860329151153564,5.478867053985596,-73.85188293457031,0
