timestamp,stateEstimate.x,stateEstimate.y,stateEstimate.z,controller.cmd_thrust,controller.cmd_roll,controller.cmd_pitch,controller.cmd_yaw,controller.r_roll,controller.r_pitch,controller.r_yaw,controller.accelz,controller.actuatorThrust,controller.roll,controller.pitch,controller.yaw,controller.rollRate,controller.pitchRate,controller.yawRate,controller.ctr_yaw
0.0,-0.02182208001613617,-0.0071443794295191765,0.00015066194464452565,0.0,0.0,0.0,0.0,0.004992426838725805,-0.004657783545553684,0.0019866223447024822,1.0016553401947021,0.0,0.0,0.0,-9.906817436218262,-0.898090124130249,3.3817014694213867,1793.1536865234375,0
9.902999999998428,-0.02181442826986313,-0.007121491711586714,0.00014269331586547196,0.0,0.0,0.0,0.0,-0.00018014779197983444,0.0008378323400393128,-0.0014045181451365352,0.9975060820579529,0.0,0.0,0.0,-9.89628791809082,-0.8954980969429016,3.385380506515503,1791.2476806640625,0
19.81499999999869,-0.021836886182427406,-0.007161014247685671,0.0001310099905822426,0.0,0.0,0.0,0.0,0.0006002133013680577,-0.0046469238586723804,0.0027781855314970016,0.9985404014587402,0.0,0.0,0.0,-9.893891334533691,-0.9085488319396973,3.384096145629883,1790.81396484375,0
29.726999999998952,-0.02181989885866642,-0.007099220063537359,0.00019513875304255635,0.0,0.0,0.0,0.0,0.0014244449557736516,-0.0009428916964679956,0.001334399450570345,0.9969519376754761,0.0,0.0,0.0,-9.904844284057617,-0.8923431634902954,3.4042272567749023,1792.7965087890625,0
39.63799999999901,-0.021865375339984894,-0.007187392562627792,0.00016457383753731847,0.0,0.0,0.0,0.0,-0.0013429067330434918,0.002476814202964306,0.00023597251856699586,0.9980022311210632,0.0,0.0,0.0,-9.900650978088379,-0.9110260009765625,3.4039089679718018,1792.0374755859375,0
49.54399999999987,-0.02186037041246891,-0.007168489973992109,0.00015288774739019573,0.0,0.0,0.0,0.0,-0.00018973115948028862,0.004559450317174196,-0.0009520154562778771,1.000724196434021,0.0,0.0,0.0,-9.891644477844238,-0.9114090800285339,3.3967349529266357,1790.4072265625,0
59.45899999999892,-0.021870344877243042,-0.007217605598270893,0.00011246316717006266,0.0,0.0,0.0,0.0,-0.0011890142923220992,-0.003844219958409667,-0.0005542509607039392,1.0012800693511963,0.0,0.0,0.0,-9.881465911865234,-0.9156951904296875,3.385619878768921,1788.5650634765625,0
69.36699999999837,-0.02186603657901287,-0.007198918145149946,0.00010040393681265414,0.0,0.0,0.0,0.0,-0.001471159397624433,0.0009348610183224082,0.0011949430918321013,1.0019774436950684,0.0,0.0,0.0,-9.871634483337402,-0.9152122735977173,3.3902127742767334,1786.7855224609375,0
79.27700000000004,-0.021862249821424484,-0.007178652565926313,8.986415923573077e-05,0.0,0.0,0.0,0.0,0.00015249272109940648,0.002009189687669277,-0.0024286797270178795,0.9988356828689575,0.0,0.0,0.0,-9.8624267578125,-0.9147246479988098,3.386334180831909,1785.1190185546875,0
89.18299999999908,-0.021869750693440437,-0.00719273928552866,6.779975956305861e-05,0.0,0.0,0.0,0.0,0.0012179978657513857,-0.0012917027343064547,0.002159611089155078,0.9994969367980957,0.0,0.0,0.0,-9.861335754394531,-0.926049530506134,3.3776586055755615,1784.92138671875,0
99.09799999999996,-0.021867593750357628,-0.007173130288720131,5.5902142776176333e-05,0.0,0.0,0.0,0.0,0.0011703713098540902,-0.0010831896215677261,-8.972912473836914e-05,1.0004472732543945,0.0,0.0,0.0,-9.85135555267334,-0.9294326305389404,3.373234748840332,1783.114990234375,0
109.01399999999921,-0.021892614662647247,-0.007235229015350342,1.6556663467781618e-05,0.0,0.0,0.0,0.0,0.0009719877270981669,-0.007561001926660538,-0.0037986072711646557,1.0009772777557373,0.0,0.0,0.0,-9.851810455322266,-0.9633381366729736,3.3650758266448975,1783.1971435546875,0
118.91899999999987,-0.021894624456763268,-0.007221592124551535,3.407523763598874e-06,0.0,0.0,0.0,0.0,0.002673492534086108,0.0014017814537510276,-0.0012362600537016988,1.0005788803100586,0.0,0.0,0.0,-9.842018127441406,-0.9639580249786377,3.3726019859313965,1781.4248046875,0
128.83100000000013,-0.021906958892941475,-0.007226519752293825,-1.4997608559497166e-05,0.0,0.0,0.0,0.0,-0.0027797510847449303,-0.002231353661045432,-0.0007481190841645002,0.9995612502098083,0.0,0.0,0.0,-9.842132568359375,-0.9762817025184631,3.36336612701416,1781.4454345703125,0
138.75099999999838,-0.021909691393375397,-0.007214633282274008,-2.82681685348507e-05,0.0,0.0,0.0,0.0,1.8706788978306577e-05,-0.0037978030741214752,-0.0008300993940792978,0.9976561069488525,0.0,0.0,0.0,-9.832355499267578,-0.9694564938545227,3.3697428703308105,1779.676025390625,0
148.65499999999884,-0.02190352976322174,-0.007251656148582697,-9.52815025812015e-05,0.0,0.0,0.0,0.0,0.0013924197992309928,0.0015977537259459496,-0.0025726547464728355,0.9992309808731079,0.0,0.0,0.0,-9.821802139282227,-0.9636457562446594,3.372305393218994,1777.7657470703125,0
158.5659999999989,-0.02190428599715233,-0.007242610678076744,-0.00011497391096781939,0.0,0.0,0.0,0.0,-0.000244229071540758,4.116628770134412e-05,-0.000538024993147701,0.9995284080505371,0.0,0.0,0.0,-9.81273078918457,-0.9693604111671448,3.367438316345215,1776.123779296875,0
168.47199999999975,-0.021901125088334084,-0.007274340372532606,-0.00017852407472673804,0.0,0.0,0.0,0.0,0.0002640042803250253,-0.0008681180770508945,0.0034753596410155296,0.9992644786834717,0.0,0.0,0.0,-9.802720069885254,-0.9719797968864441,3.363990545272827,1774.3118896484375,0
178.3849999999984,-0.021903157234191895,-0.007267849054187536,-0.00020160949497949332,0.0,0.0,0.0,0.0,-0.0024306979030370712,-0.0034511571284383535,0.0011031213216483593,1.0020415782928467,0.0,0.0,0.0,-9.791923522949219,-0.9663258194923401,3.360206127166748,1772.3575439453125,0
188.29599999999846,-0.021900001913309097,-0.007242424413561821,-0.00022207241272553802,0.0,0.0,0.0,0.0,-0.0038896449841558933,-6.136009324109182e-05,0.0011454143095761538,0.9999507665634155,0.0,0.0,0.0,-9.797623634338379,-0.9541794061660767,3.364475965499878,1773.389404296875,0
198.20699999999852,-0.02190076932311058,-0.007235100492835045,-0.00024343127734027803,0.0,0.0,0.0,0.0,0.000720710726454854,0.0012244473909959197,-0.0005247271619737148,1.0000040531158447,0.0,0.0,0.0,-9.788004875183105,-0.9485439658164978,3.351550817489624,1771.6484375,0
208.11399999999958,-0.021912135183811188,-0.007217303849756718,-0.00025932997232303023,0.0,0.0,0.0,0.0,3.6200776776240673e-06,-0.0005761523498222232,0.0025474766734987497,0.9993304014205933,0.0,0.0,0.0,-9.778094291687012,-0.9567477703094482,3.344414234161377,1769.8544921875,0
218.02999999999884,-0.02191470004618168,-0.007208630908280611,-0.0002805167168844491,0.0,0.0,0.0,0.0,-0.0005862015532329679,0.0011800756910815835,0.002641713712364435,0.9987162947654724,0.0,0.0,0.0,-9.76773452758789,-0.9618157148361206,3.343369722366333,1767.9794921875,0
227.9509999999991,-0.021930627524852753,-0.0071936496533453465,-0.00029790448024868965,0.0,0.0,0.0,0.0,-0.001645813463255763,-0.003424638882279396,-0.0021522475872188807,1.0023044347763062,0.0,0.0,0.0,-9.771697998046875,-0.9549086093902588,3.336501121520996,1768.69677734375,0
237.85099999999875,-0.02193584106862545,-0.007185669615864754,-0.0003180784697178751,0.0,0.0,0.0,0.0,-0.0017759918700903654,-0.004327364265918732,-0.004860290791839361,1.0018929243087769,0.0,0.0,0.0,-9.762911796569824,-0.9519490599632263,3.3400447368621826,1767.1064453125,0
247.76699999999983,-0.021995121613144875,-0.007197795435786247,-0.00031925260554999113,0.0,0.0,0.0,0.0,0.0013374160043895245,0.002135719172656536,0.0002444738638587296,0.9981299638748169,0.0,0.0,0.0,-9.767606735229492,-0.9627774953842163,3.324601173400879,1767.9561767578125,0
257.6799999999985,-0.022004811093211174,-0.007191007491201162,-0.0003361208364367485,0.0,0.0,0.0,0.0,0.002303175628185272,0.003469473449513316,0.00038354183197952807,0.998175859451294,0.0,0.0,0.0,-9.758508682250977,-0.9624574184417725,3.317383289337158,1766.3094482421875,0
267.58100000000013,-0.02205883339047432,-0.007162988185882568,-0.00032516175997443497,0.0,0.0,0.0,0.0,-0.0013068892294541001,0.0007303694146685302,0.0014128632610663772,0.9993981122970581,0.0,0.0,0.0,-9.761619567871094,-0.9664416313171387,3.2931249141693115,1766.87255859375,0
277.491,-0.022072341293096542,-0.0071509298868477345,-0.00034143158700317144,0.0,0.0,0.0,0.0,-0.0003513818664941937,0.0012903462629765272,0.002388761378824711,0.9996579885482788,0.0,0.0,0.0,-9.752273559570312,-0.9643428921699524,3.2840778827667236,1765.1810302734375,0
287.41100000000006,-0.022085847333073616,-0.007137028966099024,-0.00035793863935396075,0.0,0.0,0.0,0.0,0.0005422499962151051,-0.0012365487636998296,0.0012211835710331798,0.9989491105079651,0.0,0.0,0.0,-9.742363929748535,-0.9636605381965637,3.2820911407470703,1763.3873291015625,0
297.3139999999985,-0.02209939993917942,-0.0071210358291864395,-0.00037536220042966306,0.0,0.0,0.0,0.0,-0.0022836325224488974,-0.0010023866780102253,-0.0008059331448748708,0.9989280104637146,0.0,0.0,0.0,-9.732478141784668,-0.9700307846069336,3.2770907878875732,1761.597900390625,0
307.23299999999836,-0.022114869207143784,-0.007102463394403458,-0.00039370390004478395,0.0,0.0,0.0,0.0,-0.002240187721326947,0.002388762077316642,-0.0026934498455375433,1.0003682374954224,0.0,0.0,0.0,-9.72358512878418,-0.964077353477478,3.275878667831421,1759.98828125,0
317.1359999999986,-0.022133029997348785,-0.00708157429471612,-0.00041238177800551057,0.0,0.0,0.0,0.0,-0.00048342160880565643,-0.00532334903255105,0.0018424242734909058,0.9991470575332642,0.0,0.0,0.0,-9.714522361755371,-0.9608479738235474,3.2754833698272705,1758.3477783203125,0
327.04599999999846,-0.02182062529027462,-0.0071600270457565784,6.349108298309147e-05,0.0,0.0,0.0,0.0,0.0013743595918640494,-0.0006577729946002364,0.00041740579763427377,1.0009782314300537,0.0,0.0,0.0,-9.748297691345215,-0.9407910108566284,3.316107988357544,1764.461181640625,0
336.95600000000013,-0.021829036995768547,-0.007137547247111797,6.479580770246685e-05,0.0,0.0,0.0,0.0,-0.0006455198745243251,-0.000957920157816261,-0.0010784054175019264,1.0005522966384888,0.0,0.0,0.0,-9.739346504211426,-0.9390155076980591,3.3097639083862305,1762.841064453125,0
346.8679999999986,-0.021838728338479996,-0.007113465573638678,6.68957072775811e-05,0.0,0.0,0.0,0.0,0.0012132269330322742,0.004000046756118536,-0.00010342197492718697,0.9987891316413879,0.0,0.0,0.0,-9.72953987121582,-0.9389965534210205,3.307559013366699,1761.06591796875,0
356.77899999999863,-0.021850142627954483,-0.007087375037372112,6.866207695566118e-05,0.0,0.0,0.0,0.0,-0.0027894186787307262,-0.004920575302094221,0.0010598698863759637,0.9996647834777832,0.0,0.0,0.0,-9.719910621643066,-0.9451066255569458,3.296322822570801,1759.3231201171875,0
366.6929999999993,-0.021813850849866867,-0.00706173712387681,0.00012937725114170462,0.0,0.0,0.0,0.0,-0.0007120542577467859,-0.0019735884852707386,0.0018461537547409534,1.0014960765838623,0.0,0.0,0.0,-9.754433631896973,-0.934508740901947,3.3093793392181396,1765.572021484375,0
376.60199999999895,-0.021826574578881264,-0.007031086832284927,0.00013485703675542027,0.0,0.0,0.0,0.0,-0.0003356891102157533,0.0003991392150055617,0.0017158443806692958,1.0015345811843872,0.0,0.0,0.0,-9.744793891906738,-0.9309198260307312,3.3071224689483643,1763.8270263671875,0
386.5149999999994,-0.021784018725156784,-0.007010748144239187,0.00015407052705995739,0.0,0.0,0.0,0.0,0.0026994424406439066,-0.0013711563078686595,0.0036568352952599525,1.0011773109436035,0.0,0.0,0.0,-9.778937339782715,-0.9258613586425781,3.3185060024261475,1770.0069580078125,0
396.42299999999886,-0.021793894469738007,-0.00698078703135252,0.0001621641858946532,0.0,0.0,0.0,0.0,-0.0014651442179456353,-0.003385531483218074,-0.0013280578423291445,1.000368356704712,0.0,0.0,0.0,-9.767704010009766,-0.9274770617485046,3.3221116065979004,1767.9737548828125,0
406.3329999999987,-0.021761847659945488,-0.006955944932997227,0.0001638710091356188,0.0,0.0,0.0,0.0,0.0021510764490813017,-0.001871081069111824,0.0007065021200105548,1.0007290840148926,0.0,0.0,0.0,-9.801000595092773,-0.9267603754997253,3.345942497253418,1774.0006103515625,0
416.2439999999988,-0.021769754588603973,-0.006922767031937838,0.00017285349895246327,0.0,0.0,0.0,0.0,-0.0009619187330827117,0.004657544195652008,-0.0014875156339257956,1.0027798414230347,0.0,0.0,0.0,-9.789909362792969,-0.9318186044692993,3.337980031967163,1771.9931640625,0
426.15599999999904,-0.021753348410129547,-0.006917064543813467,0.00013451847189571708,0.0,0.0,0.0,0.0,-0.0006770552136003971,0.0012724400730803609,0.0004959561047144234,1.0016440153121948,0.0,0.0,0.0,-9.815261840820312,-0.9381305575370789,3.3415894508361816,1776.58203125,0
436.0659999999989,-0.021758422255516052,-0.006880010012537241,0.00014444433327298611,0.0,0.0,0.0,0.0,0.0008663864573463798,0.0010629362659528852,-0.0040234713815152645,1.0009615421295166,0.0,0.0,0.0,-9.80582046508789,-0.9385393261909485,3.331735849380493,1774.8731689453125,0
445.9939999999988,-0.021726951003074646,-0.006842035800218582,0.00014111868222244084,0.0,0.0,0.0,0.0,0.0017875093035399914,0.0012265114346519113,-0.0016395548591390252,0.9987044334411621,0.0,0.0,0.0,-9.830434799194336,-0.9421000480651855,3.3398940563201904,1779.328369140625,0
455.8919999999998,-0.021729689091444016,-0.0068010324612259865,0.0001509110734332353,0.0,0.0,0.0,0.0,-0.0015555258141830564,-0.003924662712961435,0.0011165689211338758,0.9998494982719421,0.0,0.0,0.0,-9.821854591369629,-0.9345564246177673,3.344304323196411,1777.7752685546875,0
465.8139999999985,-0.021758433431386948,-0.00679669389501214,0.00010004588693846017,0.0,0.0,0.0,0.0,-0.001500693499110639,-0.0012998918537050486,-0.00204525631852448,1.00125253200531,0.0,0.0,0.0,-9.84365177154541,-0.9450638294219971,3.359563112258911,1781.720458984375,0
475.71399999999994,-0.02176331728696823,-0.00675599230453372,0.00010558830399531871,0.0,0.0,0.0,0.0,-0.002170660300180316,0.0018624508520588279,0.0014196928823366761,0.9990079402923584,0.0,0.0,0.0,-9.83544635772705,-0.948120653629303,3.355825662612915,1780.2354736328125,0
485.6389999999992,-0.021720973774790764,-0.006742467172443867,7.303470920305699e-05,0.0,0.0,0.0,0.0,0.0010820855386555195,-0.0021708745043724775,0.005450042430311441,0.9992647767066956,0.0,0.0,0.0,-9.854421615600586,-0.9607953429222107,3.3743340969085693,1783.669921875,0
495.53499999999985,-0.02172364667057991,-0.006702849175781012,7.509822899010032e-05,0.0,0.0,0.0,0.0,0.0014357402687892318,-0.0028284199070185423,-0.0035401415079832077,1.0009181499481201,0.0,0.0,0.0,-9.843708992004395,-0.9660555124282837,3.365394353866577,1781.73095703125,0
505.4569999999985,-0.021725546568632126,-0.006662071216851473,7.759161235298961e-05,0.0,0.0,0.0,0.0,-0.0003466418129391968,-0.0005773081793449819,-0.00040106510277837515,1.0001641511917114,0.0,0.0,0.0,-9.834075927734375,-0.9679623246192932,3.369412422180176,1779.9871826171875,0
515.3539999999994,-0.0216810405254364,-0.00666910782456398,2.8933009161846712e-05,0.0,0.0,0.0,0.0,9.26127268030541e-06,-0.0045045106671750546,0.0021290734875947237,0.99809730052948,0.0,0.0,0.0,-9.859403610229492,-0.9862366318702698,3.3915469646453857,1784.5716552734375,0
525.2699999999986,-0.021830281242728233,-0.006950918585062027,0.00033620555768720806,0.0,0.0,0.0,0.0,-0.00019346862973179668,-0.002947475528344512,-0.0025459195021539927,0.9988619089126587,0.0,0.0,0.0,-9.84942626953125,-1.0601515769958496,3.3847901821136475,1782.7657470703125,0
535.1799999999985,-0.02179083041846752,-0.006970415357500315,0.00035426742397248745,0.0,0.0,0.0,0.0,-0.0020892065949738026,0.0015158873284235597,0.0029727108776569366,1.00066077709198,0.0,0.0,0.0,-9.871898651123047,-1.0681089162826538,3.398897647857666,1786.8333740234375,0
545.0969999999998,-0.021822655573487282,-0.007039519492536783,0.0003023903409484774,0.0,0.0,0.0,0.0,-0.004021746572107077,0.0002914489305112511,-0.000484815682284534,1.001190185546875,0.0,0.0,0.0,-9.869677543640137,-1.0817439556121826,3.390313148498535,1786.43115234375,0
555.0,-0.021777482703328133,-0.007078069262206554,0.00031609879806637764,0.0,0.0,0.0,0.0,0.0011890706373378634,0.0003292643232271075,0.00022402526519726962,1.0012669563293457,0.0,0.0,0.0,-9.893498420715332,-1.0822882652282715,3.4019339084625244,1790.742919921875,0
564.9209999999985,-0.021843215450644493,-0.007199508603662252,0.00029680412262678146,0.0,0.0,0.0,0.0,-0.0011726979864761233,-0.0024217022582888603,0.001332743326202035,1.0010216236114502,0.0,0.0,0.0,-9.891061782836914,-1.1010712385177612,3.391413688659668,1790.3018798828125,0
574.8199999999997,-0.021846724674105644,-0.0071891783736646175,0.00029677938437089324,0.0,0.0,0.0,0.0,-0.0012547571677714586,-0.0016487862449139357,0.0009354071808047593,0.9986331462860107,0.0,0.0,0.0,-9.87956714630127,-1.0991426706314087,3.4006187915802,1788.22119140625,0
584.7399999999998,-0.021850261837244034,-0.007178011350333691,0.00029639748390764,0.0,0.0,0.0,0.0,0.0001329334481852129,0.00243985652923584,-0.002982698380947113,0.99974125623703,0.0,0.0,0.0,-9.86937141418457,-1.0947058200836182,3.4035279750823975,1786.3758544921875,0
594.6409999999996,-0.021854355931282043,-0.0071672298945486546,0.00029554322827607393,0.0,0.0,0.0,0.0,0.0006084898486733437,-0.00046169463894329965,0.0019234479404985905,0.9989622235298157,0.0,0.0,0.0,-9.861255645751953,-1.0909768342971802,3.396789312362671,1784.9068603515625,0
604.5599999999995,-0.021858980879187584,-0.007156936451792717,0.0002941618440672755,0.0,0.0,0.0,0.0,0.0008118354598991573,-0.004660440143197775,0.0012755242642015219,0.9992383718490601,0.0,0.0,0.0,-9.850610733032227,-1.0944960117340088,3.3972442150115967,1782.9801025390625,0
614.4639999999999,-0.0218639075756073,-0.0071455324068665504,0.0002922881976701319,0.0,0.0,0.0,0.0,0.001753899734467268,0.0031569884158670902,0.0004318256687838584,0.9998214840888977,0.0,0.0,0.0,-9.841364860534668,-1.0957286357879639,3.4083425998687744,1781.306640625,0
624.3869999999988,-0.021867791190743446,-0.007132154889404774,0.000290116760879755,0.0,0.0,0.0,0.0,0.0010496657341718674,-0.003902225522324443,-0.006132804788649082,1.0003176927566528,0.0,0.0,0.0,-9.830513000488281,-1.0983847379684448,3.4036617279052734,1779.3424072265625,0
634.2860000000001,-0.021870577707886696,-0.007117641158401966,0.00028822425520047545,0.0,0.0,0.0,0.0,0.0014689374947920442,-0.0011828839778900146,-0.000763359188567847,1.0011951923370361,0.0,0.0,0.0,-9.821256637573242,-1.1043742895126343,3.4189281463623047,1777.6668701171875,0
644.2060000000001,-0.021873248741030693,-0.007102767005562782,0.0002871828037314117,0.0,0.0,0.0,0.0,0.00012740588863380253,-0.0004979817313142121,0.0012425462482497096,1.0004668235778809,0.0,0.0,0.0,-9.811651229858398,-1.1067713499069214,3.4200286865234375,1775.9283447265625,0
654.1099999999988,-0.021875595673918724,-0.007086970377713442,0.000286608817987144,0.0,0.0,0.0,0.0,0.0018762488616630435,-0.00500996271148324,0.000818747968878597,0.9997067451477051,0.0,0.0,0.0,-9.800997734069824,-1.1073799133300781,3.422865867614746,1774.0001220703125,0
664.0289999999986,-0.0218778345733881,-0.007069154176861048,0.00028584920801222324,0.0,0.0,0.0,0.0,-0.0009643188095651567,-0.003731431672349572,0.005688210483640432,0.9986531138420105,0.0,0.0,0.0,-9.79127025604248,-1.111183762550354,3.428666830062866,1772.2392578125,0
673.9329999999991,-0.021881550550460815,-0.007048832718282938,0.00028422032482922077,0.0,0.0,0.0,0.0,0.0006587629322893918,-0.0005026829894632101,0.0026592325884848833,0.9994521141052246,0.0,0.0,0.0,-9.779471397399902,-1.109242558479309,3.4251022338867188,1770.103759765625,0
683.8539999999994,-0.02188735269010067,-0.007026310544461012,0.00028184824623167515,0.0,0.0,0.0,0.0,0.00073103082831949,0.004873280879110098,-0.0040869261138141155,1.0002058744430542,0.0,0.0,0.0,-9.769912719726562,-1.1129180192947388,3.421696901321411,1768.3736572265625,0
693.7519999999986,-0.021894460543990135,-0.007001270540058613,0.000280051666777581,0.0,0.0,0.0,0.0,-0.0018654471496120095,0.0013353487011045218,-0.0031605735421180725,1.001815676689148,0.0,0.0,0.0,-9.760859489440918,-1.1158387660980225,3.414276123046875,1766.735107421875,0
703.6779999999999,-0.021916920319199562,-0.007190953008830547,1.2203247024444863e-05,0.0,0.0,0.0,0.0,-0.00034993269946426153,-0.0019239734392613173,-0.004296962637454271,1.002793550491333,0.0,0.0,0.0,-9.762055397033691,-1.173379898071289,3.416764974594116,1766.951416015625,0
713.5739999999987,-0.021927475929260254,-0.007174563594162464,4.620051186066121e-07,0.0,0.0,0.0,0.0,-0.0008737347670830786,0.00016990119183901697,0.0008416635100729764,1.001192569732666,0.0,0.0,0.0,-9.752323150634766,-1.1637840270996094,3.4146175384521484,1765.1898193359375,0
723.4889999999996,-0.021952824667096138,-0.007185131777077913,-3.1115778256207705e-05,0.0,0.0,0.0,0.0,0.0010417577577754855,-0.0021285931579768658,-0.002778414636850357,0.9976165890693665,0.0,0.0,0.0,-9.762537002563477,-1.1709586381912231,3.4103879928588867,1767.03857421875,0
733.3939999999984,-0.02196679823100567,-0.00717242481186986,-4.375205026008189e-05,0.0,0.0,0.0,0.0,0.00015290371084120125,0.0012565129436552525,0.0006531246472150087,0.9984523057937622,0.0,0.0,0.0,-9.75405216217041,-1.167671799659729,3.41450572013855,1765.5028076171875,0
743.3130000000001,-0.021982494741678238,-0.007161115761846304,-5.7897792430594563e-05,0.0,0.0,0.0,0.0,0.0014692924451082945,-0.0005431873141787946,0.0024092616513371468,0.9992602467536926,0.0,0.0,0.0,-9.744880676269531,-1.1697219610214233,3.405137538909912,1763.8427734375,0
753.2159999999985,-0.02199898473918438,-0.0071501038037240505,-7.300585275515914e-05,0.0,0.0,0.0,0.0,0.0006235626060515642,0.0034430024679750204,-0.0027884303126484156,1.0002247095108032,0.0,0.0,0.0,-9.733880043029785,-1.1702450513839722,3.4068684577941895,1761.8516845703125,0
763.143,-0.02201484516263008,-0.007137571927160025,-8.75990663189441e-05,0.0,0.0,0.0,0.0,0.00040441163582727313,-0.0041320063173770905,0.0054814922623336315,1.0038447380065918,0.0,0.0,0.0,-9.724444389343262,-1.1668102741241455,3.395932912826538,1760.143798828125,0
773.0379999999986,-0.02202971838414669,-0.007122437469661236,-0.00010007145465351641,0.0,0.0,0.0,0.0,-0.004861823283135891,0.00021307134011294693,-0.0024990197271108627,0.9999889135360718,0.0,0.0,0.0,-9.713383674621582,-1.1734963655471802,3.405851125717163,1758.1416015625,0
782.9599999999991,-0.02204509824514389,-0.007103953044861555,-0.00011231258395127952,0.0,0.0,0.0,0.0,0.003540269797667861,0.0030409786850214005,0.0013783688191324472,1.0002845525741577,0.0,0.0,0.0,-9.705120086669922,-1.1648443937301636,3.3989827632904053,1756.64599609375,0
792.8629999999994,-0.02205890789628029,-0.007087734993547201,-0.0001229781482834369,0.0,0.0,0.0,0.0,0.0010457744356244802,0.004204716999083757,-0.0013626456493511796,1.001438021659851,0.0,0.0,0.0,-9.695809364318848,-1.1720598936080933,3.3896677494049072,1754.960693359375,0
802.7999999999993,-0.02207265794277191,-0.007073909975588322,-0.00013276340905576944,0.0,0.0,0.0,0.0,-0.0011935181682929397,-0.0015762203838676214,-0.003430303419008851,1.000533103942871,0.0,0.0,0.0,-9.685986518859863,-1.1740268468856812,3.3799831867218018,1753.1829833984375,0
812.6939999999995,-0.021788284182548523,-0.0071406010538339615,0.0002294371952302754,0.0,0.0,0.0,0.0,-0.0005958260735496879,-0.0028247337322682142,-0.0025508867111057043,0.9990437626838684,0.0,0.0,0.0,-9.734733581542969,-1.1600533723831177,3.4290292263031006,1762.0062255859375,0
822.6049999999996,-0.021789314225316048,-0.0071321208961308,0.00023395247990265489,0.0,0.0,0.0,0.0,-0.0010053709847852588,6.986717198742554e-05,-0.0003289674350526184,1.0011008977890015,0.0,0.0,0.0,-9.725110054016113,-1.1663742065429688,3.4245970249176025,1760.2642822265625,0
832.5079999999998,-0.02178896963596344,-0.007121142465621233,0.00025249822647310793,0.0,0.0,0.0,0.0,-1.0920665772573557e-05,-0.0007080138311721385,0.0007064588717184961,1.0014159679412842,0.0,0.0,0.0,-9.766219139099121,-1.1656525135040283,3.4265003204345703,1767.705078125,0
842.4279999999999,-0.021789565682411194,-0.007112414576113224,0.0002599053841549903,0.0,0.0,0.0,0.0,0.0016437616432085633,0.002260447246953845,-0.0037997355684638023,1.0024933815002441,0.0,0.0,0.0,-9.755919456481934,-1.1627123355865479,3.425640106201172,1765.8408203125,0
852.3259999999991,-0.021797917783260345,-0.007076680660247803,0.00030271484865806997,0.0,0.0,0.0,0.0,0.0004933545715175569,0.0010964615503326058,-0.0001560079399496317,1.0019396543502808,0.0,0.0,0.0,-9.78661823272705,-1.1600837707519531,3.4127180576324463,1771.3974609375,0
862.2459999999992,-0.021796053275465965,-0.007063520140945911,0.00031571611179970205,0.0,0.0,0.0,0.0,0.00023143367434386164,-0.0034808218479156494,0.002033224795013666,0.9998888373374939,0.0,0.0,0.0,-9.776575088500977,-1.1574363708496094,3.4050540924072266,1769.5794677734375,0
872.1529999999984,-0.021782631054520607,-0.007042501121759415,0.0003341698902659118,0.0,0.0,0.0,0.0,0.00192157959099859,-0.0003337076341267675,0.003949117846786976,1.000846266746521,0.0,0.0,0.0,-9.81049919128418,-1.1564239263534546,3.4116575717926025,1775.719970703125,0
882.0739999999987,-0.021781885996460915,-0.007028460036963224,0.0003485057968646288,0.0,0.0,0.0,0.0,-0.002077188342809677,0.0040652817115187645,-0.006769130006432533,0.9994668960571289,0.0,0.0,0.0,-9.799715042114258,-1.156815528869629,3.402945041656494,1773.76806640625,0
891.9739999999983,-0.021776879206299782,-0.007018693722784519,0.00034764883457683027,0.0,0.0,0.0,0.0,-2.2759762941859663e-05,-0.005720066372305155,-0.002727495739236474,1.0013724565505981,0.0,0.0,0.0,-9.82761287689209,-1.1555180549621582,3.4051527976989746,1778.8175048828125,0
901.8919999999998,-0.02177688293159008,-0.007005554623901844,0.00036168177030049264,0.0,0.0,0.0,0.0,-0.0013507771072909236,-0.002068659057840705,-0.0018890531500801444,1.0006135702133179,0.0,0.0,0.0,-9.81735897064209,-1.1570234298706055,3.407623767852783,1776.9615478515625,0
911.7969999999987,-0.02177754044532776,-0.0069909668527543545,0.00037655155756510794,0.0,0.0,0.0,0.0,-0.0009452422964386642,-0.0005482622655108571,0.0035724807530641556,0.99934983253479,0.0,0.0,0.0,-9.808523178100586,-1.159433126449585,3.4105114936828613,1775.3623046875,0
921.7159999999985,-0.021779175847768784,-0.006975679192692041,0.00039112576632760465,0.0,0.0,0.0,0.0,0.00026586937019601464,0.0010707536712288857,-0.0010851003462448716,0.9974218010902405,0.0,0.0,0.0,-9.797903060913086,-1.154092788696289,3.409184694290161,1773.4400634765625,0
931.616,-0.02175968326628208,-0.006985054351389408,0.0003678790235426277,0.0,0.0,0.0,0.0,-0.00335893826559186,-0.0030202679336071014,0.001040753209963441,0.9986982345581055,0.0,0.0,0.0,-9.822622299194336,-1.1590008735656738,3.4186532497406006,1777.914306640625,0
941.5379999999986,-0.021762266755104065,-0.0069740451872348785,0.00037677198997698724,0.0,0.0,0.0,0.0,0.00013226247392594814,-0.00612372811883688,0.002571769990026951,0.9996615052223206,0.0,0.0,0.0,-9.812845230102539,-1.1519320011138916,3.423567533493042,1776.14453125,0
951.4399999999987,-0.021808577701449394,-0.00696219690144062,0.0003708117001224309,0.0,0.0,0.0,0.0,0.001999041298404336,0.0025363601744174957,-0.004808768164366484,0.9980672001838684,0.0,0.0,0.0,-9.841864585876465,-1.1530567407608032,3.421302556991577,1781.39697265625,0
961.3599999999988,-0.02181321196258068,-0.0069518620148301125,0.0003762704727705568,0.0,0.0,0.0,0.0,-0.00028361991280689836,-0.0022230297327041626,-0.0018539176089689136,0.9982129335403442,0.0,0.0,0.0,-9.833562850952148,-1.1517647504806519,3.4032020568847656,1779.8944091796875,0
971.2579999999998,-0.021795235574245453,-0.006962574552744627,0.00034807747579179704,0.0,0.0,0.0,0.0,0.0014941978733986616,0.0017928993329405785,-0.0006029114592820406,1.0024057626724243,0.0,0.0,0.0,-9.85502815246582,-1.1603612899780273,3.4179155826568604,1783.779541015625,0
981.1809999999987,-0.021801555529236794,-0.006953930016607046,0.00035170899354852736,0.0,0.0,0.0,0.0,0.0021720053628087044,-0.0019967607222497463,0.0009080260060727596,1.0019381046295166,0.0,0.0,0.0,-9.845705032348633,-1.166561484336853,3.4097795486450195,1782.092041015625,0
991.0879999999997,-0.02183143049478531,-0.006939133629202843,0.00034289018367417157,0.0,0.0,0.0,0.0,0.000787892728112638,0.0045236581936478615,0.001968220341950655,0.998887836933136,0.0,0.0,0.0,-9.86994457244873,-1.1703171730041504,3.400317668914795,1786.479736328125,0
1000.9979999999996,-0.021843381226062775,-0.006929740775376558,0.00034739161492325366,0.0,0.0,0.0,0.0,0.001056211651302874,-0.0003895872796420008,-0.0005704067880287766,0.9994440674781799,0.0,0.0,0.0,-9.8600435256958,-1.169405221939087,3.3873963356018066,1784.6875,0
1010.9039999999986,-0.021821163594722748,-0.006951295770704746,0.00031624207622371614,0.0,0.0,0.0,0.0,-0.0012177665485069156,0.0011560231214389205,0.0003049937658943236,1.000293493270874,0.0,0.0,0.0,-9.877827644348145,-1.1806036233901978,3.409259557723999,1787.906494140625,0
1020.8289999999997,-0.021915879100561142,-0.007113906089216471,0.0004114101466257125,0.0,0.0,0.0,0.0,0.0005716289160773158,-0.002119367476552725,-0.00038884711102582514,1.002685308456421,0.0,0.0,0.0,-9.880475997924805,-1.2188193798065186,3.4044158458709717,1788.3858642578125,0
1030.732,-0.021928749978542328,-0.007114233449101448,0.0004147216968704015,0.0,0.0,0.0,0.0,0.0008121973951347172,-0.00411220733076334,-6.306484283413738e-05,1.0028787851333618,0.0,0.0,0.0,-9.870062828063965,-1.21853768825531,3.407233476638794,1786.5009765625,0
1040.6439999999984,-0.021916918456554413,-0.007146001793444157,0.0002643416228238493,0.0,0.0,0.0,0.0,-0.0021606707014143467,0.004126113839447498,0.0021073713432997465,0.9990822076797485,0.0,0.0,0.0,-9.860579490661621,-1.2180200815200806,3.399728536605835,1784.7845458984375,0
1050.5469999999987,-0.021875327453017235,-0.007160460110753775,0.00035095406929031014,0.0,0.0,0.0,0.0,0.002006476279348135,6.17452897131443e-05,-0.0016388101503252983,0.9999528527259827,0.0,0.0,0.0,-9.882128715515137,-1.2132420539855957,3.4009790420532227,1788.684814453125,0
1060.4659999999985,-0.0218533705919981,-0.007175728213042021,0.00024400241090916097,0.0,0.0,0.0,0.0,0.0009751549223437905,-0.00020776735618710518,-0.0010130947921425104,0.9992945194244385,0.0,0.0,0.0,-9.883620262145996,-1.2153624296188354,3.405749797821045,1788.955078125,0
1070.3689999999988,-0.021853622049093246,-0.007150209974497557,0.0002926624729298055,0.0,0.0,0.0,0.0,0.0010865067597478628,0.0019210942555218935,0.001383680966682732,0.9984846711158752,0.0,0.0,0.0,-9.89966869354248,-1.208330750465393,3.4071147441864014,1791.859619140625,0
1080.307999999999,-0.021861176937818527,-0.00722361309453845,0.0002074618241749704,0.0,0.0,0.0,0.0,-0.0018964377231895924,-0.004323027096688747,0.002918847370892763,1.0004260540008545,0.0,0.0,0.0,-9.888524055480957,-1.20913827419281,3.404442071914673,1789.842529296875,0
1090.190999999999,-0.021862870082259178,-0.007185843773186207,0.0002574327227193862,0.0,0.0,0.0,0.0,-0.0011855767806991935,0.002434731228277087,0.005280783865600824,1.0004165172576904,0.0,0.0,0.0,-9.903244018554688,-1.1974838972091675,3.4128994941711426,1792.5067138671875,0
1100.1059999999998,-0.021845446899533272,-0.0071982452645897865,0.00018455916142556816,0.0,0.0,0.0,0.0,-0.00039323599776253104,0.0041562519036233425,0.000807176111266017,1.0005446672439575,0.0,0.0,0.0,-9.899388313293457,-1.1987252235412598,3.41184139251709,1791.8089599609375,0
1110.0159999999996,-0.02185790054500103,-0.007199791260063648,0.00017474217747803777,0.0,0.0,0.0,0.0,0.0036217025481164455,-0.0024155161809176207,-0.0005009681917726994,0.99733567237854,0.0,0.0,0.0,-9.889474868774414,-1.1925861835479736,3.3968913555145264,1790.0146484375,0
1119.9349999999995,-0.021834848448634148,-0.007225635927170515,0.0001202206258312799,0.0,0.0,0.0,0.0,0.0014261460164561868,0.0040896013379096985,-0.001085979281924665,0.9981094598770142,0.0,0.0,0.0,-9.902592658996582,-1.1936441659927368,3.4021289348602295,1792.3887939453125,0
1129.833999999999,-0.02185908518731594,-0.007161129731684923,0.00017165714234579355,0.0,0.0,0.0,0.0,0.0012920006411150098,-0.002572533441707492,0.00403009494766593,1.0002858638763428,0.0,0.0,0.0,-9.910309791564941,-1.1925451755523682,3.397709846496582,1793.785888671875,0
1139.7559999999994,-0.021880732849240303,-0.007227601949125528,0.00010016179294325411,0.0,0.0,0.0,0.0,-0.0003793109208345413,0.002325631445273757,0.0014252831460908055,1.000100016593933,0.0,0.0,0.0,-9.898507118225098,-1.1898205280303955,3.3996822834014893,1791.6494140625,0
1149.6639999999989,-0.02189427986741066,-0.007227860391139984,8.399502257816494e-05,0.0,0.0,0.0,0.0,-0.0028827085625380278,-0.0025028749369084835,0.0055925738997757435,1.000536322593689,0.0,0.0,0.0,-9.889117240905762,-1.1821027994155884,3.3981521129608154,1789.949951171875,0
1159.5789999999997,-0.021888304501771927,-0.007290042471140623,2.6072453692904674e-05,0.0,0.0,0.0,0.0,0.004449163563549519,-0.0026421581860631704,6.174563168315217e-05,1.0007953643798828,0.0,0.0,0.0,-9.889117240905762,-1.1821027994155884,3.3981521129608154,1789.949951171875,0
1169.4879999999994,-0.02189122512936592,-0.0072343433275818825,8.837974746711552e-05,0.0,0.0,0.0,0.0,0.0011710632825270295,0.003075274173170328,-0.000800163543317467,1.003373146057129,0.0,0.0,0.0,-9.897124290466309,-1.1749731302261353,3.402244806289673,1791.399169921875,0
1179.402,-0.02192007377743721,-0.007289271801710129,7.611195178469643e-05,0.0,0.0,0.0,0.0,-0.002165938029065728,-0.0004255547246430069,0.0016350311925634742,0.9996035695075989,0.0,0.0,0.0,-9.903552055358887,-1.1823817491531372,3.4011523723602295,1792.5626220703125,0
1189.3069999999989,-0.02189740166068077,-0.007222391664981842,0.00016309127386193722,0.0,0.0,0.0,0.0,0.0016047495882958174,0.0026918179355561733,0.002711536828428507,0.998881459236145,0.0,0.0,0.0,-9.908162117004395,-1.1758952140808105,3.3983423709869385,1793.3970947265625,0
1199.2209999999995,-0.02192249894142151,-0.007270910311490297,0.0001327602512901649,0.0,0.0,0.0,0.0,-0.0032862508669495583,0.0008524474105797708,0.00018127795192413032,0.9968352317810059,0.0,0.0,0.0,-9.903206825256348,-1.1852903366088867,3.386021614074707,1792.5,0
1209.1299999999992,-0.021929899230599403,-0.007268672809004784,0.00012556165165733546,0.0,0.0,0.0,0.0,3.9699309127172455e-05,0.00023475541092921048,0.005142577923834324,0.9977059960365295,0.0,0.0,0.0,-9.893532752990723,-1.1839395761489868,3.3837175369262695,1790.7491455078125,0
1219.0429999999997,-0.02193591371178627,-0.007311213295906782,7.917650509625673e-05,0.0,0.0,0.0,0.0,0.00040855834959074855,-0.002145536942407489,0.00046415673568844795,1.000022292137146,0.0,0.0,0.0,-9.89257526397705,-1.1874052286148071,3.3904380798339844,1790.575927734375,0
1228.9519999999993,-0.02194349281489849,-0.0073106721974909306,6.627838592976332e-05,0.0,0.0,0.0,0.0,-6.190822023199871e-05,0.003305286867544055,-0.002435167320072651,1.0012871026992798,0.0,0.0,0.0,-9.881439208984375,-1.182565689086914,3.39412260055542,1788.56005859375,0
1238.8759999999984,-0.021937815472483635,-0.007324081379920244,1.7709382518660277e-05,0.0,0.0,0.0,0.0,0.0032834603916853666,-0.00154727918561548,-0.0007688980549573898,0.999318540096283,0.0,0.0,0.0,-9.879518508911133,-1.1812934875488281,3.400519609451294,1788.21240234375,0
1248.7779999999984,-0.021944796666502953,-0.007324053905904293,3.0051960493437946e-06,0.0,0.0,0.0,0.0,-0.0025456706061959267,0.004090826492756605,0.0024397997185587883,1.0007245540618896,0.0,0.0,0.0,-9.869560241699219,-1.177420735359192,3.395606517791748,1786.4100341796875,0
1258.687,-0.021920010447502136,-0.0073387655429542065,-6.005959949106909e-05,0.0,0.0,0.0,0.0,0.001826095161959529,-0.002225339412689209,0.0013278431724756956,1.0010147094726562,0.0,0.0,0.0,-9.878554344177246,-1.1780388355255127,3.4096033573150635,1788.0379638671875,0
1268.5959999999995,-0.02188495174050331,-0.007261700928211212,8.899928070604801e-05,0.0,0.0,0.0,0.0,-0.005459786392748356,-0.0015189817640930414,0.0008252820698544383,1.000311017036438,0.0,0.0,0.0,-9.882397651672363,-1.1454330682754517,3.4221951961517334,1788.7337646484375,0
1278.503999999999,-0.021878071129322052,-0.007289838511496782,3.6623456253437325e-05,0.0,0.0,0.0,0.0,0.0026195102836936712,0.000502352078910917,0.0016806983621791005,0.9975129961967468,0.0,0.0,0.0,-9.882397651672363,-1.1454330682754517,3.4221951961517334,1788.7337646484375,0
1288.4179999999997,-0.021886978298425674,-0.0071897911839187145,0.00011947141319978982,0.0,0.0,0.0,0.0,0.0008320086635649204,-0.0035810228437185287,-0.00019737599359359592,1.000037431716919,0.0,0.0,0.0,-9.88219165802002,-1.1196428537368774,3.4097537994384766,1788.6962890625,0
1298.3289999999997,-0.021884877234697342,-0.007241365034133196,5.7138557167490944e-05,0.0,0.0,0.0,0.0,0.0021968884393572807,0.0008723096107132733,-0.0026507109869271517,0.9988402724266052,0.0,0.0,0.0,-9.88219165802002,-1.1196428537368774,3.4097537994384766,1788.6962890625,0
1308.2439999999988,-0.021860722452402115,-0.0071830060333013535,0.00012146831431891769,0.0,0.0,0.0,0.0,-0.0005315997404977679,-0.0037649243604391813,-0.0012763901613652706,0.9970970153808594,0.0,0.0,0.0,-9.898565292358398,-1.118253469467163,3.4177353382110596,1791.659912109375,0
1318.143,-0.021854612976312637,-0.007210440468043089,7.005191582720727e-05,0.0,0.0,0.0,0.0,0.0024464961607009172,0.0029958197847008705,-0.0008923085406422615,0.9981443285942078,0.0,0.0,0.0,-9.889098167419434,-1.1221866607666016,3.421800136566162,1789.9464111328125,0
1328.063,-0.02183261327445507,-0.007176514714956284,0.00011307839304208755,0.0,0.0,0.0,0.0,0.001990016084164381,0.006379129830747843,0.003918214701116085,0.9997825026512146,0.0,0.0,0.0,-9.907583236694336,-1.1190454959869385,3.4261860847473145,1793.2923583984375,0
1337.9699999999993,-0.021855609491467476,-0.007253188174217939,6.207650585565716e-05,0.0,0.0,0.0,0.0,0.0017068528104573488,0.002738356124609709,0.0016963157104328275,0.9998601675033569,0.0,0.0,0.0,-9.903531074523926,-1.1342604160308838,3.4083404541015625,1792.5587158203125,0
1347.8869999999988,-0.021861771121621132,-0.00725236302241683,5.013174086343497e-05,0.0,0.0,0.0,0.0,-0.00045147037599235773,-0.003221335355192423,-0.0007303109159693122,0.999190092086792,0.0,0.0,0.0,-9.892501831054688,-1.134352207183838,3.3963208198547363,1790.5623779296875,0
1357.7889999999989,-0.02188597433269024,-0.0073059555143117905,2.6054560294141993e-05,0.0,0.0,0.0,0.0,0.00030730708385817707,-0.0037154594901949167,0.0008711012778803706,0.9998520016670227,0.0,0.0,0.0,-9.889114379882812,-1.1400628089904785,3.403010606765747,1789.949462890625,0
1367.7029999999995,-0.02187480218708515,-0.0072406199760735035,0.00010669609036995098,0.0,0.0,0.0,0.0,-0.0031893691048026085,0.003083136398345232,-0.004217668902128935,0.9988279938697815,0.0,0.0,0.0,-9.906505584716797,-1.1251507997512817,3.4079527854919434,1793.09716796875,0
1377.6139999999996,-0.02190977893769741,-0.007303935941308737,7.700132118770853e-05,0.0,0.0,0.0,0.0,0.00196768413297832,-0.0006253088940866292,0.0027643872890621424,1.0000766515731812,0.0,0.0,0.0,-9.904937744140625,-1.130427598953247,3.4037318229675293,1792.8134765625,0
1387.5299999999988,-0.02190363220870495,-0.007224086672067642,0.00015223603986669332,0.0,0.0,0.0,0.0,0.0020199762657284737,0.0009434420499019325,0.0030585099011659622,1.0000343322753906,0.0,0.0,0.0,-9.914549827575684,-1.117619514465332,3.401210069656372,1794.55322265625,0
1397.4339999999993,-0.02188173308968544,-0.007231166586279869,8.267202792922035e-05,0.0,0.0,0.0,0.0,0.005274149589240551,0.004298510029911995,0.003100564470514655,1.0008922815322876,0.0,0.0,0.0,-9.915184020996094,-1.1207213401794434,3.404919385910034,1794.66796875,0
1407.3509999999987,-0.021869147196412086,-0.007152475416660309,0.00015701403026469052,0.0,0.0,0.0,0.0,-0.00016238749958574772,-0.003342105308547616,0.0026622640434652567,1.0003798007965088,0.0,0.0,0.0,-9.929437637329102,-1.1105612516403198,3.394909143447876,1797.248046875,0
1417.2519999999986,-0.021870970726013184,-0.007175470236688852,0.00011094953515566885,0.0,0.0,0.0,0.0,-0.001736187725327909,0.0006226020632311702,-0.004443019162863493,1.0008478164672852,0.0,0.0,0.0,-9.91933822631836,-1.1065270900726318,3.4037795066833496,1795.4200439453125,0
1427.1729999999989,-0.021921327337622643,-0.0071159955114126205,0.00013166941062081605,0.0,0.0,0.0,0.0,0.003266037441790104,0.002651695627719164,-0.0008524648146703839,0.9997885823249817,0.0,0.0,0.0,-9.930459022521973,-1.097120761871338,3.399148941040039,1797.4329833984375,0
1437.0819999999985,-0.02191995270550251,-0.0071368892677128315,8.071196498349309e-05,0.0,0.0,0.0,0.0,0.0008478350937366486,0.002568277530372143,-0.0009454902610741556,1.0003572702407837,0.0,0.0,0.0,-9.92044734954834,-1.101309895515442,3.3870344161987305,1795.620849609375,0
1446.9989999999998,-0.021918274462223053,-0.007103519048541784,0.0001159159728558734,0.0,0.0,0.0,0.0,0.00047892771544866264,0.001959448680281639,0.0011663330951705575,1.002084732055664,0.0,0.0,0.0,-9.934155464172363,-1.0989097356796265,3.3840818405151367,1798.10205078125,0
1456.8959999999988,-0.021913278847932816,-0.007118860259652138,6.477522401837632e-05,0.0,0.0,0.0,0.0,-0.000392582209315151,-0.00010508702689548954,-0.003216941375285387,1.0013282299041748,0.0,0.0,0.0,-9.92471981048584,-1.1050485372543335,3.3712644577026367,1796.3941650390625,0
1466.815999999999,-0.021836640313267708,-0.007123111747205257,0.00011574697418836877,0.0,0.0,0.0,0.0,-0.0024043628945946693,0.0018113938858732581,0.002343064872547984,1.0001530647277832,0.0,0.0,0.0,-9.939349174499512,-1.1005417108535767,3.384133815765381,1799.0419921875,0
1476.717999999999,-0.021872395649552345,-0.007206156384199858,8.308440737891942e-05,0.0,0.0,0.0,0.0,0.003455161349847913,1.3696334463020321e-05,0.0011078119277954102,0.9984143376350403,0.0,0.0,0.0,-9.929523468017578,-1.0959463119506836,3.370950937271118,1797.263671875,0
1486.6409999999996,-0.021858328953385353,-0.007139306049793959,0.0001497751654824242,0.0,0.0,0.0,0.0,0.0030103656463325024,0.005654541775584221,-0.0008777929469943047,0.9973827600479126,0.0,0.0,0.0,-9.93897819519043,-1.0894601345062256,3.3684186935424805,1798.974853515625,0
1496.5499999999993,-0.021883901208639145,-0.007213230710476637,0.00010851799015654251,0.0,0.0,0.0,0.0,-0.002986810402944684,-0.004474107641726732,-0.000645145308226347,0.9973654747009277,0.0,0.0,0.0,-9.929227828979492,-1.0945212841033936,3.3525443077087402,1797.2099609375,0
1506.4569999999985,-0.021855060011148453,-0.007146714720875025,0.00018145835201721638,0.0,0.0,0.0,0.0,0.001614200882613659,0.0013405262725427747,3.4008622606052086e-05,1.001110315322876,0.0,0.0,0.0,-9.94035530090332,-1.0746228694915771,3.357703924179077,1799.2239990234375,0
1516.3709999999992,-0.021882016211748123,-0.007187246344983578,0.00016625100397504866,0.0,0.0,0.0,0.0,-0.00031134558958001435,-0.006491653621196747,0.00320010120049119,1.0015895366668701,0.0,0.0,0.0,-9.930116653442383,-1.0770434141159058,3.3555569648742676,1797.370849609375,0
1526.2869999999984,-0.021899700164794922,-0.007142303977161646,0.00019763995078392327,0.0,0.0,0.0,0.0,0.0015258481726050377,-0.0027263248339295387,0.0010536019690334797,0.9998113512992859,0.0,0.0,0.0,-9.941161155700684,-1.0706909894943237,3.3503732681274414,1799.3699951171875,0
1536.182999999999,-0.02196388877928257,-0.0072255805134773254,0.0002113886730512604,0.0,0.0,0.0,0.0,0.001355500309728086,-0.0005630490486510098,-0.0010065180249512196,0.9980771541595459,0.0,0.0,0.0,-9.930828094482422,-1.0704902410507202,3.355421543121338,1797.4996337890625,0
1546.1009999999987,-0.0219502542167902,-0.007186488248407841,0.0002620434679556638,0.0,0.0,0.0,0.0,0.00030016215168870986,-0.0045310151763260365,0.0036209390964359045,0.9988124370574951,0.0,0.0,0.0,-9.94201374053955,-1.0583077669143677,3.36418080329895,1799.5244140625,0
1556.0049999999992,-0.02196010760962963,-0.0072368448600173,0.00022625713609158993,0.0,0.0,0.0,0.0,0.0008068676688708365,0.0018875855021178722,-0.0008577847038395703,0.9998878240585327,0.0,0.0,0.0,-9.931014060974121,-1.0559512376785278,3.3710598945617676,1797.5333251953125,0
1565.929,-0.021886546164751053,-0.007209877483546734,0.0002987897314596921,0.0,0.0,0.0,0.0,-0.0013267588801681995,-0.007169058080762625,-0.0019207767909392715,0.9991874098777771,0.0,0.0,0.0,-9.9384183883667,-1.0529865026474,3.3874125480651855,1798.87353515625,0
1575.8289999999997,-0.02185819111764431,-0.007247669622302055,0.00022245198488235474,0.0,0.0,0.0,0.0,0.0020249211229383945,-0.002336697420105338,0.0011487798765301704,0.9990255832672119,0.0,0.0,0.0,-9.92944049835205,-1.0438508987426758,3.3919589519500732,1797.2486572265625,0
1585.759,-0.021853821352124214,-0.007238402031362057,0.00022173766046762466,0.0,0.0,0.0,0.0,-0.0027492730878293514,0.0016410397365689278,-0.0005481981788761914,1.0014796257019043,0.0,0.0,0.0,-9.918763160705566,-1.04249906539917,3.4002695083618164,1795.31591796875,0
1595.6529999999984,-0.021824274212121964,-0.0072820354253053665,0.0001545731647638604,0.0,0.0,0.0,0.0,0.00013223894347902387,0.0011791170109063387,0.0019680627156049013,1.000201940536499,0.0,0.0,0.0,-9.909517288208008,-1.0363426208496094,3.4071555137634277,1793.642333984375,0
1605.5739999999987,-0.021818043664097786,-0.00727557297796011,0.00014923793787602335,0.0,0.0,0.0,0.0,5.1105260354233906e-05,0.005126364063471556,-0.0006021548178978264,0.9983363151550293,0.0,0.0,0.0,-9.899169921875,-1.037530779838562,3.3996758460998535,1791.76953125,0
1615.4709999999995,-0.021781327202916145,-0.007274251896888018,9.650969150243327e-05,0.0,0.0,0.0,0.0,0.0001599908573552966,-0.00048515835078433156,0.00039217888843268156,0.9992204904556274,0.0,0.0,0.0,-9.899389266967773,-1.0351063013076782,3.4027059078216553,1791.80908203125,0
1625.3939999999984,-0.02177397906780243,-0.007268418092280626,8.628752402728423e-05,0.0,0.0,0.0,0.0,0.000406733772251755,9.416718057764228e-06,-0.0030794753693044186,1.0008704662322998,0.0,0.0,0.0,-9.88994026184082,-1.0337141752243042,3.4069571495056152,1790.0987548828125,0
1635.3149999999987,-0.02181008830666542,-0.00723362946882844,0.00010678595572244376,0.0,0.0,0.0,0.0,0.0018987426301464438,0.0037822204176336527,-0.0007010718691162765,0.9995188117027283,0.0,0.0,0.0,-9.906785011291504,-1.0079835653305054,3.383265495300293,1793.147705078125,0
1645.2239999999983,-0.021804239600896835,-0.007223307620733976,9.932710963767022e-05,0.0,0.0,0.0,0.0,-0.0005922556156292558,4.305662150727585e-05,-0.0016977284103631973,0.9981756210327148,0.0,0.0,0.0,-9.897295951843262,-1.0170563459396362,3.3766539096832275,1791.4302978515625,0
1655.116,-0.021815918385982513,-0.00728087080642581,4.537183485808782e-05,0.0,0.0,0.0,0.0,-0.0014954314101487398,0.001972452737390995,0.0029426494147628546,1.001523494720459,0.0,0.0,0.0,-9.88654899597168,-1.0198216438293457,3.3650221824645996,1789.485107421875,0
1665.0339999999997,-0.02181144990026951,-0.0072695473209023476,3.334732537041418e-05,0.0,0.0,0.0,0.0,0.0008551706559956074,0.004032203461974859,0.0020893861074000597,1.0001177787780762,0.0,0.0,0.0,-9.876068115234375,-1.018852949142456,3.358691930770874,1787.587890625,0
1674.937,-0.021796872839331627,-0.007267427630722523,-5.990653335175011e-06,0.0,0.0,0.0,0.0,-0.002728370251134038,0.0031892580445855856,-0.002830634592100978,0.9986556768417358,0.0,0.0,0.0,-9.874833106994629,-1.0218493938446045,3.3580291271209717,1787.364501953125,0
1684.8599999999988,-0.021791530773043633,-0.0072545139119029045,-1.9229664758313447e-05,0.0,0.0,0.0,0.0,-0.0015798879321664572,0.0003727349394466728,-0.0005137116531841457,0.9995095729827881,0.0,0.0,0.0,-9.865771293640137,-1.0196877717971802,3.3404650688171387,1785.72412109375,0
1694.7599999999984,-0.021794868633151054,-0.007302628364413977,-6.927007052581757e-05,0.0,0.0,0.0,0.0,0.0006556373555213213,-0.0011586785549297929,0.003076345892623067,0.9989069104194641,0.0,0.0,0.0,-9.862914085388184,-1.0372000932693481,3.337709665298462,1785.2071533203125,0
1704.6779999999999,-0.0217916090041399,-0.0072936248034238815,-8.6764179286547e-05,0.0,0.0,0.0,0.0,-0.0016415652353316545,0.0008248422527685761,0.00029937061481177807,0.999954104423523,0.0,0.0,0.0,-9.853554725646973,-1.0338505506515503,3.3307275772094727,1783.5130615234375,0
1714.5869999999995,-0.021839207038283348,-0.007187213283032179,3.208682983313338e-06,0.0,0.0,0.0,0.0,0.0013927494874224067,0.0004720261786133051,-0.0016172992764040828,1.0001637935638428,0.0,0.0,0.0,-9.867167472839355,-0.9904255867004395,3.3067514896392822,1785.9769287109375,0
1724.5069999999996,-0.021838659420609474,-0.007170102559030056,-6.561123882420361e-06,0.0,0.0,0.0,0.0,-0.000886886497028172,0.00464803259819746,-0.005438558291643858,0.9997361302375793,0.0,0.0,0.0,-9.857128143310547,-0.9852054119110107,3.3128998279571533,1784.1597900390625,0
1734.4039999999986,-0.021868204697966576,-0.007225526496767998,-4.121190431760624e-05,0.0,0.0,0.0,0.0,0.0033519587013870478,-0.0012297279899939895,0.00031860999297350645,0.999367892742157,0.0,0.0,0.0,-9.847549438476562,-0.9854183197021484,3.297496795654297,1782.426025390625,0
1744.324999999999,-0.021867429837584496,-0.007209014147520065,-5.251821858109906e-05,0.0,0.0,0.0,0.0,0.001245577703230083,-0.0014437591889873147,8.727301610633731e-05,0.9993028044700623,0.0,0.0,0.0,-9.838234901428223,-0.9852944612503052,3.291013717651367,1780.7401123046875,0
1754.2259999999987,-0.021909378468990326,-0.0071135698817670345,-2.555544961069245e-05,0.0,0.0,0.0,0.0,0.0008048622985370457,0.003560358192771673,-0.00041817117016762495,1.0015369653701782,0.0,0.0,0.0,-9.872973442077637,-0.971017062664032,3.2886502742767334,1787.0277099609375,0
1764.1459999999988,-0.021909411996603012,-0.007091874722391367,-3.444981120992452e-05,0.0,0.0,0.0,0.0,0.0024043486919254065,-0.0007596275536343455,0.0005604857578873634,0.9996811747550964,0.0,0.0,0.0,-9.862162590026855,-0.9707716703414917,3.284888744354248,1785.071044921875,0
1774.0469999999987,-0.021876618266105652,-0.007094014901667833,1.2392999451549258e-05,0.0,0.0,0.0,0.0,-0.0006328202434815466,-0.005443406756967306,-0.00102898885961622,1.0019906759262085,0.0,0.0,0.0,-9.88442325592041,-0.9715477228164673,3.2940220832824707,1789.1002197265625,0
1783.9709999999995,-0.021877283230423927,-0.007072537671774626,8.38973846839508e-06,0.0,0.0,0.0,0.0,-0.0017218627035617828,-0.0021320651285350323,8.897205407265574e-05,0.999631941318512,0.0,0.0,0.0,-9.873933792114258,-0.9691206812858582,3.2910938262939453,1787.2017822265625,0
1793.869999999999,-0.02183801494538784,-0.007075862493366003,6.200916686793789e-05,0.0,0.0,0.0,0.0,-0.0007490913849323988,-0.007004968822002411,0.0011506315786391497,0.9979550242424011,0.0,0.0,0.0,-9.897526741027832,-0.9650449752807617,3.299192190170288,1791.4720458984375,0
1803.7879999999986,-0.021838711574673653,-0.007053597830235958,6.29635396762751e-05,0.0,0.0,0.0,0.0,0.00326695223338902,-0.002518749563023448,0.0006482911412604153,0.9990320801734924,0.0,0.0,0.0,-9.886907577514648,-0.9622023701667786,3.2977709770202637,1789.5499267578125,0
1813.6929999999993,-0.021834788843989372,-0.007087756413966417,-9.133068488154095e-07,0.0,0.0,0.0,0.0,-0.00017367447435390204,-0.0014593589585274458,0.0006405208841897547,0.9994238018989563,0.0,0.0,0.0,-9.88582706451416,-0.9811153411865234,3.3024888038635254,1789.354248046875,0
1823.6089999999986,-0.021833954378962517,-0.0070646884851157665,-6.9138181970629375e-06,0.0,0.0,0.0,0.0,0.0011545709567144513,0.00017813072190620005,0.0004377039149403572,1.001715898513794,0.0,0.0,0.0,-9.876008987426758,-0.9789924025535583,3.303006887435913,1787.577392578125,0
1833.5209999999988,-0.02184130623936653,-0.0070913927629590034,4.360184902907349e-05,0.0,0.0,0.0,0.0,-0.001225273939780891,0.0027624736540019512,-0.0024994208943098783,1.0020239353179932,0.0,0.0,0.0,-9.887742042541504,-0.9660831093788147,3.306800365447998,1789.700927734375,0
1843.4339999999993,-0.02183978632092476,-0.007069149985909462,4.4062853703508154e-05,0.0,0.0,0.0,0.0,0.0002611890959087759,-0.008243887685239315,0.004686774220317602,0.9996317028999329,0.0,0.0,0.0,-9.877364158630371,-0.9693988561630249,3.292933225631714,1787.822509765625,0
1853.3409999999985,-0.02184079773724079,-0.0071502127684652805,7.468080730177462e-05,0.0,0.0,0.0,0.0,0.0006301004905253649,-0.0014375466853380203,-0.0005793851451016963,1.000017523765564,0.0,0.0,0.0,-9.89307975769043,-0.9639471769332886,3.310640811920166,1790.6671142578125,0
1863.2549999999992,-0.021838199347257614,-0.007127446122467518,7.868392276577652e-05,0.0,0.0,0.0,0.0,0.0012519608717411757,0.0017913250485435128,-0.00044471933506429195,0.9980577230453491,0.0,0.0,0.0,-9.882006645202637,-0.9602289795875549,3.3203320503234863,1788.6627197265625,0
1873.1629999999986,-0.021858902648091316,-0.0071655260398983955,5.547558612306602e-05,0.0,0.0,0.0,0.0,-0.005600940436124802,-0.002743437886238098,-0.001211980008520186,0.9994366765022278,0.0,0.0,0.0,-9.882342338562012,-0.9702651500701904,3.318967580795288,1788.7236328125,0
1883.0789999999997,-0.021856820210814476,-0.007141049485653639,5.5634434829698876e-05,0.0,0.0,0.0,0.0,0.0004921960062347353,-0.0010948872659355402,-0.004203759599477053,0.9984710812568665,0.0,0.0,0.0,-9.87297248840332,-0.9632615447044373,3.313340902328491,1787.027587890625,0
1892.9789999999994,-0.02189064770936966,-0.007214983459562063,3.970297984778881e-05,0.0,0.0,0.0,0.0,0.0023523408453911543,0.0012659839121624827,0.0007142116082832217,0.9976390600204468,0.0,0.0,0.0,-9.871389389038086,-0.9760017395019531,3.310941219329834,1786.7412109375,0
1902.9029999999984,-0.02190627157688141,-0.007252288982272148,2.013090306718368e-05,0.0,0.0,0.0,0.0,-0.0009588336106389761,-0.0020765457302331924,0.00033732049632817507,1.0013989210128784,0.0,0.0,0.0,-9.868906021118164,-0.9954028725624084,3.3042337894439697,1786.29150390625,0
1912.8019999999997,-0.02190672792494297,-0.00723201222717762,1.3325205145520158e-05,0.0,0.0,0.0,0.0,0.0027888030745089054,0.002533476334065199,-0.0026602621655911207,0.9999309182167053,0.0,0.0,0.0,-9.857834815979004,-0.9947312474250793,3.309486150741577,1784.2877197265625,0
1922.7329999999984,-0.02192949876189232,-0.007260432001203299,6.334158570098225e-06,0.0,0.0,0.0,0.0,-0.0010398451704531908,0.003974351100623608,0.0011340880300849676,1.0008190870285034,0.0,0.0,0.0,-9.84929084777832,-1.0038886070251465,3.300231456756592,1782.7410888671875,0
1932.6299999999992,-0.021933559328317642,-0.007239406928420067,6.115305950515904e-07,0.0,0.0,0.0,0.0,-0.00202812603674829,0.0017081295372918248,0.0008756407769396901,1.0007930994033813,0.0,0.0,0.0,-9.838872909545898,-1.003665566444397,3.287447214126587,1780.85546875,0
1942.5499999999993,-0.021944530308246613,-0.007260631304234266,-3.2878509955480695e-05,0.0,0.0,0.0,0.0,-0.0008027403382584453,-0.005546911153942347,-0.0013369208900257945,1.001395344734192,0.0,0.0,0.0,-9.837833404541016,-1.0168508291244507,3.275188446044922,1780.6673583984375,0
1952.4439999999995,-0.021950384601950645,-0.007240649312734604,-3.910664236173034e-05,0.0,0.0,0.0,0.0,-5.963176590739749e-06,0.007783262524753809,0.001023328979499638,1.0029613971710205,0.0,0.0,0.0,-9.827949523925781,-1.0173494815826416,3.282358169555664,1778.87841796875,0
1962.3709999999992,-0.021978823468089104,-0.007263374049216509,-5.174553734832443e-05,0.0,0.0,0.0,0.0,-0.00011227237700950354,0.0008133898372761905,-0.0003080688475165516,1.0001803636550903,0.0,0.0,0.0,-9.818195343017578,-1.0162831544876099,3.277416706085205,1777.113037109375,0
1972.2669999999998,-0.02198936603963375,-0.0072467573918402195,-5.459791645989753e-05,0.0,0.0,0.0,0.0,0.0008810159633867443,-0.004536367487162352,0.0007526872213929892,1.0026540756225586,0.0,0.0,0.0,-9.808304786682129,-1.0148948431015015,3.2569925785064697,1775.32275390625,0
1982.1899999999987,-0.021998776122927666,-0.007260803133249283,-8.76076883287169e-05,0.0,0.0,0.0,0.0,-2.069363290502224e-05,-0.00014229143562261015,-0.0029517740476876497,1.0007336139678955,0.0,0.0,0.0,-9.808965682983398,-1.0289020538330078,3.2621400356292725,1775.4422607421875,0
1992.0900000000001,-0.021984048187732697,-0.0071526519022881985,8.331546996487305e-05,0.0,0.0,0.0,0.0,-0.00036075778189115226,0.003513823263347149,-0.0014071589102968574,0.9993810057640076,0.0,0.0,0.0,-9.82861614227295,-0.9877510666847229,3.2780601978302,1778.9990234375,0
2002.0109999999986,-0.022006036713719368,-0.0071899183094501495,5.048542516306043e-05,0.0,0.0,0.0,0.0,-0.002102914499118924,0.004611283075064421,0.00392230786383152,0.999542236328125,0.0,0.0,0.0,-9.828686714172363,-1.0056860446929932,3.271153450012207,1779.011962890625,0
2011.911,-0.021936416625976562,-0.0071173543110489845,0.00020141318964306265,0.0,0.0,0.0,0.0,0.0021266413386911154,-0.001500219339504838,0.00186979363206774,0.9997880458831787,0.0,0.0,0.0,-9.845114707946777,-0.991144597530365,3.2718207836151123,1781.9853515625,0
2021.848,-0.02192167192697525,-0.007121349219232798,0.0001460803032387048,0.0,0.0,0.0,0.0,-0.0019260263070464134,0.0010197287192568183,0.0015671139117330313,1.000145435333252,0.0,0.0,0.0,-9.846063613891602,-0.9940360188484192,3.2728445529937744,1782.1571044921875,0
2031.7369999999992,-0.02194110117852688,-0.007041495759040117,0.00020812253933399916,0.0,0.0,0.0,0.0,0.0028345719911158085,-0.0010955288307741284,0.00028042341000400484,0.9983575940132141,0.0,0.0,0.0,-9.865458488464355,-0.9829606413841248,3.2738280296325684,1785.6676025390625,0
2041.6589999999997,-0.021995367482304573,-0.007129815872758627,0.00019802017777692527,0.0,0.0,0.0,0.0,-0.0003748785820789635,-0.0013172758044674993,0.0019954002927988768,0.9995512962341309,0.0,0.0,0.0,-9.856379508972168,-0.9838289618492126,3.2636396884918213,1784.0242919921875,0
2051.5599999999995,-0.021968506276607513,-0.007079588249325752,0.00026091799372807145,0.0,0.0,0.0,0.0,-0.0011844733962789178,0.00029368806281127036,0.0030324121471494436,1.000243902206421,0.0,0.0,0.0,-9.872529983520508,-0.9796883463859558,3.2709484100341797,1786.9476318359375,0
2061.477999999999,-0.021957479417324066,-0.007124375086277723,0.00019275452359579504,0.0,0.0,0.0,0.0,0.0003829138004221022,-0.0005698496242985129,0.0018075720872730017,1.0006203651428223,0.0,0.0,0.0,-9.862092018127441,-0.9761913418769836,3.2726426124572754,1785.0584716796875,0
2071.3759999999984,-0.02195846289396286,-0.007096986752003431,0.00020134812803007662,0.0,0.0,0.0,0.0,0.003963925875723362,0.006749283988028765,-0.0018788168672472239,0.999072790145874,0.0,0.0,0.0,-9.852721214294434,-0.9743384122848511,3.26488995552063,1783.362060546875,0
2081.294,-0.02196383662521839,-0.007163022179156542,0.0001541595411254093,0.0,0.0,0.0,0.0,-0.0003502859326545149,0.0008371209260076284,0.001706399954855442,0.9988811016082764,0.0,0.0,0.0,-9.853021621704102,-0.9947144389152527,3.2650721073150635,1783.41650390625,0
2091.2039999999997,-0.02196425572037697,-0.007134702522307634,0.000157297748955898,0.0,0.0,0.0,0.0,-0.0022966281976550817,-0.0012646038085222244,-0.0016169495647773147,1.0003827810287476,0.0,0.0,0.0,-9.84361457824707,-1.0037834644317627,3.2349438667297363,1781.7137451171875,0
2101.1259999999984,-0.02193199284374714,-0.007138846907764673,8.038527448661625e-05,0.0,0.0,0.0,0.0,-0.002026814268901944,-9.628129191696644e-06,0.001341695780865848,1.0012930631637573,0.0,0.0,0.0,-9.844039916992188,-1.005846381187439,3.2416179180145264,1781.7906494140625,0
2111.0279999999984,-0.021850815042853355,-0.0071488963440060616,0.00015503881149925292,0.0,0.0,0.0,0.0,-0.0010668020695447922,0.0011250445386394858,-0.0011217432329431176,1.001189947128296,0.0,0.0,0.0,-9.862114906311035,-1.0030053853988647,3.271672010421753,1785.0625,0
2120.9429999999993,-0.02185015194118023,-0.007166827097535133,0.00011327862739562988,0.0,0.0,0.0,0.0,-0.0021707573905587196,-0.0019360465230420232,-0.0026964163407683372,1.002609372138977,0.0,0.0,0.0,-9.865984916687012,-1.0104163885116577,3.265347957611084,1785.762939453125,0
2130.8469999999998,-0.021845195442438126,-0.007139740511775017,0.00011367682600393891,0.0,0.0,0.0,0.0,0.004146574065089226,0.0001588615559739992,-0.0004137647047173232,1.0005828142166138,0.0,0.0,0.0,-9.856512069702148,-1.016641616821289,3.2642717361450195,1784.0482177734375,0
2140.7599999999984,-0.021835753694176674,-0.007164665497839451,6.383698928402737e-05,0.0,0.0,0.0,0.0,-2.148059593309881e-06,-0.0020932769402861595,-0.00015553171397186816,0.9984102249145508,0.0,0.0,0.0,-9.85728931427002,-1.0233523845672607,3.2671122550964355,1784.18896484375,0
