timestamp,stateEstimate.x,stateEstimate.y,stateEstimate.z,controller.cmd_thrust,controller.cmd_roll,controller.cmd_pitch,controller.cmd_yaw,controller.r_roll,controller.r_pitch,controller.r_yaw,controller.accelz,controller.actuatorThrust,controller.roll,controller.pitch,controller.yaw,controller.rollRate,controller.pitchRate,controller.yawRate,controller.ctr_yaw
0.0,-0.004425894934684038,-0.010330403223633766,0.0002752029395196587,0.0,0.0,0.0,0.0,0.0009597423486411572,0.0017245705239474773,0.004646333400160074,1.0026296377182007,0.0,0.0,0.0,-0.8098136782646179,4.812260150909424,0.5579299926757812,146.57789611816406,0
9.88299999999981,-0.004351349547505379,-0.010343526490032673,0.0002947912726085633,0.0,0.0,0.0,0.0,-0.0026434818282723427,0.004140229895710945,0.0006010635406710207,1.0009660720825195,0.0,0.0,0.0,-0.823567807674408,4.813907623291016,0.5643839240074158,149.06741333007812,0
19.770000000000437,-0.0043609789572656155,-0.010367337614297867,0.00031042148475535214,0.0,0.0,0.0,0.0,-0.0011935767251998186,0.0013281300198286772,0.0012231419095769525,1.0013295412063599,0.0,0.0,0.0,-0.8224437236785889,4.815065860748291,0.5559757947921753,148.86395263671875,0
29.657999999999447,-0.004376435652375221,-0.010339830070734024,0.0003598277398850769,0.0,0.0,0.0,0.0,0.004286731127649546,0.0017858765786513686,0.0002432071923976764,1.000490665435791,0.0,0.0,0.0,-0.8357080817222595,4.831506252288818,0.5471861362457275,151.2648468017578,0
39.54899999999907,-0.004387828055769205,-0.010360237210988998,0.0003795069351326674,0.0,0.0,0.0,0.0,0.0005945628508925438,-0.0006767827435396612,0.001704449183307588,0.9969444870948792,0.0,0.0,0.0,-0.8356636166572571,4.82814359664917,0.5557908415794373,151.25677490234375,0
49.43499999999949,-0.004440668970346451,-0.010376669466495514,0.0004042194050271064,0.0,0.0,0.0,0.0,0.0016707502072677016,0.0014498964883387089,-0.0006579516339115798,0.9992688894271851,0.0,0.0,0.0,-0.8496421575546265,4.830132961273193,0.5508225560188293,153.7869110107422,0
59.31999999999971,-0.004453639499843121,-0.010399031452834606,0.00042125096661038697,0.0,0.0,0.0,0.0,-0.002877018181607127,0.0009552176925353706,0.0006933204713277519,0.9994878172874451,0.0,0.0,0.0,-0.8493701815605164,4.8231120109558105,0.5448774099349976,153.73768615722656,0
69.20299999999952,-0.004455463960766792,-0.010397191159427166,0.0004604237910825759,0.0,0.0,0.0,0.0,0.0029248979408293962,0.0031973375007510185,0.001786748063750565,1.00021493434906,0.0,0.0,0.0,-0.8609523177146912,4.834291458129883,0.5369566082954407,155.83407592773438,0
79.08599999999933,-0.004468810744583607,-0.010420730337500572,0.00047909110435284674,0.0,0.0,0.0,0.0,0.0018488664645701647,-0.001079213572666049,0.0010948949493467808,0.9998500943183899,0.0,0.0,0.0,-0.8596308827400208,4.822815418243408,0.5313730239868164,155.59490966796875,0
88.97299999999996,-0.004465435165911913,-0.010423019528388977,0.0005190608208067715,0.0,0.0,0.0,0.0,-0.0017050146125257015,0.003955195192247629,9.080026939045638e-05,0.9988031983375549,0.0,0.0,0.0,-0.8667182326316833,4.823423385620117,0.5289545059204102,156.8777313232422,0
98.85900000000038,-0.004478761926293373,-0.010450840927660465,0.0005384246469475329,0.0,0.0,0.0,0.0,-0.00044700855505652726,-0.00018798161181621253,-0.0007183380075730383,0.9984154105186462,0.0,0.0,0.0,-0.8664461970329285,4.816387176513672,0.5185142159461975,156.8284912109375,0
108.7440000000006,-0.004425503313541412,-0.010429272428154945,0.000595945050008595,0.0,0.0,0.0,0.0,0.003393521998077631,-0.0020822519436478615,0.0019917571917176247,0.9972381591796875,0.0,0.0,0.0,-0.8791324496269226,4.827908039093018,0.517245352268219,159.1247100830078,0
118.63600000000042,-0.004425503313541412,-0.010429272428154945,0.000595945050008595,0.0,0.0,0.0,0.0,0.0011461389949545264,-0.00235862098634243,0.0023279404267668724,1.0000261068344116,0.0,0.0,0.0,-0.8791324496269226,4.827908039093018,0.517245352268219,159.1247100830078,0
128.51499999999942,-0.004392601083964109,-0.010183624923229218,-8.149550012603868e-06,0.0,0.0,0.0,0.0,0.0009785373695194721,-0.003302799304947257,-0.001105890842154622,1.0004340410232544,0.0,0.0,0.0,-0.891398549079895,4.87677526473999,0.5298347473144531,161.34490966796875,0
138.40200000000004,-0.0044066281989216805,-0.010199157521128654,-1.2054294529662002e-05,0.0,0.0,0.0,0.0,0.0014912084443494678,0.0008890664321370423,0.0010501783108338714,1.0000731945037842,0.0,0.0,0.0,-0.8901739716529846,4.871177673339844,0.5343464612960815,161.12327575683594,0
148.29399999999987,-0.004330760333687067,-0.010154694318771362,4.202321360935457e-05,0.0,0.0,0.0,0.0,0.00044999548117630184,0.007199547719210386,-0.0003594486624933779,0.9998013973236084,0.0,0.0,0.0,-0.8793541789054871,4.877291202545166,0.5576874613761902,159.1648406982422,0
158.17100000000028,-0.0043425848707556725,-0.010173105634748936,4.2902614950435236e-05,0.0,0.0,0.0,0.0,-0.000631754519417882,-0.003078007372096181,0.0006046062335371971,0.9983745217323303,0.0,0.0,0.0,-0.8771957755088806,4.872931003570557,0.5479055643081665,158.774169921875,0
168.0599999999995,-0.004324984736740589,-0.01015187706798315,0.00010058042244054377,0.0,0.0,0.0,0.0,-0.0014323758659884334,-0.0015902784653007984,-0.001356541644781828,1.0011252164840698,0.0,0.0,0.0,-0.8741899132728577,4.869379997253418,0.5329985022544861,158.23011779785156,0
177.9429999999993,-0.004337499849498272,-0.010170871391892433,0.00010417975136078894,0.0,0.0,0.0,0.0,-0.0006313660996966064,-0.002946533029899001,-0.0003769052564166486,1.0002652406692505,0.0,0.0,0.0,-0.8730271458625793,4.865262508392334,0.5374323129653931,158.01963806152344,0
187.82999999999993,-0.004391504917293787,-0.010197140276432037,0.00011175373947480693,0.0,0.0,0.0,0.0,0.0013648824533447623,0.0052926442585885525,0.0009199204505421221,1.000487208366394,0.0,0.0,0.0,-0.8776775598526001,4.865300178527832,0.531298816204071,158.8613739013672,0
197.71500000000015,-0.004406289663165808,-0.010218017734587193,0.00011632397217908874,0.0,0.0,0.0,0.0,7.20017051207833e-05,0.004323314409703016,-0.003331573912873864,0.9997523427009583,0.0,0.0,0.0,-0.8778672218322754,4.848914623260498,0.5255455374717712,158.8957061767578,0
207.60399999999936,-0.004395633470267057,-0.010212158784270287,0.00011275009455857798,0.0,0.0,0.0,0.0,-0.0017050552414730191,-0.0031587465200573206,0.0018393826903775334,0.998884379863739,0.0,0.0,0.0,-0.8800836801528931,4.85269021987915,0.5165413022041321,159.29689025878906,0
217.48899999999958,-0.004409865941852331,-0.010234447196125984,0.00011667806393234059,0.0,0.0,0.0,0.0,-0.0027988445945084095,0.002828309079632163,-0.0010434435680508614,0.9988890886306763,0.0,0.0,0.0,-0.8789488077163696,4.849107265472412,0.49958962202072144,159.09149169921875,0
227.37900000000081,-0.0044065918773412704,-0.01020652987062931,0.00011171072401339188,0.0,0.0,0.0,0.0,-0.0019306548638269305,9.647229489928577e-06,-0.0035692728124558926,0.9986896514892578,0.0,0.0,0.0,-0.8834026455879211,4.851718902587891,0.5001463890075684,159.8976287841797,0
237.26100000000042,-0.004422263242304325,-0.010231997817754745,0.00011321737110847607,0.0,0.0,0.0,0.0,-0.004619625397026539,-0.0048108394257724285,-0.0016338074347004294,0.9976949095726013,0.0,0.0,0.0,-0.8824611306190491,4.846888065338135,0.49268510937690735,159.7272186279297,0
247.14700000000084,-0.004278234206140041,-0.010198121890425682,8.668736700201407e-05,0.0,0.0,0.0,0.0,0.0024283176753669977,0.003095463616773486,0.0004670622874982655,0.9993714690208435,0.0,0.0,0.0,-0.8915562033653259,4.851927280426025,0.5120546221733093,161.37344360351562,0
257.03099999999904,-0.004292412661015987,-0.010226937010884285,8.337453618878499e-05,0.0,0.0,0.0,0.0,0.0010441899066790938,-0.00224784342572093,0.00010837373702088371,1.0012516975402832,0.0,0.0,0.0,-0.8915300369262695,4.847929954528809,0.5160200595855713,161.36871337890625,0
266.91799999999967,-0.004282066598534584,-0.010203436948359013,6.522096373373643e-05,0.0,0.0,0.0,0.0,0.0002235971624031663,-0.0016576191410422325,-0.0002601719170343131,0.9999179244041443,0.0,0.0,0.0,-0.8907597064971924,4.842441082000732,0.5099632143974304,161.22927856445312,0
276.8040000000001,-0.004294581711292267,-0.010234205052256584,6.106650835135952e-05,0.0,0.0,0.0,0.0,0.003421526402235031,-0.00040410287328995764,-0.00041035612230189145,1.0013556480407715,0.0,0.0,0.0,-0.8887614011764526,4.8418684005737305,0.5128923654556274,160.86756896972656,0
286.6980000000003,-0.004368145018815994,-0.010200289078056812,1.1159092991874786e-06,0.0,0.0,0.0,0.0,-0.002767859725281596,-0.00401192344725132,-0.002027579816058278,1.0012321472167969,0.0,0.0,0.0,-0.8806248307228088,4.846994400024414,0.49784475564956665,159.3948516845703,0
296.5779999999995,-0.004383952356874943,-0.010233139619231224,-5.978266017336864e-06,0.0,0.0,0.0,0.0,0.0036705886013805866,0.007041773293167353,0.0002753310545813292,1.0009369850158691,0.0,0.0,0.0,-0.8802180290222168,4.842434406280518,0.5058200359344482,159.3212127685547,0
306.46899999999914,-0.004384283907711506,-0.0101163936778903,-1.6818692529341206e-05,0.0,0.0,0.0,0.0,0.003450648859143257,0.0007128891302272677,-0.0005286073428578675,1.00009024143219,0.0,0.0,0.0,-0.8680002689361572,4.859396457672119,0.4942704439163208,157.1097869873047,0
316.34699999999975,-0.004399288445711136,-0.010146141983568668,-2.186253186664544e-05,0.0,0.0,0.0,0.0,-7.096757326507941e-05,-0.0024942285381257534,-0.0002175604022340849,0.9996118545532227,0.0,0.0,0.0,-0.8658435344696045,4.853274345397949,0.4833384156227112,156.7194061279297,0
326.2360000000008,-0.004292260855436325,-0.0100788539275527,-8.482530392939225e-05,0.0,0.0,0.0,0.0,-0.0009308501612395048,-0.0023670510854572058,0.0009143626084551215,0.9998692870140076,0.0,0.0,0.0,-0.8712494969367981,4.850925922393799,0.4835412800312042,157.69789123535156,0
336.1229999999996,-0.004304126370698214,-0.01010863296687603,-9.43614068091847e-05,0.0,0.0,0.0,0.0,0.00024527357891201973,-0.0029192338697612286,0.001532187219709158,1.001050353050232,0.0,0.0,0.0,-0.8712127208709717,4.84651517868042,0.48799946904182434,157.6912384033203,0
346.0110000000004,-0.004378494806587696,-0.010081357322633266,-6.897647836012766e-05,0.0,0.0,0.0,0.0,0.00023762104683555663,0.0016414262354373932,0.004127290099859238,0.9993560314178467,0.0,0.0,0.0,-0.8769322633743286,4.855698585510254,0.4785776436328888,158.7264862060547,0
355.89600000000064,-0.00439036637544632,-0.010091776959598064,-7.615124923177063e-05,0.0,0.0,0.0,0.0,-0.0003018954012077302,-0.0012128378730267286,-0.002561932662501931,0.9982737898826599,0.0,0.0,0.0,-0.8686025738716125,4.854583740234375,0.4911767840385437,157.2187957763672,0
365.78999999999905,-0.004306049086153507,-0.010119033046066761,-5.364326716517098e-05,0.0,0.0,0.0,0.0,-0.0011692591942846775,-0.00013815432612318546,-0.0025566606782376766,0.9991577863693237,0.0,0.0,0.0,-0.8681251406669617,4.846691608428955,0.48279476165771484,157.13238525390625,0
375.66200000000026,-0.004324728157371283,-0.010141255334019661,-5.3723997552879155e-05,0.0,0.0,0.0,0.0,0.0018049228237941861,0.004843253642320633,0.0002121823199559003,1.001968502998352,0.0,0.0,0.0,-0.8670529127120972,4.841488361358643,0.47513893246650696,156.9383087158203,0
385.5470000000005,-0.00436908844858408,-0.010173768736422062,-6.644414679612964e-05,0.0,0.0,0.0,0.0,-0.0004076915793120861,0.001271072425879538,-0.0006786063313484192,1.0006102323532104,0.0,0.0,0.0,-0.8771595358848572,4.8394083976745605,0.46605050563812256,158.7676239013672,0
395.4349999999995,-0.004372414667159319,-0.010163265280425549,-7.709365308983251e-05,0.0,0.0,0.0,0.0,-0.0006681261002086103,0.0013378867879509926,0.0016064909286797047,1.0003000497817993,0.0,0.0,0.0,-0.8768917918205261,4.836267471313477,0.4549035131931305,158.7191619873047,0
405.3269999999993,-0.004370936192572117,-0.010196728631854057,-7.475519669242203e-05,0.0,0.0,0.0,0.0,0.001598643371835351,-0.0026162564754486084,0.001166200963780284,1.001258373260498,0.0,0.0,0.0,-0.8854253888130188,4.8295488357543945,0.4575367271900177,160.2637481689453,0
415.21399999999994,-0.004369593691080809,-0.010185757651925087,-9.047414641827345e-05,0.0,0.0,0.0,0.0,0.001747612375766039,-0.0002503277501091361,0.0017675888957455754,1.0000814199447632,0.0,0.0,0.0,-0.8837847709655762,4.823513507843018,0.4570145905017853,159.966796875,0
425.10000000000036,-0.00430956669151783,-0.010171065106987953,-5.444887210614979e-05,0.0,0.0,0.0,0.0,-0.002820466412231326,0.008371067233383656,0.0003477306745480746,1.0002269744873047,0.0,0.0,0.0,-0.8825703263282776,4.815107822418213,0.4676488935947418,159.7469940185547,0
434.98099999999977,-0.004324599634855986,-0.010177784599363804,-5.3980205848347396e-05,0.0,0.0,0.0,0.0,0.0029989848844707012,0.001936628483235836,-0.0016695383237674832,1.0018929243087769,0.0,0.0,0.0,-0.8829196691513062,4.812714576721191,0.46451112627983093,159.81021118164062,0
444.8639999999996,-0.004377203993499279,-0.010203217156231403,-5.579687058343552e-05,0.0,0.0,0.0,0.0,-0.0011565786553546786,0.00025445313076488674,0.00010994655167451128,1.0020352602005005,0.0,0.0,0.0,-0.8908629417419434,4.811190605163574,0.44687357544898987,161.2479705810547,0
454.7540000000008,-0.004420122131705284,-0.010187449865043163,-2.108095577568747e-05,0.0,0.0,0.0,0.0,0.0016542304074391723,0.0028051198460161686,-0.0030312149319797754,1.000118613243103,0.0,0.0,0.0,-0.8827655911445618,4.816129207611084,0.4471002519130707,159.7823486328125,0
464.64500000000044,-0.004324696958065033,-0.010187407955527306,3.250064037274569e-05,0.0,0.0,0.0,0.0,0.0001960702211363241,-0.004547276068478823,0.0007717111147940159,0.9991520643234253,0.0,0.0,0.0,-0.8887393474578857,4.819437503814697,0.44772934913635254,160.86358642578125,0
474.52499999999964,-0.004410382825881243,-0.010240024887025356,0.00010717003897298127,0.0,0.0,0.0,0.0,-0.0008985987515188754,0.001533891772851348,0.0020011391025036573,0.9987167119979858,0.0,0.0,0.0,-0.8784617185592651,4.818719387054443,0.45052218437194824,159.00331115722656,0
484.41300000000047,-0.0044078705832362175,-0.01029149629175663,0.00012739292287733406,0.0,0.0,0.0,0.0,-0.0003549606481101364,-0.0010547586716711521,0.00030751139274798334,0.9999200105667114,0.0,0.0,0.0,-0.8866179585456848,4.8144426345825195,0.45938822627067566,160.47959899902344,0
494.2970000000005,-0.0044035520404577255,-0.010288983583450317,0.0001167762020486407,0.0,0.0,0.0,0.0,-0.0016197477234527469,-0.001637407811358571,7.833649578969926e-05,0.9981796145439148,0.0,0.0,0.0,-0.8861092925071716,4.814280033111572,0.45373380184173584,160.38754272460938,0
504.1790000000001,-0.004354559816420078,-0.010268221609294415,0.00017083730199374259,0.0,0.0,0.0,0.0,-0.002589273266494274,-0.0030498432461172342,-0.0013265677262097597,0.9991574287414551,0.0,0.0,0.0,-0.8844870924949646,4.804089546203613,0.45844346284866333,160.0939178466797,0
514.0650000000005,-0.0043418449349701405,-0.010218951851129532,0.0001695218525128439,0.0,0.0,0.0,0.0,0.0039804610423743725,0.0025891060940921307,-0.001344894990324974,1.0011720657348633,0.0,0.0,0.0,-0.8773127198219299,4.821859359741211,0.46194806694984436,158.79534912109375,0
523.9500000000007,-0.0044305939227342606,-0.010232686996459961,0.00017420551739633083,0.0,0.0,0.0,0.0,0.0004969086730852723,-0.002833912381902337,-0.0014853370375931263,1.0010719299316406,0.0,0.0,0.0,-0.8851161599159241,4.824039936065674,0.4538426697254181,160.20777893066406,0
533.8410000000003,-0.004361703060567379,-0.0101690124720335,0.00010707271576393396,0.0,0.0,0.0,0.0,-0.001657586544752121,0.0027607553638517857,0.0034355097450315952,1.000288486480713,0.0,0.0,0.0,-0.8839417695999146,4.810448169708252,0.44514521956443787,159.99522399902344,0
543.7260000000006,-0.004339498467743397,-0.010188844054937363,0.00013374275295063853,0.0,0.0,0.0,0.0,-0.00040665114647708833,-0.0008429093868471682,0.0014477147487923503,0.9990852475166321,0.0,0.0,0.0,-0.887933075428009,4.814947128295898,0.44633519649505615,160.7176513671875,0
553.6080000000002,-0.004309795331209898,-0.010157141834497452,0.00010170914174523205,0.0,0.0,0.0,0.0,0.002093002898618579,-0.0009564071078784764,-0.004503757692873478,0.9990876913070679,0.0,0.0,0.0,-0.8872164487838745,4.811704158782959,0.4489201605319977,160.58795166015625,0
563.4969999999994,-0.004376788157969713,-0.010153346695005894,0.00010859535541385412,0.0,0.0,0.0,0.0,-0.0013265173183754086,-0.0011263093911111355,-0.0007625897997058928,1.0005050897598267,0.0,0.0,0.0,-0.8944607973098755,4.813159942626953,0.42834389209747314,161.899169921875,0
573.3799999999992,-0.0043487632647156715,-0.01013485249131918,7.099143840605393e-05,0.0,0.0,0.0,0.0,0.001629920327104628,0.0007584765553474426,0.0023174190428107977,1.002502202987671,0.0,0.0,0.0,-0.8939050436019897,4.80874490737915,0.43908363580703735,161.79859924316406,0
583.2659999999996,-0.004318319261074066,-0.010166462510824203,8.835652261041105e-05,0.0,0.0,0.0,0.0,0.00035287419450469315,-0.001544149243272841,0.0009510195231996477,0.9993183016777039,0.0,0.0,0.0,-0.8939303159713745,4.807821273803711,0.44017207622528076,161.8031768798828,0
593.152,-0.004309701733291149,-0.010166751220822334,7.122999522835016e-05,0.0,0.0,0.0,0.0,-0.0005238426383584738,0.004938144702464342,0.002292066812515259,0.9999303221702576,0.0,0.0,0.0,-0.893486738204956,4.810642719268799,0.43291178345680237,161.72286987304688,0
603.039999999999,-0.0043135471642017365,-0.010171047411859035,9.188339754473418e-05,0.0,0.0,0.0,0.0,-0.00014503445709124207,0.0004631821357179433,-0.0016057436587288976,0.9993600249290466,0.0,0.0,0.0,-0.8982414603233337,4.808868408203125,0.4312599301338196,162.58349609375,0
612.9249999999993,-0.004300313536077738,-0.010152961127460003,7.42799966246821e-05,0.0,0.0,0.0,0.0,0.0011102374410256743,0.000885549234226346,0.00027890942874364555,0.9991060495376587,0.0,0.0,0.0,-0.8976895809173584,4.805367469787598,0.4184548556804657,162.4835968017578,0
622.8209999999999,-0.004314994905143976,-0.010154533199965954,9.025566396303475e-05,0.0,0.0,0.0,0.0,0.0026657958514988422,0.0029617822729051113,0.0013729818165302277,1.0002427101135254,0.0,0.0,0.0,-0.8960868120193481,4.794556617736816,0.42111194133758545,162.19349670410156,0
632.6949999999997,-0.004303625784814358,-0.010141260921955109,6.983851199038327e-05,0.0,0.0,0.0,0.0,0.0017885451670736074,-0.00016056449385359883,-0.00024548795772716403,0.9993398785591125,0.0,0.0,0.0,-0.8953053951263428,4.793705463409424,0.4200933873653412,162.0520477294922,0
642.5820000000003,-0.0044298795983195305,-0.010150015354156494,5.024047277402133e-05,0.0,0.0,0.0,0.0,0.0006067053182050586,-0.0017431932501494884,-0.0004206164157949388,0.9993181228637695,0.0,0.0,0.0,-0.9043286442756653,4.791744709014893,0.4045097529888153,163.68528747558594,0
652.4680000000008,-0.0044013867154717445,-0.010117197409272194,4.23155825046706e-06,0.0,0.0,0.0,0.0,-0.0010780837619677186,-0.005990920122712851,0.0018783384002745152,0.9990148544311523,0.0,0.0,0.0,-0.8887298703193665,4.802763938903809,0.4126473665237427,160.86187744140625,0
662.3559999999998,-0.004443490412086248,-0.010136635974049568,-9.648698551245616e-07,0.0,0.0,0.0,0.0,-0.0008009437005966902,-0.006898499559611082,0.003618186805397272,1.0005419254302979,0.0,0.0,0.0,-0.8980718851089478,4.807915210723877,0.4047561287879944,162.55279541015625,0
672.2399999999998,-0.0044306484051048756,-0.010114168748259544,-3.523689156281762e-05,0.0,0.0,0.0,0.0,0.0001515317417215556,0.0007900406490080059,-0.002915136981755495,1.0018757581710815,0.0,0.0,0.0,-0.890320897102356,4.81447172164917,0.4182336628437042,161.1498565673828,0
682.1329999999998,-0.004396306816488504,-0.010182195343077183,-3.589782863855362e-05,0.0,0.0,0.0,0.0,0.0006262245588004589,-0.0007648239843547344,0.0018647009273990989,0.9997944831848145,0.0,0.0,0.0,-0.8987447619438171,4.804004192352295,0.4253726899623871,162.67459106445312,0
692.0130000000008,-0.004339099861681461,-0.010097176767885685,-0.00010451084381202236,0.0,0.0,0.0,0.0,-0.00021849351469427347,0.005351465195417404,-0.00016815894923638552,1.0013095140457153,0.0,0.0,0.0,-0.8976976871490479,4.7982025146484375,0.4232325851917267,162.4850616455078,0
701.9069999999992,-0.004308638628572226,-0.010086800903081894,-8.593880920670927e-05,0.0,0.0,0.0,0.0,-0.002467640908434987,-0.0033404871355742216,0.0036798049695789814,1.0005414485931396,0.0,0.0,0.0,-0.9045126438140869,4.795526027679443,0.42776504158973694,163.71859741210938,0
711.7860000000001,-0.004383325111120939,-0.010117030702531338,-3.82108919438906e-05,0.0,0.0,0.0,0.0,-0.0015325277345255017,0.0028090074192732573,-0.002328569767996669,1.002397894859314,0.0,0.0,0.0,-0.8862146735191345,4.795167446136475,0.4267835021018982,160.40663146972656,0
721.6779999999999,-0.004309060517698526,-0.01014676783233881,-8.925808288040571e-06,0.0,0.0,0.0,0.0,0.0021282220259308815,0.0043136621825397015,-0.003968635108321905,1.002378225326538,0.0,0.0,0.0,-0.8851752281188965,4.79478120803833,0.4348870515823364,160.21847534179688,0
731.5589999999993,-0.004378123674541712,-0.01021922193467617,3.4155080356867984e-05,0.0,0.0,0.0,0.0,0.0022313708905130625,0.0024139657616615295,-0.0030966587364673615,1.0001015663146973,0.0,0.0,0.0,-0.8793331980705261,4.784183025360107,0.43028900027275085,159.1610565185547,0
741.4500000000007,-0.004328843671828508,-0.010208982974290848,8.04090013843961e-05,0.0,0.0,0.0,0.0,-0.00042371288873255253,0.002121114870533347,-0.003160784486681223,1.0013957023620605,0.0,0.0,0.0,-0.8785650134086609,4.772593021392822,0.41934922337532043,159.02200317382812,0
751.3269999999993,-0.004335450474172831,-0.01017768681049347,9.106968354899436e-05,0.0,0.0,0.0,0.0,-0.0018858498660847545,0.0011788918636739254,4.6848508645780385e-05,0.9998961687088013,0.0,0.0,0.0,-0.8626906275749207,4.78218412399292,0.4257234036922455,156.1487274169922,0
761.2209999999995,-0.004321116954088211,-0.010192004032433033,0.00012334619532339275,0.0,0.0,0.0,0.0,-0.003151452634483576,-0.00564067205414176,0.0007875297451391816,1.0014986991882324,0.0,0.0,0.0,-0.8626028299331665,4.7822113037109375,0.4192558825016022,156.13282775878906,0
771.1000000000004,-0.004296053200960159,-0.010178444907069206,9.386653255205601e-05,0.0,0.0,0.0,0.0,-0.0017899390077218413,0.002097500255331397,0.0023766166996210814,1.0000309944152832,0.0,0.0,0.0,-0.861224889755249,4.7773003578186035,0.4260474145412445,155.88340759277344,0
780.9930000000004,-0.004388381727039814,-0.010242139920592308,8.264619827969e-05,0.0,0.0,0.0,0.0,-0.0011255178833380342,-0.003427537390962243,-0.0005700669134967029,1.0014052391052246,0.0,0.0,0.0,-0.8687383532524109,4.779753684997559,0.4221586287021637,157.24337768554688,0
790.8709999999992,-0.004343744833022356,-0.010173988528549671,3.43766478181351e-05,0.0,0.0,0.0,0.0,-0.0002043168933596462,0.005316238850355148,-0.0037501677870750427,0.9999125599861145,0.0,0.0,0.0,-0.852124035358429,4.7959675788879395,0.42943075299263,154.2361602783203,0
800.768,-0.004310309421271086,-0.010177230462431908,7.386594370473176e-05,0.0,0.0,0.0,0.0,-0.003718840191140771,0.00014514013309963048,-0.0037639534566551447,0.9991270899772644,0.0,0.0,0.0,-0.8578827977180481,4.798811435699463,0.4399367868900299,155.2784881591797,0
810.643,-0.004250247962772846,-0.010093346238136292,1.485033135395497e-05,0.0,0.0,0.0,0.0,0.0025000832974910736,0.003489922033622861,0.0012626885436475277,0.9998815059661865,0.0,0.0,0.0,-0.8448907136917114,4.823306560516357,0.4477466940879822,152.92691040039062,0
820.5419999999995,-0.004278785083442926,-0.010136310011148453,2.0085470168851316e-05,0.0,0.0,0.0,0.0,3.450246003922075e-05,0.0003306798171252012,-0.0017433003522455692,0.9989062547683716,0.0,0.0,0.0,-0.8451038599014282,4.815914630889893,0.44530633091926575,152.96548461914062,0
830.4179999999997,-0.004254997707903385,-0.010087301954627037,-1.2103182598366402e-05,0.0,0.0,0.0,0.0,-0.0018906876211985946,0.0002466839796397835,-0.0018837181851267815,0.9985187649726868,0.0,0.0,0.0,-0.8445661664009094,4.808447360992432,0.4454316198825836,152.8681640625,0
840.3109999999997,-0.004281914327293634,-0.010105474852025509,-4.934403023071354e-06,0.0,0.0,0.0,0.0,-0.00041837271419353783,0.0002583299356047064,0.0007777753053233027,1.0013076066970825,0.0,0.0,0.0,-0.8515985608100891,4.807509899139404,0.431742787361145,154.1410369873047,0
850.1859999999997,-0.0043126242235302925,-0.010132035240530968,2.7873679755430203e-06,0.0,0.0,0.0,0.0,0.0028959333430975676,-0.0010899626649916172,0.0012956628343090415,0.9997370839118958,0.0,0.0,0.0,-0.8507451415061951,4.803523063659668,0.43635880947113037,153.986572265625,0
860.0830000000005,-0.004367710091173649,-0.010183063335716724,-6.046735961717786e-06,0.0,0.0,0.0,0.0,0.0019378942670300603,-0.004369182977825403,0.0017374360468238592,0.9998505115509033,0.0,0.0,0.0,-0.8620038628578186,4.798624515533447,0.4361517131328583,156.02442932128906,0
869.9599999999991,-0.004360772203654051,-0.010158532299101353,-2.8762773581547663e-05,0.0,0.0,0.0,0.0,-0.004188940394669771,-0.0021953159011900425,0.00048047295422293246,0.9983269572257996,0.0,0.0,0.0,-0.8611770868301392,4.790615558624268,0.43126052618026733,155.87477111816406,0
879.8649999999998,-0.00431619118899107,-0.010148902423679829,9.19481954042567e-06,0.0,0.0,0.0,0.0,-0.0012272868771106005,-0.00525625329464674,-0.0025615321937948465,0.9994226098060608,0.0,0.0,0.0,-0.8689510822296143,4.797055244445801,0.44308391213417053,157.28187561035156,0
889.7379999999994,-0.004326686263084412,-0.010164243169128895,-1.5757902929181e-06,0.0,0.0,0.0,0.0,-0.0003467567730695009,0.0003594731097109616,-0.0007554335170425475,0.9998371601104736,0.0,0.0,0.0,-0.8678367733955383,4.792619228363037,0.4546574652194977,157.08018493652344,0
899.6319999999996,-0.004381771199405193,-0.010183717124164104,3.6078515108783904e-07,0.0,0.0,0.0,0.0,-0.0005785697721876204,-0.0023162432480603456,0.000399266165914014,1.0000572204589844,0.0,0.0,0.0,-0.8798478841781616,4.795063018798828,0.4612475633621216,159.25421142578125,0
909.5100000000002,-0.004374371375888586,-0.010159001685678959,-2.8098213078919798e-05,0.0,0.0,0.0,0.0,0.0003936346329282969,0.00251118210144341,-0.003998392261564732,0.9994664788246155,0.0,0.0,0.0,-0.8781465888023376,4.788555145263672,0.45403042435646057,158.94627380371094,0
919.4050000000007,-0.004332434851676226,-0.010139888152480125,8.508277460350655e-06,0.0,0.0,0.0,0.0,0.0016143936663866043,0.00011354172602295876,-0.0010917476611211896,1.0001925230026245,0.0,0.0,0.0,-0.8858293890953064,4.795875549316406,0.4599491357803345,160.3368682861328,0
929.2759999999998,-0.004388515371829271,-0.010157984681427479,4.158061710768379e-05,0.0,0.0,0.0,0.0,-0.0009816499659791589,0.0033901676069945097,0.00034553708974272013,1.0018495321273804,0.0,0.0,0.0,-0.8841541409492493,4.793222427368164,0.4502163529396057,160.03367614746094,0
939.1769999999997,-0.0043829879723489285,-0.01019440870732069,5.5342537962133065e-05,0.0,0.0,0.0,0.0,0.002168242121115327,0.0022231254260987043,0.0004547082062344998,0.9992932677268982,0.0,0.0,0.0,-0.8835052847862244,4.791337013244629,0.45871609449386597,159.9162139892578,0
949.0489999999991,-0.004403276368975639,-0.010173588059842587,6.331345502985641e-05,0.0,0.0,0.0,0.0,-0.0014426924753934145,0.003611795837059617,0.0034359153360128403,1.0012550354003906,0.0,0.0,0.0,-0.8763454556465149,4.791391849517822,0.4418652653694153,158.62026977539062,0
958.9619999999995,-0.004300060216337442,-0.010217509232461452,0.00010346789349569008,0.0,0.0,0.0,0.0,-0.0006377711542882025,-0.0026022037491202354,0.002119482262060046,1.000846028327942,0.0,0.0,0.0,-0.8811976909637451,4.781964302062988,0.4480089247226715,159.49853515625,0
968.8289999999997,-0.004280599765479565,-0.01018619816750288,7.742455636616796e-05,0.0,0.0,0.0,0.0,-0.00024634235887788236,-0.0004597034421749413,-0.001792787341400981,1.0007991790771484,0.0,0.0,0.0,-0.8799203634262085,4.777256488800049,0.45560336112976074,159.267333984375,0
978.723,-0.004304738249629736,-0.010172717273235321,0.00010047551040770486,0.0,0.0,0.0,0.0,-0.000800081470515579,-0.003976115956902504,0.003589544678106904,0.9990394115447998,0.0,0.0,0.0,-0.885166347026825,4.786983013153076,0.44941437244415283,160.2168731689453,0
988.5939999999991,-0.004283480811864138,-0.010093062184751034,8.102101855911314e-05,0.0,0.0,0.0,0.0,-0.0009622682700864971,-0.0021651191636919975,0.0010735715040937066,0.9970327019691467,0.0,0.0,0.0,-0.8669800162315369,4.799909591674805,0.4628213047981262,156.92510986328125,0
998.491,-0.004361879546195269,-0.010151644237339497,6.633200973737985e-05,0.0,0.0,0.0,0.0,0.002054176526144147,0.0006849110359326005,-0.0017606641631573439,0.9992080926895142,0.0,0.0,0.0,-0.876603364944458,4.794498443603516,0.453118234872818,158.6669464111328,0
1008.3700000000008,-0.004356447607278824,-0.010129851289093494,4.146342325839214e-05,0.0,0.0,0.0,0.0,0.0001786147040547803,-0.00012762649566866457,0.0005902315606363118,0.9983419179916382,0.0,0.0,0.0,-0.8758474588394165,4.784232139587402,0.46412891149520874,158.53013610839844,0
1018.2549999999992,-0.004314521327614784,-0.010144672356545925,6.75047340337187e-05,0.0,0.0,0.0,0.0,-0.0011620069853961468,-0.002251577330753207,-0.0026278854347765446,1.0008410215377808,0.0,0.0,0.0,-0.8744801878929138,4.777529716491699,0.46506834030151367,158.2826690673828,0
1028.1380000000008,-0.00435177655890584,-0.010139874182641506,8.929834439186379e-05,0.0,0.0,0.0,0.0,0.0033315408509224653,-0.005055652931332588,0.0012145391665399075,1.0020111799240112,0.0,0.0,0.0,-0.8742503523826599,4.768620014190674,0.4613669216632843,158.24105834960938,0
1038.0380000000005,-0.004323870409280062,-0.010159487836062908,0.00011117634130641818,0.0,0.0,0.0,0.0,0.0006448014755733311,0.0026903534308075905,-0.0016722510335966945,1.0016459226608276,0.0,0.0,0.0,-0.8791214823722839,4.776226043701172,0.4669329524040222,159.12274169921875,0
1047.9069999999992,-0.004319566302001476,-0.010156193748116493,8.918035018723458e-05,0.0,0.0,0.0,0.0,0.00042914427467621863,-0.0025656314101070166,-0.0016720545245334506,1.0001566410064697,0.0,0.0,0.0,-0.8793185949325562,4.765751361846924,0.46785297989845276,159.1584014892578,0
1057.8099999999995,-0.004325962625443935,-0.010161921381950378,0.00011020497186109424,0.0,0.0,0.0,0.0,-0.0016375022241845727,-0.005877309944480658,0.0009302286198362708,1.000820517539978,0.0,0.0,0.0,-0.8783878684043884,4.759251117706299,0.4728928208351135,158.9899444580078,0
1067.6810000000005,-0.004319256637245417,-0.010153609327971935,8.576703839935362e-05,0.0,0.0,0.0,0.0,-0.0003063569020014256,0.0039038739632815123,-0.004066123627126217,0.9983698725700378,0.0,0.0,0.0,-0.8781962394714355,4.7514424324035645,0.477535218000412,158.9552764892578,0
1077.5849999999991,-0.004307966213673353,-0.010164146311581135,0.00011003837425960228,0.0,0.0,0.0,0.0,0.003972591366618872,0.0028891772963106632,-0.0020367365796118975,0.9991050958633423,0.0,0.0,0.0,-0.877580463886261,4.74684476852417,0.4752527177333832,158.84381103515625,0
1087.4619999999995,-0.004343654494732618,-0.010192735120654106,0.00012129602691857144,0.0,0.0,0.0,0.0,0.0003538896853569895,0.006840345915406942,-0.0038694068789482117,1.0013856887817383,0.0,0.0,0.0,-0.8629709482192993,4.737568378448486,0.46325060725212097,156.19944763183594,0
1097.348,-0.004317489918321371,-0.01019635796546936,0.00015393983630929142,0.0,0.0,0.0,0.0,-0.0009439851273782551,-0.003768103662878275,0.002235514810308814,1.0004104375839233,0.0,0.0,0.0,-0.8622281551361084,4.73260498046875,0.4455983340740204,156.06500244140625,0
1107.2219999999998,-0.004297019448131323,-0.010166032239794731,0.00012407124449964613,0.0,0.0,0.0,0.0,-0.0013152072206139565,-0.0018145598005503416,-0.0043193986639380455,0.9983518123626709,0.0,0.0,0.0,-0.8618422150611877,4.723708152770996,0.43203577399253845,155.99514770507812,0
1117.1290000000008,-0.004317793995141983,-0.010175483301281929,0.00013985902478452772,0.0,0.0,0.0,0.0,0.00020418078929651529,-0.003212809329852462,-0.0030652363784611225,0.998552680015564,0.0,0.0,0.0,-0.8665004968643188,4.7303080558776855,0.4307790994644165,156.83831787109375,0
1126.9940000000006,-0.004305884707719088,-0.010163934901356697,0.00011217083374504,0.0,0.0,0.0,0.0,0.0011859247460961342,0.000382143072783947,-0.0008646377827972174,1.0000308752059937,0.0,0.0,0.0,-0.86648029088974,4.727233409881592,0.4350731074810028,156.83465576171875,0
1136.8970000000008,-0.004353557713329792,-0.01018616370856762,0.00011578531848499551,0.0,0.0,0.0,0.0,0.0013085963437333703,0.0005000648670829833,0.00012204313679831102,1.000643014907837,0.0,0.0,0.0,-0.8722481727600098,4.728248119354248,0.4276084005832672,157.87864685058594,0
1146.768,-0.004339450038969517,-0.01015930064022541,8.257095032604411e-05,0.0,0.0,0.0,0.0,-0.0014813531888648868,0.00079336017370224,-0.003373652696609497,1.0015743970870972,0.0,0.0,0.0,-0.8714747428894043,4.723393440246582,0.4248286783695221,157.73866271972656,0
1156.664999999999,-0.004412055015563965,-0.010172003880143166,7.952232408570126e-05,0.0,0.0,0.0,0.0,0.003722486784681678,0.0033893652725964785,0.0002687235246412456,0.9988462924957275,0.0,0.0,0.0,-0.881081223487854,4.722300052642822,0.4235927164554596,159.47744750976562,0
1166.5550000000003,-0.004393085837364197,-0.010145638138055801,3.845621904474683e-05,0.0,0.0,0.0,0.0,-0.0013899647165089846,0.0009345307480543852,0.0024481790605932474,0.9987314939498901,0.0,0.0,0.0,-0.8807179927825928,4.716402530670166,0.42009633779525757,159.4116973876953,0
1176.4320000000007,-0.004423767793923616,-0.01018229965120554,3.65854830306489e-05,0.0,0.0,0.0,0.0,0.0027066476177424192,0.004024949390441179,-0.0038251637015491724,1.0002965927124023,0.0,0.0,0.0,-0.8797391653060913,4.710771560668945,0.42037636041641235,159.2345428466797,0
1186.3140000000003,-0.004448171705007553,-0.010151766240596771,4.541531598079018e-05,0.0,0.0,0.0,0.0,-0.0007995075429789722,0.0019324562745168805,0.001963711576536298,1.0005418062210083,0.0,0.0,0.0,-0.8715614676475525,4.725625991821289,0.4072791337966919,157.7543487548828,0
1196.2099999999991,-0.004376189783215523,-0.01024271547794342,6.571166886715218e-05,0.0,0.0,0.0,0.0,-0.001317257876507938,-0.004247081931680441,-0.0006707741995342076,1.000222086906433,0.0,0.0,0.0,-0.8839209079742432,4.7107930183410645,0.41896969079971313,159.99143981933594,0
1206.0879999999997,-0.004348411690443754,-0.01019873097538948,2.774304448394105e-05,0.0,0.0,0.0,0.0,-0.0017973436042666435,-0.0058384547010064125,7.766064663883299e-05,1.0003669261932373,0.0,0.0,0.0,-0.8818770051002502,4.704273223876953,0.4199993312358856,159.62149047851562,0
1215.9830000000002,-0.004371389281004667,-0.010238694958388805,2.495731314411387e-05,0.0,0.0,0.0,0.0,0.0021225949749350548,0.002560911001637578,-0.001329299295321107,1.0006588697433472,0.0,0.0,0.0,-0.8807063102722168,4.703948974609375,0.4342971742153168,159.4095916748047,0
1225.8610000000008,-0.004392954055219889,-0.010203209705650806,4.351035750005394e-05,0.0,0.0,0.0,0.0,0.0013855512952432036,-0.001480841776356101,0.0007712352089583874,0.9989367723464966,0.0,0.0,0.0,-0.8794642090797424,4.698043346405029,0.4348103106021881,159.1847686767578,0
1235.7530000000006,-0.004409502260386944,-0.010228797793388367,5.09095007146243e-05,0.0,0.0,0.0,0.0,0.0005653980188071728,0.0029201654251664877,-0.00010260457929689437,1.0007275342941284,0.0,0.0,0.0,-0.8903678059577942,4.694965839385986,0.42046985030174255,161.15834045410156,0
1245.625,-0.00441763224080205,-0.010222082957625389,4.6481141907861456e-05,0.0,0.0,0.0,0.0,-0.0009570986730977893,0.0007182445842772722,0.0002111175563186407,1.0010920763015747,0.0,0.0,0.0,-0.8706674575805664,4.702044486999512,0.42279526591300964,157.592529296875,0
1255.518,-0.004394682124257088,-0.010232711210846901,6.961297185625881e-05,0.0,0.0,0.0,0.0,-0.0009137568413279951,-0.0013270662166178226,0.001928133424371481,0.9998767375946045,0.0,0.0,0.0,-0.8755903244018555,4.702263832092285,0.4372527301311493,158.4835968017578,0
1265.4030000000002,-0.004395439755171537,-0.010194279253482819,6.96195857017301e-05,0.0,0.0,0.0,0.0,-0.00161761324852705,-0.003935016691684723,-0.0033911699429154396,0.9997432827949524,0.0,0.0,0.0,-0.8685858845710754,4.711258888244629,0.4315780997276306,157.2157745361328,0
1275.2980000000007,-0.004431989509612322,-0.01017233170568943,8.883498958311975e-05,0.0,0.0,0.0,0.0,-0.0005838322686031461,0.002242976101115346,-0.0026710114907473326,0.9983150362968445,0.0,0.0,0.0,-0.8667064309120178,4.710273742675781,0.44767656922340393,156.87559509277344,0
1285.1800000000003,-0.004390147514641285,-0.010131191462278366,3.9580849261255935e-05,0.0,0.0,0.0,0.0,-0.003394349478185177,0.001324186916463077,-0.0017389825079590082,0.9979878664016724,0.0,0.0,0.0,-0.8501722812652588,4.726317405700684,0.47129541635513306,153.8828582763672,0
1295.0789999999997,-0.004337637219578028,-0.010167605243623257,6.196956383064389e-05,0.0,0.0,0.0,0.0,-0.0015346002764999866,-0.003244017483666539,-0.0012885694159194827,1.000841498374939,0.0,0.0,0.0,-0.8601399064064026,4.724752426147461,0.4800419509410858,155.68704223632812,0
1304.9400000000005,-0.004274243488907814,-0.010099861770868301,-7.606894087075489e-06,0.0,0.0,0.0,0.0,0.0010035451268777251,0.001865674159489572,-0.001821373589336872,0.9990987181663513,0.0,0.0,0.0,-0.8600488901138306,4.725820064544678,0.4864208996295929,155.67056274414062,0
1314.8359999999993,-0.0043428996577858925,-0.010062147863209248,-1.6800478306322475e-06,0.0,0.0,0.0,0.0,-0.00151198694948107,-0.0017572413198649883,6.737070361850783e-05,0.9984313249588013,0.0,0.0,0.0,-0.8580218553543091,4.721436977386475,0.49228811264038086,155.30364990234375,0
1324.7209999999995,-0.004359066020697355,-0.010079926811158657,-1.4694946912641171e-05,0.0,0.0,0.0,0.0,-0.0030304300598800182,-0.005415954161435366,-0.00010698993719415739,1.0010535717010498,0.0,0.0,0.0,-0.8420593738555908,4.7221198081970215,0.49425363540649414,152.41441345214844,0
1334.6090000000004,-0.004417698830366135,-0.010120761580765247,-3.317896698717959e-05,0.0,0.0,0.0,0.0,-0.0019420863827690482,-0.0038834894075989723,0.0006272131577134132,0.9998746514320374,0.0,0.0,0.0,-0.8498714566230774,4.72275447845459,0.49577978253364563,153.8284149169922,0
1344.4969999999994,-0.004415295552462339,-0.010115230455994606,-6.569171091541648e-05,0.0,0.0,0.0,0.0,-0.0035333214327692986,-0.0030274302698671818,0.0002032100601354614,0.998586118221283,0.0,0.0,0.0,-0.8486267924308777,4.721998691558838,0.495236873626709,153.6031494140625,0
1354.3909999999996,-0.0043793851509690285,-0.010170581750571728,-6.0458332882262766e-05,0.0,0.0,0.0,0.0,0.0009534292621538043,-0.0008647209033370018,-0.0023231517989188433,0.9988959431648254,0.0,0.0,0.0,-0.8579342365264893,4.723878860473633,0.504874587059021,155.2877960205078,0
1364.2559999999994,-0.004413892515003681,-0.01016753725707531,-4.935371543979272e-05,0.0,0.0,0.0,0.0,0.0005779620842076838,2.2282951249508187e-05,-0.0008958829566836357,0.9967381358146667,0.0,0.0,0.0,-0.8464342355728149,4.7350921630859375,0.5178038477897644,153.20628356933594,0
1374.152,-0.004324414301663637,-0.010156240314245224,-1.0711373761296272e-05,0.0,0.0,0.0,0.0,-0.0012815473601222038,-0.0029730957467108965,-0.00046882033348083496,0.9984148144721985,0.0,0.0,0.0,-0.8524745106697083,4.73865270614624,0.5247665643692017,154.29959106445312,0
1384.0390000000007,-0.004329943563789129,-0.010140310041606426,-2.125054015778005e-05,0.0,0.0,0.0,0.0,-0.0013199085369706154,-0.002502275863662362,0.0010643881978467107,1.0015987157821655,0.0,0.0,0.0,-0.8383713960647583,4.744795799255371,0.539287805557251,151.74688720703125,0
1393.929,-0.0043722279369831085,-0.010176638141274452,-3.579011172405444e-05,0.0,0.0,0.0,0.0,-0.002914868062362075,-0.0034798893611878157,0.0019332552328705788,1.0011930465698242,0.0,0.0,0.0,-0.8494746088981628,4.746683597564697,0.533080518245697,153.756591796875,0
1403.8019999999997,-0.004365770146250725,-0.010169469751417637,-6.129891698947176e-05,0.0,0.0,0.0,0.0,0.001047581434249878,-0.0010670340852811933,0.00013317102275323123,1.0013667345046997,0.0,0.0,0.0,-0.8481993079185486,4.745208740234375,0.5537450909614563,153.52577209472656,0
1413.7000000000007,-0.004376203753054142,-0.01018704753369093,-5.692412378266454e-05,0.0,0.0,0.0,0.0,0.0010165778221562505,0.003346347017213702,0.0017140533309429884,0.999626100063324,0.0,0.0,0.0,-0.8585241436958313,4.743277072906494,0.5581551194190979,155.3945770263672,0
1423.5789999999997,-0.004371504299342632,-0.01016928069293499,-7.57881862227805e-05,0.0,0.0,0.0,0.0,-0.003023384604603052,-0.0028788656927645206,0.0015591148985549808,0.998742938041687,0.0,0.0,0.0,-0.8574953079223633,4.740042209625244,0.5616413950920105,155.20834350585938,0
1433.4719999999998,-0.004271233454346657,-0.010196528397500515,-4.5601333113154396e-05,0.0,0.0,0.0,0.0,-0.0004193786589894444,0.001131031778641045,0.00345574296079576,0.9986584782600403,0.0,0.0,0.0,-0.8641387224197388,4.737171649932861,0.5761449933052063,156.4108123779297,0
1443.3459999999995,-0.004232420120388269,-0.010135003365576267,-8.813000022200868e-05,0.0,0.0,0.0,0.0,0.0003053980180993676,0.005345639772713184,0.0014535996597260237,0.9989151358604431,0.0,0.0,0.0,-0.8629080057144165,4.728471279144287,0.5822371244430542,156.1880645751953,0
1453.2420000000002,-0.004249422810971737,-0.010170693509280682,-9.687820420367643e-05,0.0,0.0,0.0,0.0,0.0022920866031199694,0.0024491476360708475,-0.00036402593832463026,0.9986615180969238,0.0,0.0,0.0,-0.860602855682373,4.724864482879639,0.5724648833274841,155.77084350585938,0
1463.116,-0.004281419329345226,-0.010170256718993187,-8.013965998543426e-05,0.0,0.0,0.0,0.0,0.002771524479612708,-0.0020774025470018387,0.00019610067829489708,0.9982907772064209,0.0,0.0,0.0,-0.8593961596488953,4.719109058380127,0.5645906925201416,155.5524139404297,0
1473.0069999999996,-0.00421789288520813,-0.010177744552493095,-4.76187706226483e-05,0.0,0.0,0.0,0.0,-0.0016619072994217277,0.0003870257642120123,-0.00176609109621495,1.0000855922698975,0.0,0.0,0.0,-0.8661613464355469,4.721179485321045,0.577343225479126,156.77694702148438,0
1482.8989999999994,-0.004283951595425606,-0.010203142650425434,8.05003128334647e-06,0.0,0.0,0.0,0.0,0.000460434501292184,-0.0009473805548623204,-0.0004172201151959598,0.9999593496322632,0.0,0.0,0.0,-0.8658955693244934,4.712847709655762,0.5696459412574768,156.7288055419922,0
1492.780999999999,-0.00434105983003974,-0.010258115828037262,-9.901731573336292e-06,0.0,0.0,0.0,0.0,-0.0006135221919976175,0.001640310394577682,0.0030761477537453175,0.9995077252388,0.0,0.0,0.0,-0.876045286655426,4.705012321472168,0.5630609393119812,158.56593322753906,0
1502.6669999999995,-0.004362883511930704,-0.01022458728402853,9.307096661359537e-06,0.0,0.0,0.0,0.0,0.00010755497351055965,0.0066101523116230965,0.00016751947987359017,1.0007761716842651,0.0,0.0,0.0,-0.867382287979126,4.716255187988281,0.5645850300788879,156.99794006347656,0
1512.5519999999997,-0.004383561201393604,-0.010243536904454231,1.703202178759966e-05,0.0,0.0,0.0,0.0,0.0010748824570327997,0.0016778688877820969,0.001405106158927083,1.002184510231018,0.0,0.0,0.0,-0.8764623999595642,4.724867343902588,0.5489435791969299,158.6414337158203,0
1522.4390000000003,-0.00434998981654644,-0.010193477384746075,-1.9774724933085963e-05,0.0,0.0,0.0,0.0,-0.0010682397987693548,-0.0001037014662870206,-0.004599272273480892,0.9988563656806946,0.0,0.0,0.0,-0.861869215965271,4.74232816696167,0.5388234257698059,156.0000457763672,0
1532.3189999999995,-0.00430992292240262,-0.010178543627262115,1.3384346857492346e-05,0.0,0.0,0.0,0.0,0.0018384328577667475,-0.0006679429206997156,-0.0011643491452559829,1.0001784563064575,0.0,0.0,0.0,-0.8671373724937439,4.7488274574279785,0.5522202849388123,156.95358276367188,0
1542.2099999999991,-0.004307718016207218,-0.010179211385548115,1.7424524685338838e-06,0.0,0.0,0.0,0.0,0.002809577388688922,0.004283834248781204,0.0003442312590777874,0.9993287324905396,0.0,0.0,0.0,-0.8669509887695312,4.739955902099609,0.5542382597923279,156.91986083984375,0
1552.0930000000008,-0.004304592497646809,-0.010170725174248219,2.4165025024558417e-05,0.0,0.0,0.0,0.0,-0.0017924713902175426,0.0016464655054733157,-0.0025984402745962143,0.9996996521949768,0.0,0.0,0.0,-0.8717203736305237,4.745429039001465,0.5597611665725708,157.78311157226562,0
1561.9830000000002,-0.004245880991220474,-0.010090677998960018,-3.568738611647859e-05,0.0,0.0,0.0,0.0,5.5951826652744785e-05,0.0003979456960223615,-0.0002325047826161608,1.0012407302856445,0.0,0.0,0.0,-0.8564890027046204,4.753411769866943,0.5588681101799011,155.0261993408203,0
1571.8790000000008,-0.004274576436728239,-0.010130153968930244,-4.0930608520284295e-05,0.0,0.0,0.0,0.0,0.0018681904766708612,0.0028370129875838757,-0.0026681760791689157,1.000942587852478,0.0,0.0,0.0,-0.8686800003051758,4.758098125457764,0.548511803150177,157.23280334472656,0
1581.759,-0.004282250534743071,-0.010098355822265148,-3.875909897033125e-05,0.0,0.0,0.0,0.0,0.0007001423509791493,0.005123460665345192,-0.0008282862254418433,1.0008069276809692,0.0,0.0,0.0,-0.8676274418830872,4.752849102020264,0.5411209464073181,157.04229736328125,0
1591.6389999999992,-0.0042488849721848965,-0.010156781412661076,-3.164992085658014e-05,0.0,0.0,0.0,0.0,0.0036757555790245533,0.002901750849559903,-0.001117382780648768,0.9981659650802612,0.0,0.0,0.0,-0.8737264275550842,4.743760108947754,0.5315845012664795,158.14622497558594,0
1601.5210000000006,-0.0042685773223638535,-0.010172287002205849,-2.3610547941643745e-05,0.0,0.0,0.0,0.0,-0.0006041988963261247,0.0020121035631746054,-0.0012854047818109393,0.9987277388572693,0.0,0.0,0.0,-0.8593889474868774,4.743206977844238,0.5164283514022827,155.5511016845703,0
1611.405999999999,-0.004370099399238825,-0.010174708440899849,-3.164466397720389e-05,0.0,0.0,0.0,0.0,0.0020860042423009872,0.0024573395494371653,-0.0012751168105751276,0.9988113641738892,0.0,0.0,0.0,-0.8715255260467529,4.749111175537109,0.491682231426239,157.74786376953125,0
1621.2999999999993,-0.0043582129292190075,-0.010156083852052689,-5.213807162363082e-05,0.0,0.0,0.0,0.0,2.7092777600046247e-05,0.003958419431000948,0.00135973677970469,1.0000572204589844,0.0,0.0,0.0,-0.8715844750404358,4.744729042053223,0.4868265390396118,157.75851440429688,0
1631.1900000000005,-0.004391009919345379,-0.0101188188418746,-3.0675550078740343e-05,0.0,0.0,0.0,0.0,0.0004827216034755111,0.0005296063027344644,-0.002345980377867818,0.9992397427558899,0.0,0.0,0.0,-0.8773794174194336,4.751626968383789,0.480145663022995,158.80743408203125,0
1641.063,-0.004389060195535421,-0.01012994535267353,-4.8966772737912834e-05,0.0,0.0,0.0,0.0,-0.0014076792867854238,0.00082078279228881,0.0012832056963816285,0.9985524415969849,0.0,0.0,0.0,-0.8702555298805237,4.753678321838379,0.4755193889141083,157.51797485351562,0
1650.950999999999,-0.004386218264698982,-0.010186470113694668,-5.108374898554757e-05,0.0,0.0,0.0,0.0,-0.0028895288705825806,-0.0017629764042794704,-0.0011023953557014465,0.9997609257698059,0.0,0.0,0.0,-0.8805265426635742,4.753880023956299,0.47953662276268005,159.37704467773438,0
1660.8349999999991,-0.004403859842568636,-0.010177544318139553,-4.227911995258182e-05,0.0,0.0,0.0,0.0,-0.0034680410753935575,-0.004522034432739019,-0.003263844409957528,0.9987767338752747,0.0,0.0,0.0,-0.8653296828269958,4.760371685028076,0.47786757349967957,156.6263885498047,0
1670.7260000000006,-0.00440865708515048,-0.0101431580260396,-1.4965421542001422e-05,0.0,0.0,0.0,0.0,-0.0029578220564872026,-0.0015360817778855562,-0.001670414349064231,1.0008316040039062,0.0,0.0,0.0,-0.8743336200714111,4.777708053588867,0.478473037481308,158.25613403320312,0
1680.6080000000002,-0.004439351614564657,-0.010149870067834854,8.921050721255597e-06,0.0,0.0,0.0,0.0,-0.0004938672645948827,-0.006402861326932907,-0.0001824024657253176,0.9986203908920288,0.0,0.0,0.0,-0.8745071291923523,4.7718987464904785,0.4864019453525543,158.28753662109375,0
1690.5030000000006,-0.004428124986588955,-0.010140927508473396,3.574744187062606e-05,0.0,0.0,0.0,0.0,-0.0037525997031480074,0.0011683190241456032,0.0019493727013468742,0.9992880821228027,0.0,0.0,0.0,-0.8800190687179565,4.784703254699707,0.4977518618106842,159.2852020263672,0
1700.384,-0.004431225825101137,-0.010133297182619572,3.440648288233206e-05,0.0,0.0,0.0,0.0,0.002045338973402977,-0.0005371316219680011,-0.0008141752914525568,0.9978429675102234,0.0,0.0,0.0,-0.8628309369087219,4.789154052734375,0.5172174572944641,156.1741180419922,0
1710.2669999999998,-0.004403725266456604,-0.01012624055147171,6.640124775003642e-05,0.0,0.0,0.0,0.0,-0.0010733313392847776,-0.001099192420952022,0.0032502170652151108,0.9979224801063538,0.0,0.0,0.0,-0.8687976002693176,4.797614097595215,0.5265425443649292,157.25408935546875,0
1720.1569999999992,-0.004405197687447071,-0.010124247521162033,6.088092050049454e-05,0.0,0.0,0.0,0.0,-0.002063916064798832,0.004877205938100815,0.0011416205670684576,0.998682975769043,0.0,0.0,0.0,-0.8557146191596985,4.795995235443115,0.514212429523468,154.88604736328125,0
1730.0370000000003,-0.00441371276974678,-0.010135172866284847,7.110214210115373e-05,0.0,0.0,0.0,0.0,0.003353715408593416,0.0008170689106918871,0.0006907108472660184,1.0003970861434937,0.0,0.0,0.0,-0.861254096031189,4.800846099853516,0.5131876468658447,155.88870239257812,0
1739.9230000000007,-0.004384688101708889,-0.010128796100616455,2.991758992720861e-05,0.0,0.0,0.0,0.0,0.0006920845480635762,0.005515492986887693,-0.0010263017611578107,1.001094102859497,0.0,0.0,0.0,-0.8612092137336731,4.791444778442383,0.4985367953777313,155.88058471679688,0
1749.813,-0.0043226806446909904,-0.010152907110750675,5.281878839014098e-05,0.0,0.0,0.0,0.0,0.0004055293102283031,0.004765658173710108,0.0017519901739433408,0.9994122982025146,0.0,0.0,0.0,-0.8659505248069763,4.7864484786987305,0.5008941292762756,156.73878479003906,0
1759.700999999999,-0.004306352697312832,-0.010144203901290894,2.999845855811145e-05,0.0,0.0,0.0,0.0,0.0015955681446939707,0.0018166796071454883,0.002942480146884918,1.0007915496826172,0.0,0.0,0.0,-0.8492109179496765,4.788668155670166,0.49559691548347473,153.7088623046875,0
1769.5869999999995,-0.004305306356400251,-0.010144601576030254,4.4709580834023654e-05,0.0,0.0,0.0,0.0,-8.206183701986447e-05,-0.0006214655004441738,0.0010382028995081782,0.9993017911911011,0.0,0.0,0.0,-0.8585457801818848,4.792724609375,0.4937424957752228,155.39849853515625,0
1779.4660000000003,-0.0042485399171710014,-0.01008453220129013,-1.1557834113773424e-05,0.0,0.0,0.0,0.0,0.0017947228625416756,-0.0012284410186111927,0.005002758000046015,0.9997824430465698,0.0,0.0,0.0,-0.8447128534317017,4.798104286193848,0.503501832485199,152.89471435546875,0
1789.3549999999996,-0.00431008031591773,-0.010101355612277985,-2.0845653125434183e-05,0.0,0.0,0.0,0.0,-0.0023699807934463024,0.006615770515054464,-0.0031956525053828955,1.0004363059997559,0.0,0.0,0.0,-0.8529996871948242,4.802594184875488,0.48511284589767456,154.39463806152344,0
1799.241,-0.004321809392422438,-0.01012019906193018,-2.5066394300665706e-05,0.0,0.0,0.0,0.0,-0.00023271318059414625,-0.0043374174274504185,0.003672264749184251,1.0009251832962036,0.0,0.0,0.0,-0.8517196178436279,4.794302463531494,0.4723869860172272,154.1629638671875,0
1809.1260000000002,-0.004327887203544378,-0.010128621943295002,-1.3161478818801697e-05,0.0,0.0,0.0,0.0,0.00032014778116717935,0.00563531881198287,0.0014144154265522957,1.0002596378326416,0.0,0.0,0.0,-0.8611017465591431,4.799633979797363,0.460331529378891,155.8611297607422,0
1819.0130000000008,-0.004333296325057745,-0.010141180828213692,-1.6391699318774045e-05,0.0,0.0,0.0,0.0,0.001471306080929935,0.003808186622336507,-0.0004779536684509367,1.000057578086853,0.0,0.0,0.0,-0.8594650626182556,4.800673961639404,0.45893722772598267,155.56488037109375,0
1828.9040000000005,-0.00430789589881897,-0.010141601786017418,5.354789209377486e-06,0.0,0.0,0.0,0.0,-0.00040973135037347674,0.0023434862960129976,0.0023747163359075785,1.000332236289978,0.0,0.0,0.0,-0.865510880947113,4.801489353179932,0.4525543451309204,156.65919494628906,0
1838.7890000000007,-0.004306329879909754,-0.01014215312898159,-1.205966214001819e-06,0.0,0.0,0.0,0.0,-0.0008539924747310579,-0.0006768473540432751,0.0028108651749789715,1.0006165504455566,0.0,0.0,0.0,-0.8500990867614746,4.807407379150391,0.4460090398788452,153.86962890625,0
1848.679,-0.004336783196777105,-0.01016611885279417,-1.270865368496743e-06,0.0,0.0,0.0,0.0,0.00039232170092873275,0.0005642153555527329,0.0009053274407051504,0.9990068674087524,0.0,0.0,0.0,-0.8573068976402283,4.806253910064697,0.4506801962852478,155.17425537109375,0
1858.5589999999993,-0.004324031062424183,-0.010164627805352211,-1.9884922949131578e-05,0.0,0.0,0.0,0.0,-0.0020968324970453978,0.0006979203317314386,0.0014845426194369793,0.9998315572738647,0.0,0.0,0.0,-0.8450994491577148,4.809106826782227,0.459934800863266,152.96469116210938,0
1868.446,-0.0043179430067539215,-0.0101548433303833,-3.4200331811007345e-07,0.0,0.0,0.0,0.0,0.002079168101772666,-0.0011513151694089174,-0.0022149239666759968,0.9973090887069702,0.0,0.0,0.0,-0.8530513048171997,4.814894676208496,0.44712501764297485,154.4039764404297,0
1878.3279999999995,-0.004314352758228779,-0.010149354115128517,-4.185508714726893e-06,0.0,0.0,0.0,0.0,-0.000545872317161411,-0.004570308141410351,0.0017624925822019577,0.9986917972564697,0.0,0.0,0.0,-0.8364202976226807,4.813101768493652,0.4489262104034424,151.3937530517578,0
1888.2189999999991,-0.004317288752645254,-0.01016484759747982,6.178406692924909e-06,0.0,0.0,0.0,0.0,-0.0009464538306929171,0.0015399061376228929,-0.0015939745353534818,0.9990983009338379,0.0,0.0,0.0,-0.8490589261054993,4.813831329345703,0.4423609673976898,153.68136596679688,0
1898.098,-0.0043134237639606,-0.010174056515097618,-4.263009714122745e-07,0.0,0.0,0.0,0.0,-0.001205416745506227,0.0038071831222623587,0.0006442778976634145,1.0010020732879639,0.0,0.0,0.0,-0.8471002578735352,4.814605236053467,0.4432890713214874,153.3268280029297,0
1907.9840000000004,-0.004415403585880995,-0.010181708261370659,-2.0144170775893144e-05,0.0,0.0,0.0,0.0,0.00237362552434206,-0.0070716617628932,-0.0011913388734683394,1.0008394718170166,0.0,0.0,0.0,-0.8562948107719421,4.813610553741455,0.419832319021225,154.99107360839844,0
1917.8709999999992,-0.004386789631098509,-0.010155444964766502,-5.123567098053172e-05,0.0,0.0,0.0,0.0,-0.0021020821295678616,-0.0012727356515824795,0.002021474065259099,0.9997736811637878,0.0,0.0,0.0,-0.8420292735099792,4.821530818939209,0.4209851622581482,152.40896606445312,0
1927.7559999999994,-0.004356187768280506,-0.010189839638769627,-4.4455584429670125e-05,0.0,0.0,0.0,0.0,-0.0010371828684583306,-0.0034045707434415817,0.001676184474490583,0.9996438026428223,0.0,0.0,0.0,-0.8473638296127319,4.82572603225708,0.4438703954219818,153.37452697753906,0
1937.6489999999994,-0.004342351574450731,-0.010172172449529171,-6.194118031999096e-05,0.0,0.0,0.0,0.0,0.000520561879966408,0.0013319363351911306,0.0023551639169454575,1.0007416009902954,0.0,0.0,0.0,-0.8311083912849426,4.8412766456604,0.4438493251800537,150.43226623535156,0
1947.5409999999993,-0.004343815613538027,-0.010195426642894745,-5.923489879933186e-05,0.0,0.0,0.0,0.0,-0.0003691450401674956,0.007425234187394381,-0.004004289396107197,0.9993522763252258,0.0,0.0,0.0,-0.8367387056350708,4.840371131896973,0.4544023871421814,151.4513702392578,0
1957.4210000000003,-0.00433648144826293,-0.010176824405789375,-6.922624743310735e-05,0.0,0.0,0.0,0.0,0.0022610242012888193,-0.004154117312282324,0.0022928896360099316,0.9999350905418396,0.0,0.0,0.0,-0.8243213891983032,4.84568977355957,0.4465540647506714,149.2038116455078,0
1967.3009999999995,-0.004306960850954056,-0.01015262771397829,-4.179594179731794e-05,0.0,0.0,0.0,0.0,0.000498487614095211,-0.007761876564472914,-0.0020414514001458883,1.0019093751907349,0.0,0.0,0.0,-0.8349806070327759,4.855500221252441,0.4426625669002533,151.13314819335938,0
1977.2029999999995,-0.004345734138041735,-0.0101755540817976,-1.2120334531573462e-06,0.0,0.0,0.0,0.0,-0.0019293376244604588,-0.00015598165919072926,0.0028263821732252836,1.0020925998687744,0.0,0.0,0.0,-0.8341706991195679,4.848995685577393,0.4598878026008606,150.98654174804688,0
1987.0830000000005,-0.00431333901360631,-0.01015602145344019,3.3575171983102337e-05,0.0,0.0,0.0,0.0,-0.004462123848497868,-0.00308844237588346,-0.0010385181521996856,0.9995502829551697,0.0,0.0,0.0,-0.8412347435951233,4.85785436630249,0.48173078894615173,152.26515197753906,0
1996.9619999999995,-0.004333221819251776,-0.010163959115743637,6.390541966538876e-05,0.0,0.0,0.0,0.0,0.0011184003669768572,0.0021219057962298393,0.0012037883279845119,1.0007644891738892,0.0,0.0,0.0,-0.8287193179130554,4.858798027038574,0.4819754660129547,149.99986267089844,0
2006.848,-0.004273443017154932,-0.010208884254097939,8.962326683104038e-05,0.0,0.0,0.0,0.0,-2.192815372836776e-05,0.0007358866860158741,0.0004131936002522707,1.0016262531280518,0.0,0.0,0.0,-0.8357871770858765,4.8506245613098145,0.48381859064102173,151.27914428710938,0
2016.7330000000002,-0.004254186525940895,-0.01019421499222517,8.332428114954382e-05,0.0,0.0,0.0,0.0,-0.0012659289641305804,-0.00020292148110456765,0.00014361305511556566,1.0011160373687744,0.0,0.0,0.0,-0.8350016474723816,4.849028587341309,0.4774588644504547,151.13694763183594,0
2026.6219999999994,-0.004292200319468975,-0.01018431968986988,0.00010209521860815585,0.0,0.0,0.0,0.0,0.001453458913601935,0.0016087471740320325,0.0003730194584932178,0.9986670017242432,0.0,0.0,0.0,-0.8338830471038818,4.843806266784668,0.4727669358253479,150.93447875976562,0
2036.5040000000008,-0.004267615731805563,-0.010171151719987392,8.725989027880132e-05,0.0,0.0,0.0,0.0,-0.0007063968223519623,0.0017417020862922072,0.004317255690693855,0.9991917014122009,0.0,0.0,0.0,-0.8327606916427612,4.842130184173584,0.47583121061325073,150.73135375976562,0
2046.3880000000008,-0.004313664045184851,-0.010154795832931995,0.00010323827154934406,0.0,0.0,0.0,0.0,0.0022781239822506905,0.006362156011164188,0.0014363661175593734,1.0000090599060059,0.0,0.0,0.0,-0.8405805230140686,4.847925186157227,0.4592462480068207,152.14675903320312,0
2056.285,-0.004292460158467293,-0.010144628584384918,8.565156167605892e-05,0.0,0.0,0.0,0.0,-0.002155410358682275,-0.0022939301561564207,-0.0009899191791191697,1.000004529953003,0.0,0.0,0.0,-0.8386127948760986,4.842297077178955,0.4481907784938812,151.79058837890625,0
2066.1620000000003,-0.004260208923369646,-0.010189678519964218,0.00010194785136263818,0.0,0.0,0.0,0.0,0.002882290631532669,-0.003918653819710016,0.0017805795650929213,1.0019068717956543,0.0,0.0,0.0,-0.849467396736145,4.836682319641113,0.4423849582672119,153.75527954101562,0
2076.048999999999,-0.004289614036679268,-0.010199903510510921,0.00013901501370128244,0.0,0.0,0.0,0.0,0.002508427482098341,0.003074400359764695,-0.0012246448313817382,0.9977202415466309,0.0,0.0,0.0,-0.8479659557342529,4.834380149841309,0.4505526125431061,153.48353576660156,0
2085.932999999999,-0.004324543289840221,-0.0101790064945817,0.00016286209574900568,0.0,0.0,0.0,0.0,0.002898292150348425,-0.002935704542323947,-9.706623677629977e-05,0.9999136924743652,0.0,0.0,0.0,-0.8558011054992676,4.8333964347839355,0.4401238262653351,154.90170288085938,0
2095.8189999999995,-0.004332324489951134,-0.010164872743189335,0.00018070550868287683,0.0,0.0,0.0,0.0,-0.0011094906367361546,-0.004419951234012842,-8.229703962570056e-05,1.0005205869674683,0.0,0.0,0.0,-0.8551025986671448,4.822247505187988,0.4422229826450348,154.7752685546875,0
2105.7080000000005,-0.00437911506742239,-0.010239447467029095,0.00016958333435468376,0.0,0.0,0.0,0.0,-3.1855699489824474e-05,0.002972016343846917,-0.0003518495359458029,0.9996027946472168,0.0,0.0,0.0,-0.8644285202026367,4.806297779083252,0.43273136019706726,156.46327209472656,0
2115.6020000000008,-0.004325074143707752,-0.01018153689801693,0.0001204735308419913,0.0,0.0,0.0,0.0,-0.0011892035836353898,-0.000768334255553782,0.0012023397721350193,0.9991295337677002,0.0,0.0,0.0,-0.8634199500083923,4.807464122772217,0.45270678400993347,156.28073120117188,0
2125.4760000000006,-0.004434318281710148,-0.01018234807997942,0.00011088453175034374,0.0,0.0,0.0,0.0,0.0020914776250720024,0.0023284507915377617,-0.002441911958158016,1.000981092453003,0.0,0.0,0.0,-0.8712440133094788,4.815341949462891,0.4353026747703552,157.6968994140625,0
