timestamp,stateEstimate.x,stateEstimate.y,stateEstimate.z,controller.cmd_thrust,controller.cmd_roll,controller.cmd_pitch,controller.cmd_yaw,controller.r_roll,controller.r_pitch,controller.r_yaw,controller.accelz,controller.actuatorThrust,controller.roll,controller.pitch,controller.yaw,controller.rollRate,controller.pitchRate,controller.yawRate,controller.ctr_yaw
0.0,0.0011959833791479468,-0.0017909517046064138,0.0002003335248446092,0.0,0.0,0.0,0.0,-0.0005461169639602304,0.0034472972620278597,-0.0011229906231164932,0.9988458752632141,0.0,0.0,0.0,0.6382991075515747,8.722963333129883,1.1829959154129028,-115.53340911865234,0
9.89100000000144,0.0010868633398786187,-0.0018159733153879642,0.00023443791724275798,0.0,0.0,0.0,0.0,-0.0016354366671293974,0.0003914308035746217,-0.0022447051014751196,0.9996045231819153,0.0,0.0,0.0,0.6364898681640625,8.71500301361084,1.1850998401641846,-115.20594024658203,0
19.764000000001033,0.0011805451940745115,-0.0015882625011727214,0.0001040283459587954,0.0,0.0,0.0,0.0,-0.0002965204475913197,0.004413903690874577,-0.0021312066819518805,0.9985883831977844,0.0,0.0,0.0,0.6488033533096313,8.787679672241211,1.1932798624038696,-117.43470001220703,0
29.653000000000247,0.0011707228841260076,-0.001595028443261981,0.00013002401101402938,0.0,0.0,0.0,0.0,0.0016874372959136963,-0.0010757723357528448,0.004469290375709534,0.9987523555755615,0.0,0.0,0.0,0.6475152969360352,8.784114837646484,1.1822235584259033,-117.2015609741211,0
39.53200000000106,0.0011684282217174768,-0.001629825565032661,0.00012761377729475498,0.0,0.0,0.0,0.0,-0.002197283087298274,-0.008328331634402275,0.0001045342578436248,0.9987687468528748,0.0,0.0,0.0,0.6480175852775574,8.770231246948242,1.1859301328659058,-117.29248046875,0
49.42400000000089,0.0011272504925727844,-0.0016502809012308717,0.00013703556032851338,0.0,0.0,0.0,0.0,-0.0009205209789797664,-0.006493404973298311,0.0007086842088028789,0.9990871548652649,0.0,0.0,0.0,0.6471654772758484,8.763934135437012,1.2003449201583862,-117.13824462890625,0
59.302999999999884,0.0011235343990847468,-0.001688616699539125,0.00013432398554868996,0.0,0.0,0.0,0.0,-0.005241197533905506,-0.004592821002006531,-0.00011977528629358858,0.9999851584434509,0.0,0.0,0.0,0.6464741826057434,8.759587287902832,1.2069793939590454,-117.01311492919922,0
69.20000000000073,0.0011930395849049091,-0.0017217794666066766,0.0001552175817778334,0.0,0.0,0.0,0.0,0.00021481019211933017,0.001605208613909781,-0.0033435679506510496,0.9997264742851257,0.0,0.0,0.0,0.645966112613678,8.75772762298584,1.220180630683899,-116.921142578125,0
79.07800000000134,0.0011943490244448185,-0.001765168271958828,0.00015500070003326982,0.0,0.0,0.0,0.0,0.00021275279868859798,0.0006832712679170072,0.0012356601655483246,1.000977873802185,0.0,0.0,0.0,0.643972635269165,8.745343208312988,1.204237699508667,-116.56033325195312,0
88.96900000000096,0.0012035025283694267,-0.0017916669603437185,0.00018652532889973372,0.0,0.0,0.0,0.0,0.0010850627440959215,0.0024429631885141134,0.0024428069591522217,1.0004202127456665,0.0,0.0,0.0,0.6430913805961609,8.738208770751953,1.2131801843643188,-116.40082550048828,0
98.84100000000035,0.0012064315378665924,-0.0018381794216111302,0.0001901216892292723,0.0,0.0,0.0,0.0,-0.001702814013697207,0.0012033447856083512,0.0017930589383468032,0.9988663196563721,0.0,0.0,0.0,0.641930341720581,8.728148460388184,1.2163676023483276,-116.19066619873047,0
108.73400000000038,0.0011194472899660468,-0.0018589128740131855,0.00023422097729053348,0.0,0.0,0.0,0.0,0.00033840464311651886,0.00038996388320811093,0.001673083403147757,1.0001084804534912,0.0,0.0,0.0,0.6412988305091858,8.724130630493164,1.213789463043213,-116.07637023925781,0
118.61100000000079,0.0011207950301468372,-0.001909099519252777,0.00024106235650833696,0.0,0.0,0.0,0.0,0.0026362661737948656,-0.00633248733356595,0.0013468613615259528,0.9990901350975037,0.0,0.0,0.0,0.6412789821624756,8.713479995727539,1.2158743143081665,-116.07276153564453,0
128.51400000000103,0.001116000465117395,-0.0019070613197982311,0.00032659529824741185,0.0,0.0,0.0,0.0,0.002168832113966346,0.0018535311101004481,-0.0011833603493869305,0.9993438720703125,0.0,0.0,0.0,0.6347208619117737,8.720574378967285,1.2149443626403809,-114.88573455810547,0
138.38300000000163,0.0011174757964909077,-0.0019571895245462656,0.00033847850863821805,0.0,0.0,0.0,0.0,-0.0007796650170348585,-0.004427650477737188,-0.0023548488970845938,0.9994405508041382,0.0,0.0,0.0,0.6330274939537048,8.709756851196289,1.221383810043335,-114.57923889160156,0
148.27599999999984,0.0010650731856003404,-0.001972703030332923,0.0004006428935099393,0.0,0.0,0.0,0.0,-0.002726328792050481,0.001577433431521058,0.0008742931531742215,0.9978055357933044,0.0,0.0,0.0,0.6316972374916077,8.69558048248291,1.2321269512176514,-114.33846282958984,0
158.15700000000106,0.0010666782036423683,-0.002024048240855336,0.00041468432755209506,0.0,0.0,0.0,0.0,0.001322633819654584,0.0032201416324824095,3.378436667844653e-05,0.9998195767402649,0.0,0.0,0.0,0.6311490535736084,8.69122314453125,1.2250430583953857,-114.2392349243164,0
168.04500000000007,0.0010222513228654861,-0.0020375761669129133,0.00048549138591624796,0.0,0.0,0.0,0.0,-0.00036911695497110486,0.0022595967166125774,-0.0007932114531286061,1.0003995895385742,0.0,0.0,0.0,0.6312165260314941,8.679576873779297,1.219307541847229,-114.2514419555664,0
177.9270000000015,0.001024354831315577,-0.002093059476464987,0.000504094292409718,0.0,0.0,0.0,0.0,0.0006345788133330643,-0.0039624483324587345,-0.0001124786285799928,1.0001919269561768,0.0,0.0,0.0,0.6291481852531433,8.674945831298828,1.2218858003616333,-113.87706756591797,0
187.8140000000003,0.001008509425446391,-0.002115566050633788,0.0005746327224187553,0.0,0.0,0.0,0.0,-0.001665560994297266,-0.0020429331343621016,-0.0010352970566600561,0.999650776386261,0.0,0.0,0.0,0.6281082630157471,8.65755844116211,1.2195031642913818,-113.6888427734375,0
197.69800000000032,0.0010102997766807675,-0.0021745485719293356,0.0005980905261822045,0.0,0.0,0.0,0.0,0.0035083633847534657,0.006010857410728931,0.0009425065363757312,0.9990462064743042,0.0,0.0,0.0,0.627275824546814,8.647311210632324,1.2285362482070923,-113.53817749023438,0
207.58899999999994,0.0010116440244019032,-0.002236551372334361,0.0006209483253769577,0.0,0.0,0.0,0.0,0.00011131556675536558,0.001975815976038575,0.0012116518337279558,0.9994348287582397,0.0,0.0,0.0,0.6267704367637634,8.637853622436523,1.2208420038223267,-113.44668579101562,0
217.47299999999996,0.0010133686009794474,-0.0023023104295134544,0.000643617007881403,0.0,0.0,0.0,0.0,0.004078054800629616,0.005086616147309542,-0.0008291169651784003,1.0013086795806885,0.0,0.0,0.0,0.626718282699585,8.624524116516113,1.2117177248001099,-113.437255859375,0
227.35500000000138,0.001016666879877448,-0.0023714916314929724,0.0006673739990219474,0.0,0.0,0.0,0.0,0.0005849562003277242,0.0004355476994533092,0.002579848747700453,1.0022141933441162,0.0,0.0,0.0,0.6267277598381042,8.610392570495605,1.1989021301269531,-113.43897247314453,0
237.23199999999997,0.0010209160391241312,-0.0024438153486698866,0.0006934264092706144,0.0,0.0,0.0,0.0,-0.00034892052644863725,-0.004945286549627781,0.0014502550475299358,1.002634048461914,0.0,0.0,0.0,0.6270087957382202,8.603156089782715,1.2095897197723389,-113.4898452758789,0
247.12900000000081,0.0010258506517857313,-0.002518631285056472,0.0007216205704025924,0.0,0.0,0.0,0.0,-0.0019408587832003832,-0.0003982465132139623,0.0015615536831319332,0.9988174438476562,0.0,0.0,0.0,0.6267114877700806,8.591290473937988,1.2155647277832031,-113.43602752685547,0
257.0020000000004,0.0012603537179529667,-0.0016169146401807666,8.77170023159124e-05,0.0,0.0,0.0,0.0,0.0014633879764005542,0.0010118907084688544,-0.0011191900121048093,0.9982563257217407,0.0,0.0,0.0,0.6375306248664856,8.761734008789062,1.2506722211837769,-115.3943099975586,0
266.90099999999984,0.001278035924769938,-0.00165604951325804,9.916866110870615e-05,0.0,0.0,0.0,0.0,-0.003253479953855276,0.003964527510106564,0.0007719123968854547,0.998005211353302,0.0,0.0,0.0,0.6366380453109741,8.753628730773926,1.234153151512146,-115.23275756835938,0
276.77200000000084,0.0012956901919096708,-0.0016971181612461805,0.00010958765778923407,0.0,0.0,0.0,0.0,0.00165904825553298,0.00021718896459788084,-0.0019374311668798327,1.0011317729949951,0.0,0.0,0.0,0.6355531811714172,8.749316215515137,1.2259204387664795,-115.03639221191406,0
286.6660000000011,0.0013120006769895554,-0.001739063416607678,0.00012046597112203017,0.0,0.0,0.0,0.0,0.001967525575309992,0.005407323129475117,-0.004391293507069349,0.9994449019432068,0.0,0.0,0.0,0.6346407532691956,8.732110977172852,1.2062933444976807,-114.8712387084961,0
296.5490000000009,0.001326970406807959,-0.0017818770138546824,0.0001319409639108926,0.0,0.0,0.0,0.0,0.0012756711803376675,0.002788228914141655,0.003717985237017274,1.0011080503463745,0.0,0.0,0.0,0.6323241591453552,8.722612380981445,1.1994507312774658,-114.45193481445312,0
306.4350000000013,0.0013409210368990898,-0.0018256281036883593,0.000144078308949247,0.0,0.0,0.0,0.0,0.00022742562578059733,-0.0026323343627154827,-3.0580955353798345e-05,1.000619888305664,0.0,0.0,0.0,0.6321746110916138,8.710536003112793,1.185443639755249,-114.42485809326172,0
316.3209999999999,0.0013539266074076295,-0.0018700538203120232,0.00015717450878582895,0.0,0.0,0.0,0.0,0.0009821024723351002,-0.0006160808261483908,0.0016886154189705849,0.9989184141159058,0.0,0.0,0.0,0.6314466595649719,8.701680183410645,1.1870951652526855,-114.2931137084961,0
326.21100000000115,0.001365497475489974,-0.001915580010972917,0.00017008717986755073,0.0,0.0,0.0,0.0,0.0007814484415575862,0.0005326622049324214,0.0006799859111197293,0.9987882375717163,0.0,0.0,0.0,0.6318404078483582,8.691701889038086,1.1921635866165161,-114.3643798828125,0
336.08400000000074,0.0014537778915837407,-0.0016325002070516348,0.00036269109114073217,0.0,0.0,0.0,0.0,-8.835262269712985e-05,0.005982811562716961,0.0009915713453665376,0.9988701939582825,0.0,0.0,0.0,0.651520311832428,8.761695861816406,1.203602910041809,-117.92646789550781,0
345.9810000000016,0.0014707758091390133,-0.0016643566777929664,0.0003849297936540097,0.0,0.0,0.0,0.0,0.0016648656455799937,-0.00484903808683157,-0.0025762321893125772,0.9959161877632141,0.0,0.0,0.0,0.651008665561676,8.757254600524902,1.2032074928283691,-117.8338623046875,0
355.85200000000077,0.001556960865855217,-0.0015502768801525235,0.00045755147584713995,0.0,0.0,0.0,0.0,-0.0012156640877947211,0.0035040860529989004,0.0034371118526905775,0.9970356225967407,0.0,0.0,0.0,0.6562640070915222,8.785661697387695,1.2305793762207031,-118.78508758544922,0
365.7450000000008,0.0015808751340955496,-0.0015793237835168839,0.0004778775910381228,0.0,0.0,0.0,0.0,-0.0022292977664619684,-0.0013720846036449075,-0.003118861000984907,1.0003516674041748,0.0,0.0,0.0,0.6564808487892151,8.778778076171875,1.2171001434326172,-118.82434844970703,0
375.6260000000002,0.0016039581969380379,-0.0016127005219459534,0.0004975816700607538,0.0,0.0,0.0,0.0,-0.0007369572413153946,-0.0036074500530958176,-0.001225254382006824,0.9987017512321472,0.0,0.0,0.0,0.6552939414978027,8.769115447998047,1.2185248136520386,-118.60950469970703,0
385.51600000000144,0.0016256337985396385,-0.0016496179159730673,0.0005168269854038954,0.0,0.0,0.0,0.0,0.00019692139176186174,0.0033693895675241947,-0.0013244503643363714,0.9982969164848328,0.0,0.0,0.0,0.6550577878952026,8.760494232177734,1.2214102745056152,-118.56675720214844,0
395.39500000000044,0.0016470614355057478,-0.0016890192637220025,0.0005352842272259295,0.0,0.0,0.0,0.0,-6.323902198346332e-05,-0.0037685688585042953,0.0014723256463184953,0.9999452233314514,0.0,0.0,0.0,0.6536409854888916,8.753108978271484,1.2137242555618286,-118.31031036376953,0
405.28600000000006,0.0016693816287443042,-0.0017301775515079498,0.0005533390212804079,0.0,0.0,0.0,0.0,-0.0010445108637213707,-0.003940267022699118,0.0007208588649518788,0.9983707666397095,0.0,0.0,0.0,0.6531071662902832,8.74392318725586,1.2284419536590576,-118.21369171142578,0
415.1650000000009,0.001693042227998376,-0.0017728841630741954,0.0005707483505830169,0.0,0.0,0.0,0.0,0.00018254676251672208,0.002227907767519355,-0.0038404129445552826,0.9988928437232971,0.0,0.0,0.0,0.6523776054382324,8.737604141235352,1.2417714595794678,-118.0816421508789,0
425.0600000000013,0.0012002175208181143,-0.0016037491150200367,0.00031729371403343976,0.0,0.0,0.0,0.0,0.0003327642916701734,-0.0003759272221941501,-0.0017052815528586507,0.9986693859100342,0.0,0.0,0.0,0.6539474725723267,8.756335258483887,1.1476526260375977,-118.36579132080078,0
434.9350000000013,0.0012028589844703674,-0.001645033829845488,0.00032542922417633235,0.0,0.0,0.0,0.0,-0.002009822754189372,0.004851853474974632,0.0011656128335744143,0.9982088804244995,0.0,0.0,0.0,0.652727484703064,8.752546310424805,1.143280267715454,-118.14498138427734,0
444.83600000000115,0.00117660837713629,-0.001660037785768509,0.00035774719435721636,0.0,0.0,0.0,0.0,0.002999969758093357,0.006170713342726231,0.0016018020687624812,1.000032663345337,0.0,0.0,0.0,0.6520426869392395,8.741286277770996,1.1276211738586426,-118.02102661132812,0
454.70800000000054,0.0011784950038418174,-0.0017058635130524635,0.0003667318378575146,0.0,0.0,0.0,0.0,0.0025916658341884613,0.00409795343875885,0.0024745920673012733,1.0002453327178955,0.0,0.0,0.0,0.6520721912384033,8.728621482849121,1.119773030281067,-118.02635955810547,0
464.59600000000137,0.0011214943369850516,-0.0017509314930066466,0.00036673713475465775,0.0,0.0,0.0,0.0,-0.0015748483128845692,-0.0021514450199902058,0.001697996980510652,0.9986477494239807,0.0,0.0,0.0,0.6516500115394592,8.71798038482666,1.112541913986206,-117.94994354248047,0
474.47299999999996,0.0011247023940086365,-0.0018009815830737352,0.0003754597273655236,0.0,0.0,0.0,0.0,0.004296314436942339,0.007445927243679762,0.0024711419828236103,0.9985242486000061,0.0,0.0,0.0,0.6514492630958557,8.706396102905273,1.1072131395339966,-117.91361236572266,0
484.3670000000002,0.0010851704282686114,-0.0018459927523508668,0.0003973101556766778,0.0,0.0,0.0,0.0,-0.0017799282213672996,-0.0032405953388661146,9.061990567715839e-05,0.9993898868560791,0.0,0.0,0.0,0.6513728499412537,8.689793586730957,1.1059271097183228,-117.8997802734375,0
494.2430000000004,0.0010864411015063524,-0.0019005780341103673,0.0004059508501086384,0.0,0.0,0.0,0.0,0.0028519490733742714,-0.0030758546199649572,0.002311260672286153,1.0001903772354126,0.0,0.0,0.0,0.6511710286140442,8.681171417236328,1.106476902961731,-117.8632583618164,0
504.14800000000105,0.0010478495387360454,-0.0019485182128846645,0.00043464780901558697,0.0,0.0,0.0,0.0,-0.0019244170980527997,0.0018606683006510139,-0.0008066758164204657,1.000045657157898,0.0,0.0,0.0,0.6502662897109985,8.669717788696289,1.1127740144729614,-117.6994857788086,0
514.014000000001,0.0010479541961103678,-0.0020062741823494434,0.0004459826450329274,0.0,0.0,0.0,0.0,-6.650444265687838e-05,0.0015980192692950368,0.000394313974538818,1.002936840057373,0.0,0.0,0.0,0.6494061946868896,8.662418365478516,1.1014379262924194,-117.54381561279297,0
523.9090000000015,0.001079023815691471,-0.00202489597722888,0.0005339818308129907,0.0,0.0,0.0,0.0,0.00035950966412201524,0.003637618152424693,0.0008417858043685555,1.0001436471939087,0.0,0.0,0.0,0.6484470367431641,8.658609390258789,1.0972408056259155,-117.37020874023438,0
533.7860000000001,0.001080377260223031,-0.0020851707085967064,0.0005539567791856825,0.0,0.0,0.0,0.0,0.002762472489848733,0.006698121316730976,-0.0009835300734266639,0.9977728128433228,0.0,0.0,0.0,0.6477805972099304,8.645444869995117,1.0869933366775513,-117.24958038330078,0
543.6850000000013,0.0010905992239713669,-0.0021117383148521185,0.0006371308118104935,0.0,0.0,0.0,0.0,-0.0007323715253733099,-0.001685993280261755,0.0014103103894740343,0.9985114336013794,0.0,0.0,0.0,0.6467363238334656,8.634040832519531,1.0755163431167603,-117.06056213378906,0
553.5540000000001,0.0010907233227044344,-0.002176037523895502,0.0006592091522179544,0.0,0.0,0.0,0.0,-0.0033248611725866795,0.0017928463639691472,0.00025662549887783825,0.9995067119598389,0.0,0.0,0.0,0.6462177038192749,8.627483367919922,1.078905463218689,-116.96668243408203,0
563.4470000000001,0.0010850504040718079,-0.0022070312406867743,0.0007448099786415696,0.0,0.0,0.0,0.0,0.0030176809523254633,-0.002262750407680869,-0.0015994735294952989,0.9990471601486206,0.0,0.0,0.0,0.6465353965759277,8.622514724731445,1.0774636268615723,-117.02418518066406,0
573.3290000000015,0.0010851636761799455,-0.002274929080158472,0.0007710160571150482,0.0,0.0,0.0,0.0,-0.0006418012198992074,-0.0014845154946669936,-0.00030478465487249196,1.0001254081726074,0.0,0.0,0.0,0.6455268263816833,8.610627174377441,1.0717861652374268,-116.84163665771484,0
583.228000000001,0.0011128424666821957,-0.002329031703993678,0.0008266682852990925,0.0,0.0,0.0,0.0,0.00020079000387340784,9.617700015951414e-06,-0.0017746484372764826,0.9991755485534668,0.0,0.0,0.0,0.6447216272354126,8.605156898498535,1.0726784467697144,-116.6958999633789,0
593.094000000001,0.0011123724980279803,-0.0023994625080376863,0.0008547574398107827,0.0,0.0,0.0,0.0,0.0005212180549278855,-0.0014263457851484418,0.002851028461009264,0.996713399887085,0.0,0.0,0.0,0.6431545615196228,8.596505165100098,1.0665358304977417,-116.4122543334961,0
602.9880000000012,0.0010792079847306013,-0.0024352276232093573,0.000937872682698071,0.0,0.0,0.0,0.0,-0.0012698243372142315,-0.0003483019827399403,0.0015865355962887406,0.9961309432983398,0.0,0.0,0.0,0.6499253511428833,8.596785545349121,1.0588271617889404,-117.63777160644531,0
612.875,0.0010794838890433311,-0.0025091487914323807,0.0009644095553085208,0.0,0.0,0.0,0.0,-0.0006108875968493521,-0.0023629609495401382,-0.001910633989609778,0.9974945187568665,0.0,0.0,0.0,0.6491247415542603,8.589086532592773,1.0654276609420776,-117.49285888671875,0
622.7620000000006,0.0009975702269002795,-0.002557649975642562,0.0010317217092961073,0.0,0.0,0.0,0.0,-0.000599343329668045,-0.005535840522497892,0.0007126856944523752,0.999343752861023,0.0,0.0,0.0,0.6483141779899597,8.585370063781738,1.07695472240448,-117.34615325927734,0
632.6350000000002,0.0009944990742951632,-0.002634502248838544,0.001058982452377677,0.0,0.0,0.0,0.0,-0.0010317856213077903,-0.003039334435015917,-0.0007817299338057637,1.0002015829086304,0.0,0.0,0.0,0.6478639245033264,8.579401969909668,1.0838342905044556,-117.26466369628906,0
642.5330000000013,0.000991428387351334,-0.0026651043444871902,0.0011550670024007559,0.0,0.0,0.0,0.0,0.0009605959639884531,-0.0032621766440570354,-0.0011907921871170402,0.9989901781082153,0.0,0.0,0.0,0.6468302607536316,8.577500343322754,1.0820112228393555,-117.07756042480469,0
652.4080000000013,0.0012373378267511725,-0.0015498650027438998,5.098313522466924e-06,0.0,0.0,0.0,0.0,0.00014899986854288727,0.0016653480706736445,-0.0011413053143769503,0.9985002875328064,0.0,0.0,0.0,0.6519563794136047,8.76600170135498,1.121150255203247,-118.00540161132812,0
662.3000000000011,0.0011507602175697684,-0.0015371681656688452,-3.825450221484061e-06,0.0,0.0,0.0,0.0,0.0016091677825897932,0.0012299766531214118,-8.868560689734295e-05,0.9968469142913818,0.0,0.0,0.0,0.6509421467781067,8.755227088928223,1.1171231269836426,-117.82183074951172,0
672.1800000000003,0.0012109143426641822,-0.0013897003373131156,-5.7978872064268216e-05,0.0,0.0,0.0,0.0,-0.0024930769577622414,-0.0014778801705688238,0.000808672804851085,0.9996864199638367,0.0,0.0,0.0,0.6563462018966675,8.788162231445312,1.1263153553009033,-118.79997253417969,0
682.0720000000001,0.0012198502663522959,-0.0014076150255277753,-4.766705023939721e-05,0.0,0.0,0.0,0.0,-0.0014519484248012304,-0.003716440638527274,-0.0002347742993151769,0.9985371232032776,0.0,0.0,0.0,0.6462367177009583,8.792343139648438,1.1388697624206543,-116.97013092041016,0
691.9440000000013,0.0012717576464638114,-0.0013088923878967762,-7.093516614986584e-05,0.0,0.0,0.0,0.0,-0.0032044420950114727,0.003650241531431675,0.000908497953787446,0.9990618824958801,0.0,0.0,0.0,0.6449516415596008,8.788305282592773,1.144545078277588,-116.73753356933594,0
701.8360000000011,0.0012472592061385512,-0.0013204782735556364,-7.746168557787314e-05,0.0,0.0,0.0,0.0,-0.0016687026945874095,-0.0034594007302075624,0.0020778162870556116,0.9998868107795715,0.0,0.0,0.0,0.633446991443634,8.79179573059082,1.1423492431640625,-114.65516662597656,0
711.7210000000014,0.0012461714213714004,-0.0013448845129460096,-7.952695159474388e-05,0.0,0.0,0.0,0.0,-0.0024040841963142157,-0.003967984579503536,-0.004597877152264118,0.9996229410171509,0.0,0.0,0.0,0.6335097551345825,8.788753509521484,1.1440770626068115,-114.66651916503906,0
721.6190000000006,0.0011871268507093191,-0.0013648642925545573,-9.162376227322966e-05,0.0,0.0,0.0,0.0,-0.0005888055311515927,-0.0031016201246529818,0.0003745018329937011,0.9991230964660645,0.0,0.0,0.0,0.6321249008178711,8.77884578704834,1.1414692401885986,-114.41586303710938,0
731.4930000000004,0.0011853453470394015,-0.0013472054852172732,-3.7324360164348036e-05,0.0,0.0,0.0,0.0,-2.3121998310671188e-05,-0.004118373617529869,0.0007655926747247577,0.998720645904541,0.0,0.0,0.0,0.6478478312492371,8.780064582824707,1.1486377716064453,-117.2617416381836,0
741.3820000000014,0.0011994841042906046,-0.0013635274954140186,-2.0522815248114057e-05,0.0,0.0,0.0,0.0,-0.0012139948084950447,0.00010515671601751819,-0.003239731304347515,0.999171793460846,0.0,0.0,0.0,0.6481944918632507,8.771407127380371,1.1532291173934937,-117.32449340820312,0
751.2600000000002,0.0011713829590007663,-0.0013998930808156729,5.5525793868582696e-05,0.0,0.0,0.0,0.0,0.002507678233087063,0.005466144997626543,0.0035067987628281116,0.9979076385498047,0.0,0.0,0.0,0.6576818227767944,8.7582368850708,1.1326496601104736,-119.04170989990234,0
761.1570000000011,0.001219323487021029,-0.0014554442605003715,5.453033372759819e-05,0.0,0.0,0.0,0.0,0.0008648200891911983,0.0013088110135868192,-0.0012152355629950762,0.9979704022407532,0.0,0.0,0.0,0.646591305732727,8.744061470031738,1.1270784139633179,-117.03430938720703,0
771.0250000000015,0.0012273307656869292,-0.0014238068833947182,0.00011008812725776806,0.0,0.0,0.0,0.0,0.0029679981525987387,-0.0016447147354483604,-0.004015383776277304,0.9992926716804504,0.0,0.0,0.0,0.6540170311927795,8.74577808380127,1.1292270421981812,-118.37838745117188,0
780.9200000000001,0.0012192268623039126,-0.0014567218022421002,0.00011300062760710716,0.0,0.0,0.0,0.0,0.0003073100815527141,-0.004332471173256636,5.889718158869073e-05,0.9986127018928528,0.0,0.0,0.0,0.6409231424331665,8.737142562866211,1.1306308507919312,-116.00835418701172,0
790.7950000000001,0.001195706077851355,-0.001477169687859714,0.00019515787425916642,0.0,0.0,0.0,0.0,0.0013385670026764274,0.0036969617940485477,-0.0001654124353080988,0.9971444606781006,0.0,0.0,0.0,0.6558234691619873,8.729996681213379,1.1229640245437622,-118.70535278320312,0
800.6950000000015,0.0012251439038664103,-0.0015393514186143875,0.0001943325623869896,0.0,0.0,0.0,0.0,0.003290089312940836,6.6606946347747e-05,0.003927441779524088,0.9982231855392456,0.0,0.0,0.0,0.6389069557189941,8.711590766906738,1.1047855615615845,-115.64342498779297,0
810.5720000000001,0.0012541926698759198,-0.0014944812282919884,0.00022849260130897164,0.0,0.0,0.0,0.0,0.002321596723049879,-0.002139894524589181,-0.00020821596262976527,0.9998157620429993,0.0,0.0,0.0,0.6497858762741089,8.717729568481445,1.1019928455352783,-117.6125259399414,0
820.4570000000003,0.001211903989315033,-0.001525559346191585,0.0002274466387461871,0.0,0.0,0.0,0.0,0.0008688961970619857,0.006008122581988573,0.0015500019071623683,0.9988307356834412,0.0,0.0,0.0,0.6502382159233093,8.704785346984863,1.1025469303131104,-117.69440460205078,0
830.335000000001,0.0012422333238646388,-0.0014805758837610483,0.00025664802524261177,0.0,0.0,0.0,0.0,-0.002084792125970125,-0.002288983901962638,-7.102973904693499e-05,0.9994327425956726,0.0,0.0,0.0,0.6605116724967957,8.713504791259766,1.1138310432434082,-119.5539321899414,0
840.2390000000014,0.0012210728600621223,-0.0015413934597745538,0.00024399807443842292,0.0,0.0,0.0,0.0,-0.0018279522191733122,0.0010292154038324952,-0.003064221702516079,1.0015442371368408,0.0,0.0,0.0,0.6473045945167542,8.704126358032227,1.101781964302063,-117.16342163085938,0
850.1060000000016,0.0012543548364192247,-0.0014923596754670143,0.00027512662927620113,0.0,0.0,0.0,0.0,0.0006391922943294048,-0.002712428802624345,-0.0026014933828264475,0.9984104633331299,0.0,0.0,0.0,0.6604983806610107,8.718043327331543,1.1094748973846436,-119.55152130126953,0
860.0,0.001169170718640089,-0.0015455525135621428,0.00024140876485034823,0.0,0.0,0.0,0.0,0.0005749932024627924,-0.002615960082039237,-0.0004939200589433312,0.9986032843589783,0.0,0.0,0.0,0.6595420241355896,8.7040376663208,1.1148085594177246,-119.37841796875,0
869.8760000000002,0.0011670440435409546,-0.0015987986698746681,0.0002487314632162452,0.0,0.0,0.0,0.0,-0.0011405813274905086,-0.0030382631812244654,0.004576452542096376,1.0008960962295532,0.0,0.0,0.0,0.6596530079841614,8.691352844238281,1.1153457164764404,-119.39849853515625,0
879.7720000000008,0.0010950316209346056,-0.0016348781064152718,0.0002591723168734461,0.0,0.0,0.0,0.0,-0.0005960234557278454,-0.00024458387633785605,-1.033218040902284e-06,0.9975733160972595,0.0,0.0,0.0,0.6594434976577759,8.68156909942627,1.1212719678878784,-119.36058807373047,0
889.6509999999998,0.0011604281608015299,-0.0015364441787824035,0.00023835180036257952,0.0,0.0,0.0,0.0,0.0020577143877744675,0.0012188060209155083,-0.0003854550886899233,0.9980738759040833,0.0,0.0,0.0,0.6663917303085327,8.71442699432373,1.1253451108932495,-120.61824035644531,0
899.5380000000005,0.0011050195898860693,-0.0015666562831029296,0.00023353025608230382,0.0,0.0,0.0,0.0,0.0002712584682740271,0.005894024856388569,0.00027538739959709346,0.99738609790802,0.0,0.0,0.0,0.6658506989479065,8.700417518615723,1.1154429912567139,-120.52030181884766,0
909.4240000000009,0.0011000816011801362,-0.001616950612515211,0.00023438905191142112,0.0,0.0,0.0,0.0,-0.001062797848135233,0.003353087231516838,-0.0018347345758229494,0.998579204082489,0.0,0.0,0.0,0.6646702289581299,8.691107749938965,1.1030937433242798,-120.306640625,0
919.3090000000011,0.0010729181813076138,-0.0016627645818516612,0.00023491740284953266,0.0,0.0,0.0,0.0,0.0019378357101231813,0.001591657055541873,0.003808282082900405,1.000035285949707,0.0,0.0,0.0,0.657917320728302,8.680593490600586,1.07860267162323,-119.08434295654297,0
929.1860000000015,0.0011779924388974905,-0.0014987945323809981,0.0001335639535682276,0.0,0.0,0.0,0.0,-0.0034762609284371138,-0.0018554608104750514,0.0013044364750385284,0.9998245239257812,0.0,0.0,0.0,0.6671333909034729,8.72849178314209,1.1065226793289185,-120.75247192382812,0
939.0820000000003,0.001185854896903038,-0.001523482264019549,0.00014844723045825958,0.0,0.0,0.0,0.0,0.0007463644724339247,0.0011276344303041697,-0.0005166966584511101,0.9995722770690918,0.0,0.0,0.0,0.6665184497833252,8.725679397583008,1.1084327697753906,-120.64116668701172,0
948.9560000000001,0.001252773916348815,-0.0013901966158300638,0.00012858290574513376,0.0,0.0,0.0,0.0,-0.0010785306803882122,0.0026026058476418257,0.0007024325896054506,0.9998926520347595,0.0,0.0,0.0,0.6685909032821655,8.753480911254883,1.1174598932266235,-121.01628112792969,0
958.8520000000008,0.001271212357096374,-0.0014517599483951926,0.00010097409540321678,0.0,0.0,0.0,0.0,-0.0002018120139837265,0.001125269802287221,-0.00180967862252146,1.0001397132873535,0.0,0.0,0.0,0.6668760776519775,8.741599082946777,1.1026551723480225,-120.70590209960938,0
968.7270000000008,0.001267424551770091,-0.0014902254333719611,9.574792056810111e-05,0.0,0.0,0.0,0.0,-0.0005872150068171322,0.0014430178562179208,-0.0017060147365555167,1.0016659498214722,0.0,0.0,0.0,0.6654034852981567,8.730583190917969,1.101978063583374,-120.4393539428711,0
978.6220000000012,0.001259312964975834,-0.0015389808686450124,7.958929927553982e-05,0.0,0.0,0.0,0.0,0.003418416017666459,-9.109151505981572e-06,-0.0006979827885515988,1.0024117231369019,0.0,0.0,0.0,0.6512085199356079,8.723756790161133,1.0864273309707642,-117.87004089355469,0
988.4950000000008,0.001256280578672886,-0.0015819250838831067,7.722443842794746e-05,0.0,0.0,0.0,0.0,0.0013701360439881682,-0.006965187843888998,0.0023557369131594896,0.9991363883018494,0.0,0.0,0.0,0.6492940783500671,8.71142578125,1.089738368988037,-117.52352142333984,0
998.4000000000015,0.0012085463386029005,-0.0016032011481001973,0.00010002495400840417,0.0,0.0,0.0,0.0,-7.482146611437201e-05,0.0008089120383374393,0.0029550716280937195,1.0009844303131104,0.0,0.0,0.0,0.642795979976654,8.70522403717041,1.0913242101669312,-116.34735107421875,0
1008.2660000000014,0.0012725723208859563,-0.0014849822036921978,5.285930819809437e-05,0.0,0.0,0.0,0.0,0.0013007809175178409,0.00021312249009497464,-0.0017452655592933297,0.99919193983078,0.0,0.0,0.0,0.6471487283706665,8.743497848510742,1.1098605394363403,-117.13520050048828,0
1018.1650000000009,0.0012315111234784126,-0.0014981657732278109,5.7698445743881166e-05,0.0,0.0,0.0,0.0,-0.0009168384713120759,-0.002593702869489789,0.0026951029431074858,1.000443458557129,0.0,0.0,0.0,0.6405470371246338,8.745863914489746,1.1014573574066162,-115.94029235839844,0
1028.0400000000009,0.0012292388128116727,-0.0015367403393611312,5.781387153547257e-05,0.0,0.0,0.0,0.0,-0.002181530464440584,0.004639944527298212,0.0010083889355883002,0.9990774989128113,0.0,0.0,0.0,0.6394585371017456,8.736149787902832,1.0970735549926758,-115.74327087402344,0
1037.937,0.0011566736502572894,-0.0015592072159051895,6.374887016136199e-05,0.0,0.0,0.0,0.0,-0.000471258390462026,-0.0051193623803555965,0.0010257861576974392,0.9983713030815125,0.0,0.0,0.0,0.6390305757522583,8.733916282653809,1.0950602293014526,-115.66580200195312,0
1047.8070000000007,0.0011721738846972585,-0.0015261858934536576,9.572053386364132e-05,0.0,0.0,0.0,0.0,0.002137702889740467,0.008828687481582165,0.003171226941049099,1.000992774963379,0.0,0.0,0.0,0.6512027382850647,8.74893569946289,1.1047725677490234,-117.8689956665039,0
1057.710000000001,0.0011048080632463098,-0.0015385752776637673,9.340555698145181e-05,0.0,0.0,0.0,0.0,0.00149654527194798,0.0060601201839745045,-0.002764197764918208,0.9996410012245178,0.0,0.0,0.0,0.6429305076599121,8.751880645751953,1.0790449380874634,-116.3717041015625,0
1067.5770000000011,0.001101800356991589,-0.001578549505211413,9.732677426654845e-05,0.0,0.0,0.0,0.0,-0.0026529417373239994,-0.0016272623324766755,-0.002647903747856617,1.0000338554382324,0.0,0.0,0.0,0.6419199109077454,8.73742389678955,1.0739567279815674,-116.18877410888672,0
1077.478000000001,0.0011261339532211423,-0.001585988444276154,0.00014785502571612597,0.0,0.0,0.0,0.0,-0.002405275823548436,-0.0011872126488015056,-0.003392760409042239,1.0016543865203857,0.0,0.0,0.0,0.6316274404525757,8.744257926940918,1.0713998079299927,-114.32582092285156,0
1087.3540000000012,0.0011348966509103775,-0.0015556956641376019,0.000209404417546466,0.0,0.0,0.0,0.0,0.0005292178830131888,0.002331606112420559,-0.0005259346216917038,0.9965197443962097,0.0,0.0,0.0,0.64222252368927,8.758870124816895,1.0766711235046387,-116.24354553222656,0
1097.2510000000002,0.001114094746299088,-0.0015840446576476097,0.0002108803455485031,0.0,0.0,0.0,0.0,0.002212769817560911,-0.0015419039409607649,-0.0010021261405199766,0.9970709681510925,0.0,0.0,0.0,0.6417725682258606,8.743319511413574,1.0632909536361694,-116.162109375,0
1107.1170000000002,0.0011574523523449898,-0.0014917566440999508,0.0002312309225089848,0.0,0.0,0.0,0.0,0.00038233198574744165,-0.001683040871284902,0.001667177421040833,0.9991680979728699,0.0,0.0,0.0,0.6487044095993042,8.766215324401855,1.077099084854126,-117.41679382324219,0
1117.014000000001,0.0011808333219960332,-0.0015227739932015538,0.0002474476641509682,0.0,0.0,0.0,0.0,-0.0013486137613654137,-0.0036631443072110415,0.0005712265847250819,0.9980453252792358,0.0,0.0,0.0,0.6479755640029907,8.751973152160645,1.0728529691696167,-117.28486633300781,0
1126.8910000000014,0.0011828740825876594,-0.0015574870631098747,0.0002557509869802743,0.0,0.0,0.0,0.0,0.0019607495050877333,0.004699827171862125,0.0020361021161079407,0.9980269074440002,0.0,0.0,0.0,0.6474552154541016,8.74734878540039,1.0711760520935059,-117.19068908691406,0
1136.7790000000005,0.001154327648691833,-0.0015852416399866343,0.00026485000853426754,0.0,0.0,0.0,0.0,-0.0017649275250732899,0.005615352652966976,-0.0027210910338908434,0.9989811778068542,0.0,0.0,0.0,0.6479097604751587,8.727315902709961,1.0644627809524536,-117.27295684814453,0
1146.657000000001,0.0011571667855605483,-0.0016262016724795103,0.0002715040754992515,0.0,0.0,0.0,0.0,0.0008878445369191468,-0.00239335629157722,-0.002270371187478304,0.9996502995491028,0.0,0.0,0.0,0.6467329859733582,8.725648880004883,1.0534851551055908,-117.05996704101562,0
1156.5600000000013,0.0011220209999009967,-0.0016204678686335683,0.0002752844011411071,0.0,0.0,0.0,0.0,-0.000855994236189872,-0.0022530206479132175,-0.00024488905910402536,0.9995392560958862,0.0,0.0,0.0,0.6467329859733582,8.725648880004883,1.0534851551055908,-117.05996704101562,0
1166.4279999999999,0.0011221955064684153,-0.0016993050230666995,0.0002881928230635822,0.0,0.0,0.0,0.0,5.052611231803894e-05,-0.003348025493323803,-0.0022518415935337543,1.0008188486099243,0.0,0.0,0.0,0.6444150805473328,8.705145835876465,1.0641372203826904,-116.64041137695312,0
1176.326000000001,0.0011521675623953342,-0.001687598880380392,0.0003065656346734613,0.0,0.0,0.0,0.0,4.030550553579815e-05,0.0016701192362233996,-0.004824076779186726,1.0002820491790771,0.0,0.0,0.0,0.6340934634208679,8.709601402282715,1.0657105445861816,-114.77217864990234,0
1186.1970000000001,0.0012680207146331668,-0.0015194154111668468,0.00015001263818703592,0.0,0.0,0.0,0.0,0.0025446834042668343,-0.0021573444828391075,0.0011879331432282925,0.9994521141052246,0.0,0.0,0.0,0.6471422910690308,8.76053237915039,1.0937833786010742,-117.13404083251953,0
1196.089,0.0012212581932544708,-0.0015011100331321359,0.0001434526639059186,0.0,0.0,0.0,0.0,-0.0015659767668694258,-0.0006206765538081527,0.0016304621240124106,0.9995020627975464,0.0,0.0,0.0,0.6393911838531494,8.766104698181152,1.0836949348449707,-115.73108673095703,0
1205.969000000001,0.0012686635600402951,-0.0014556049136444926,0.00011831404117401689,0.0,0.0,0.0,0.0,-0.0009472385863773525,0.0032553730998188257,-0.00031576844048686326,0.9966045022010803,0.0,0.0,0.0,0.6479746699333191,8.777424812316895,1.089109182357788,-117.28469848632812,0
1215.8650000000016,0.0012715919874608517,-0.0014614904066547751,0.00010938762716250494,0.0,0.0,0.0,0.0,0.0008289545658044517,0.0006464744219556451,0.0011104854056611657,0.9966425895690918,0.0,0.0,0.0,0.6479746699333191,8.777424812316895,1.089109182357788,-117.28469848632812,0
1225.741,0.0013209633762016892,-0.0013893807772547007,0.0001166603178717196,0.0,0.0,0.0,0.0,-0.0016663344576954842,0.0017359846970066428,-0.0015453615924343467,0.9997516870498657,0.0,0.0,0.0,0.6480968594551086,8.758499145507812,1.093671202659607,-117.30681610107422,0
1235.630000000001,0.0012931773671880364,-0.0014019375666975975,8.425181295024231e-05,0.0,0.0,0.0,0.0,0.0021321577951312065,0.0005451579345390201,-0.00013497751206159592,0.9992675185203552,0.0,0.0,0.0,0.6341091394424438,8.756298065185547,1.0852560997009277,-114.77501678466797,0
1245.5169999999998,0.0013250975171104074,-0.0013868464156985283,8.599078137194738e-05,0.0,0.0,0.0,0.0,-0.0013902811333537102,-0.0023785775993019342,0.00046955267316661775,0.9973166584968567,0.0,0.0,0.0,0.6411393880844116,8.755460739135742,1.0934849977493286,-116.0475082397461,0
1255.4000000000015,0.001286942744627595,-0.001389537937939167,6.0069403843954206e-05,0.0,0.0,0.0,0.0,-0.003921555355191231,-0.0017765696393325925,0.0001485149987274781,0.9994098544120789,0.0,0.0,0.0,0.6411393880844116,8.755460739135742,1.0934849977493286,-116.0475082397461,0
1265.2830000000013,0.001280842232517898,-0.0014149240450933576,0.00010860931797651574,0.0,0.0,0.0,0.0,-0.0005015988135710359,-0.0005627110949717462,0.0022045529913157225,1.00053071975708,0.0,0.0,0.0,0.6514071822166443,8.762882232666016,1.1056630611419678,-117.90599822998047,0
1275.1760000000013,0.0012085215421393514,-0.0013846689835190773,0.00010178869706578553,0.0,0.0,0.0,0.0,0.0023200702853500843,0.0015365653671324253,0.0019588216673582792,0.9998127222061157,0.0,0.0,0.0,0.6444422006607056,8.768597602844238,1.0918054580688477,-116.64532470703125,0
1285.058000000001,0.0011950794141739607,-0.001437820610590279,0.00013433379353955388,0.0,0.0,0.0,0.0,0.0003913817345164716,0.0018222946673631668,0.00022222210827749223,0.9981794953346252,0.0,0.0,0.0,0.6565236449241638,8.750940322875977,1.0831104516983032,-118.83208465576172,0
1294.942000000001,0.0011495837243273854,-0.0014371859142556787,0.00010987959831254557,0.0,0.0,0.0,0.0,0.0009392293286509812,-0.0037206681445240974,-0.002756075467914343,0.9998293519020081,0.0,0.0,0.0,0.6565236449241638,8.750940322875977,1.0831104516983032,-118.83208465576172,0
1304.8330000000005,0.0011411431478336453,-0.0014658612199127674,0.00013968785060569644,0.0,0.0,0.0,0.0,0.00015555342542938888,0.005183615256100893,-0.0005901422118768096,0.9999037981033325,0.0,0.0,0.0,0.6672492623329163,8.736852645874023,1.0788733959197998,-120.7734375,0
1314.7200000000012,0.001151939737610519,-0.0014521866105496883,0.000153765402501449,0.0,0.0,0.0,0.0,-0.0022048288956284523,0.0017590997740626335,0.0006749766762368381,0.999973475933075,0.0,0.0,0.0,0.6580506563186646,8.73961353302002,1.077529788017273,-119.10847473144531,0
1324.5990000000002,0.0011295893928036094,-0.0014798749471083283,0.00021447268954943866,0.0,0.0,0.0,0.0,-0.0009301341488026083,0.0009502209140919149,0.0017094743670895696,1.0004980564117432,0.0,0.0,0.0,0.667922854423523,8.7308988571167,1.074781894683838,-120.89537048339844,0
1334.4830000000002,0.001117243547923863,-0.001487657194957137,0.0001962368842214346,0.0,0.0,0.0,0.0,0.000499974878039211,-0.0007798019214533269,-0.0005828950670547783,0.9999202489852905,0.0,0.0,0.0,0.667922854423523,8.7308988571167,1.074781894683838,-120.89537048339844,0
1344.3670000000002,0.0011335881426930428,-0.0014903878327459097,0.00020413762831594795,0.0,0.0,0.0,0.0,0.0022559345234185457,0.0008303655777126551,0.0015401479322463274,0.9996540546417236,0.0,0.0,0.0,0.6795434951782227,8.73023509979248,1.0837593078613281,-122.99872589111328,0
1354.25,0.0011741864727810025,-0.001505587948486209,0.00020305255020502955,0.0,0.0,0.0,0.0,0.001243207836523652,0.0031994676683098078,-0.0036446372978389263,0.9991276860237122,0.0,0.0,0.0,0.6699452996253967,8.727785110473633,1.0866540670394897,-121.26142883300781,0
1364.1360000000004,0.0012084359768778086,-0.0014749541878700256,0.00022389947844203562,0.0,0.0,0.0,0.0,-0.000500038149766624,0.0047419085167348385,-0.001471942407079041,0.9986955523490906,0.0,0.0,0.0,0.6756880283355713,8.737874031066895,1.094893455505371,-122.3008804321289,0
1374.0190000000002,0.001200499595142901,-0.0014701096806675196,0.00021959678269922733,0.0,0.0,0.0,0.0,-0.0010147233260795474,0.004721402190625668,0.004110485780984163,1.0001842975616455,0.0,0.0,0.0,0.6756880283355713,8.737874031066895,1.094893455505371,-122.3008804321289,0
1383.907000000001,0.0012335223145782948,-0.0014444211265072227,0.000250055396463722,0.0,0.0,0.0,0.0,5.233443880570121e-05,-0.002923451829701662,1.0342406312702224e-05,1.0003584623336792,0.0,0.0,0.0,0.6841855645179749,8.750112533569336,1.0814110040664673,-123.83894348144531,0
1393.7920000000013,0.0011673970147967339,-0.0014525034930557013,0.00020891039457637817,0.0,0.0,0.0,0.0,0.0006519079324789345,0.004635224584490061,-0.0015464150346815586,0.999315083026886,0.0,0.0,0.0,0.6841855645179749,8.750112533569336,1.0814110040664673,-123.83894348144531,0
1403.679,0.0011846418492496014,-0.0014600004069507122,0.0002420055097900331,0.0,0.0,0.0,0.0,-0.0015907530905678868,0.0007697212276980281,-0.0038285262417048216,1.0007060766220093,0.0,0.0,0.0,0.6891054511070251,8.752882957458496,1.0652629137039185,-124.72946166992188,0
1413.559000000001,0.001200713450089097,-0.0014725537039339542,0.00023096297809388489,0.0,0.0,0.0,0.0,-0.003317211288958788,0.005167989060282707,0.00019667070591822267,0.9993178844451904,0.0,0.0,0.0,0.6891054511070251,8.752882957458496,1.0652629137039185,-124.72946166992188,0
1423.451000000001,0.0012361716944724321,-0.0014623638708144426,0.0002554808743298054,0.0,0.0,0.0,0.0,0.00043564473162405193,-0.00036525417817756534,-0.0020690099336206913,0.997311532497406,0.0,0.0,0.0,0.6953001618385315,8.767687797546387,1.0686719417572021,-125.8507080078125,0
1433.335000000001,0.0012140505714341998,-0.001472882810048759,0.00023207454069051892,0.0,0.0,0.0,0.0,-0.0007427294622175395,0.002211843617260456,0.0005909954779781401,0.9990150928497314,0.0,0.0,0.0,0.685298502445221,8.76590633392334,1.0617002248764038,-124.04039764404297,0
1443.2270000000008,0.0012476377887651324,-0.0014652605168521404,0.0002527236647438258,0.0,0.0,0.0,0.0,0.0018812502967193723,0.0053298091515898705,-0.001576812006533146,0.9981644153594971,0.0,0.0,0.0,0.693263828754425,8.75958251953125,1.0517908334732056,-125.48213195800781,0
1453.1090000000004,0.001220276695676148,-0.0014698212035000324,0.00023329020768869668,0.0,0.0,0.0,0.0,9.212854638462886e-05,-0.004789696075022221,0.001838039723224938,0.9986903667449951,0.0,0.0,0.0,0.6844756007194519,8.758974075317383,1.0444294214248657,-123.89144134521484,0
1462.9880000000012,0.0012381935957819223,-0.0014845506520941854,0.0002589492069091648,0.0,0.0,0.0,0.0,0.0006502914475277066,0.0005346821271814406,2.3113354473025538e-05,0.9987487196922302,0.0,0.0,0.0,0.6831647157669067,8.749167442321777,1.0396029949188232,-123.6541748046875,0
1472.8780000000006,0.0012260887306183577,-0.0014968517934903502,0.00023805575619917363,0.0,0.0,0.0,0.0,0.0010927579132840037,0.00025350169744342566,-0.004230187274515629,1.0005536079406738,0.0,0.0,0.0,0.6752109527587891,8.746882438659668,1.0343750715255737,-122.21453094482422,0
1482.7570000000014,0.0012187142856419086,-0.0015990030951797962,0.00023934889759402722,0.0,0.0,0.0,0.0,2.5698711397126317e-05,0.0007950064609758556,0.003559368196874857,0.9987637400627136,0.0,0.0,0.0,0.6719086766242981,8.727640151977539,1.029990315437317,-121.61680603027344,0
1492.6410000000014,0.0011987759498879313,-0.0015741926617920399,0.0002588489151094109,0.0,0.0,0.0,0.0,0.0014220942975953221,0.0016501580830663443,-0.0012546267826110125,0.9969547390937805,0.0,0.0,0.0,0.6719086766242981,8.727640151977539,1.029990315437317,-121.61680603027344,0
1502.532000000001,0.0013035283191129565,-0.001448037102818489,0.0001944522955454886,0.0,0.0,0.0,0.0,0.0021851039491593838,0.004076204262673855,0.0023989640176296234,1.0011943578720093,0.0,0.0,0.0,0.6773720979690552,8.767507553100586,1.034114956855774,-122.60569763183594,0
1512.4040000000005,0.0012305076234042645,-0.0014248064253479242,0.00018156359146814793,0.0,0.0,0.0,0.0,-0.0002880806277971715,3.721632674569264e-05,0.0010640689870342612,0.9994013905525208,0.0,0.0,0.0,0.6773720979690552,8.767507553100586,1.034114956855774,-122.60569763183594,0
1522.3070000000007,0.001219984027557075,-0.0015115697169676423,0.00017311326519120485,0.0,0.0,0.0,0.0,-0.0027237979229539633,-0.003483028616756201,0.0028469443786889315,0.9980679750442505,0.0,0.0,0.0,0.6762443780899048,8.744998931884766,1.0229871273040771,-122.40157318115234,0
1532.1800000000003,0.0011474504135549068,-0.0015096429269760847,0.00015948465443216264,0.0,0.0,0.0,0.0,0.0006595932645723224,0.0006153578287921846,-0.0013862180057913065,0.9993242025375366,0.0,0.0,0.0,0.6762443780899048,8.744998931884766,1.0229871273040771,-122.40157318115234,0
1542.0700000000015,0.0011276431614533067,-0.0016062320210039616,0.0001469373528379947,0.0,0.0,0.0,0.0,0.001412304351106286,-0.0017622741870582104,-0.003301513846963644,0.9989029765129089,0.0,0.0,0.0,0.6740337610244751,8.72784423828125,1.0216116905212402,-122.00145721435547,0
1551.9440000000013,0.0011062105186283588,-0.0015976212453097105,0.00015536078717559576,0.0,0.0,0.0,0.0,0.0022204075939953327,0.0007072383887134492,0.0007683924050070345,0.999624490737915,0.0,0.0,0.0,0.6740337610244751,8.72784423828125,1.0216116905212402,-122.00145721435547,0
1561.8430000000008,0.0011418790090829134,-0.0015389799373224378,0.00011691877443809062,0.0,0.0,0.0,0.0,-0.001338007627055049,-0.005386922042816877,-3.30578041030094e-05,1.0007109642028809,0.0,0.0,0.0,0.6788477301597595,8.749608039855957,1.0249022245407104,-122.87279510498047,0
1571.7150000000001,0.001107883406803012,-0.0015235503669828176,0.00011354238085914403,0.0,0.0,0.0,0.0,0.0008342901710420847,-0.004679452162235975,-0.0005270513938739896,1.000967264175415,0.0,0.0,0.0,0.667184591293335,8.754794120788574,1.016119122505188,-120.7617416381836,0
1581.6130000000012,0.001086401636712253,-0.0016153395408764482,0.00010298679990228266,0.0,0.0,0.0,0.0,0.004566483665257692,-0.0013374608242884278,-0.0006682914681732655,0.9972636699676514,0.0,0.0,0.0,0.6642776131629944,8.735051155090332,1.0367276668548584,-120.23556518554688,0
1591.4920000000002,0.001144556561484933,-0.0015879468992352486,0.0001507368142483756,0.0,0.0,0.0,0.0,0.0006556307780556381,0.007108295802026987,-0.0023991954512894154,0.9995557069778442,0.0,0.0,0.0,0.6642776131629944,8.735051155090332,1.0367276668548584,-120.23556518554688,0
1601.3770000000004,0.0011502041015774012,-0.0015977167058736086,0.00018691865261644125,0.0,0.0,0.0,0.0,-0.001165655325166881,-0.001485832966864109,-0.0031169666908681393,0.9999866485595703,0.0,0.0,0.0,0.6738109588623047,8.74238395690918,1.02507746219635,-121.96112823486328,0
1611.2610000000004,0.0011885326821357012,-0.0016021340852603316,0.00019601105304900557,0.0,0.0,0.0,0.0,0.0002046182780759409,0.00251831510104239,-5.524731477635214e-06,1.0000407695770264,0.0,0.0,0.0,0.660082221031189,8.741429328918457,1.0275193452835083,-119.47620391845703,0
1621.148000000001,0.001229281653650105,-0.001581624266691506,0.00018770743918139488,0.0,0.0,0.0,0.0,-0.0008658375008963048,-0.004198603332042694,0.002228871686384082,0.9991517066955566,0.0,0.0,0.0,0.6709300875663757,8.756059646606445,1.0408177375793457,-121.43968200683594,0
1631.0370000000003,0.001236063428223133,-0.0015840729465708137,0.00018193855066783726,0.0,0.0,0.0,0.0,-0.0012561387848109007,0.002250916790217161,0.00011002945393556729,0.9964749217033386,0.0,0.0,0.0,0.6709300875663757,8.756059646606445,1.0408177375793457,-121.43968200683594,0
1640.9180000000015,0.0012670612195506692,-0.0015600707847625017,0.0002098077820846811,0.0,0.0,0.0,0.0,-0.002135708462446928,-0.0006815368542447686,0.0005224379128776491,1.000183343887329,0.0,0.0,0.0,0.6793090105056763,8.767131805419922,1.0397887229919434,-122.9562759399414,0
1650.8010000000013,0.0012496248818933964,-0.0015688762068748474,0.00018813274800777435,0.0,0.0,0.0,0.0,-0.0009306497522629797,-0.003487619338557124,-0.001679981010966003,1.0004146099090576,0.0,0.0,0.0,0.6690346002578735,8.765607833862305,1.0336768627166748,-121.09658813476562,0
1660.688,0.0012488262727856636,-0.0016589696751907468,0.00018855766393244267,0.0,0.0,0.0,0.0,0.0005215939600020647,-0.0024010890629142523,0.0007560724625363946,0.9989577531814575,0.0,0.0,0.0,0.6677278280258179,8.758606910705566,1.0352493524551392,-120.86006927490234,0
1670.576000000001,0.0011897387448698282,-0.0016244545113295317,0.00021174829453229904,0.0,0.0,0.0,0.0,-0.0012116431025788188,0.0013663290301337838,0.0005529211484827101,0.9988294839859009,0.0,0.0,0.0,0.6677278280258179,8.758606910705566,1.0352493524551392,-120.86006927490234,0
1680.4590000000007,0.0011857756180688739,-0.0017264370108023286,0.00021599710453301668,0.0,0.0,0.0,0.0,-0.0025571496225893497,-0.0007617735536769032,-0.0005117459804750979,1.0005635023117065,0.0,0.0,0.0,0.6670860052108765,8.744824409484863,1.0429896116256714,-120.74390411376953,0
1690.335000000001,0.0012025380274280906,-0.0017158956034108996,0.00023061501269694418,0.0,0.0,0.0,0.0,-0.0023391738068312407,-0.002708108862861991,0.001855596899986267,0.9988701939582825,0.0,0.0,0.0,0.6503314971923828,8.748604774475098,1.0405919551849365,-117.71128845214844,0
1700.228000000001,0.0012820539996027946,-0.0016249276231974363,0.00018368213204666972,0.0,0.0,0.0,0.0,-0.0010571643942967057,-0.0016078173648566008,0.0002838218351826072,0.9996557235717773,0.0,0.0,0.0,0.6559482216835022,8.794583320617676,1.063727617263794,-118.72793579101562,0
1710.1060000000016,0.0012059177970513701,-0.0015793071361258626,0.00019680381228681654,0.0,0.0,0.0,0.0,0.0004676946555264294,0.002988929394632578,-0.0009304022532887757,0.9995710849761963,0.0,0.0,0.0,0.6559482216835022,8.794583320617676,1.063727617263794,-118.72793579101562,0
1720.0040000000008,0.0012636284809559584,-0.001515551470220089,0.00016987655544653535,0.0,0.0,0.0,0.0,-0.001945983967743814,-0.005992382299154997,0.0024912285152822733,0.9993565678596497,0.0,0.0,0.0,0.66428142786026,8.81649398803711,1.0723050832748413,-120.23625183105469,0
1729.8780000000006,0.0012088665971532464,-0.0014859624207019806,0.00016732783115003258,0.0,0.0,0.0,0.0,-0.0011569311609491706,0.005914412438869476,-0.0006232004961930215,0.9999799728393555,0.0,0.0,0.0,0.66428142786026,8.81649398803711,1.0723050832748413,-120.23625183105469,0
1739.7720000000008,0.0012537101283669472,-0.001441699219867587,0.00014795342576690018,0.0,0.0,0.0,0.0,1.6234826034633443e-05,-0.0002490502956788987,0.001940684043802321,1.0013163089752197,0.0,0.0,0.0,0.6632465720176697,8.792407989501953,1.0521756410598755,-120.04894256591797,0
1749.6460000000006,0.0012247374979779124,-0.0014278747839853168,0.0001428861141903326,0.0,0.0,0.0,0.0,0.0008536657551303506,0.00011646387429209426,-0.0023726443760097027,1.0001548528671265,0.0,0.0,0.0,0.6632465720176697,8.792407989501953,1.0521756410598755,-120.04894256591797,0
1759.5390000000007,0.001212502596899867,-0.001498610246926546,0.00014640162407886237,0.0,0.0,0.0,0.0,0.0036153914406895638,0.0013937472831457853,0.00145110918674618,0.9973579049110413,0.0,0.0,0.0,0.6618537902832031,8.769746780395508,1.0518383979797363,-119.79685974121094,0
1769.4180000000015,0.0011967880418524146,-0.0014772979775443673,0.00016499006596859545,0.0,0.0,0.0,0.0,0.0010251470375806093,0.0007228627800941467,0.0043345787562429905,0.9973610043525696,0.0,0.0,0.0,0.6618537902832031,8.769746780395508,1.0518383979797363,-119.79685974121094,0
1779.312,0.0011824751272797585,-0.0015292481984943151,0.00020320636394899338,0.0,0.0,0.0,0.0,-0.0008703380590304732,-0.003283526748418808,0.0009578183526173234,1.0008490085601807,0.0,0.0,0.0,0.6679227352142334,8.748367309570312,1.031329870223999,-120.89534759521484,0
1789.1910000000007,0.0011314164148643613,-0.0015197539469227195,0.0001857439347077161,0.0,0.0,0.0,0.0,-0.0005679330206476152,-0.00040591086144559085,-0.00014618261775467545,0.9987272024154663,0.0,0.0,0.0,0.6679227352142334,8.748367309570312,1.031329870223999,-120.89534759521484,0
1799.08,0.001153390621766448,-0.0014941858826205134,0.0002009482850553468,0.0,0.0,0.0,0.0,-0.0010722350561991334,0.00235041044652462,-0.0011510620824992657,1.0004749298095703,0.0,0.0,0.0,0.6747161746025085,8.76473617553711,1.0446128845214844,-122.12496185302734,0
1808.9570000000003,0.0011567145120352507,-0.001483521773479879,0.000208718964131549,0.0,0.0,0.0,0.0,5.029712701798417e-05,0.0036730102729052305,0.002456497400999069,0.9994059205055237,0.0,0.0,0.0,0.6747161746025085,8.76473617553711,1.0446128845214844,-122.12496185302734,0
1818.8510000000006,0.0011478816159069538,-0.0015683607198297977,0.00021806833683513105,0.0,0.0,0.0,0.0,-0.000721545540727675,-0.0039416467770934105,0.00539689464494586,0.9976478219032288,0.0,0.0,0.0,0.6731299161911011,8.750843048095703,1.026855230331421,-121.83785247802734,0
1828.7340000000004,0.0011168773053213954,-0.0015593563439324498,0.00021986853971611708,0.0,0.0,0.0,0.0,-0.0007889224798418581,0.006816772278398275,-0.00020722630142699927,0.9988014101982117,0.0,0.0,0.0,0.6731299161911011,8.750843048095703,1.026855230331421,-121.83785247802734,0
1838.6220000000012,0.0011017863871529698,-0.0016536404145881534,0.00022692295897286385,0.0,0.0,0.0,0.0,-0.0015105858910828829,0.002710426691919565,-0.004494970664381981,0.998954176902771,0.0,0.0,0.0,0.6727915406227112,8.738041877746582,1.0036922693252563,-121.77660369873047,0
1848.4980000000014,0.0010694102384150028,-0.0016401313478127122,0.00024108563957270235,0.0,0.0,0.0,0.0,-0.0007452959544025362,-0.004141745623201132,-0.003760405583307147,0.9975960850715637,0.0,0.0,0.0,0.6640918254852295,8.743365287780762,0.9939196705818176,-120.20194244384766,0
1858.393,0.001159419072791934,-0.0014897867804393172,0.00013683964789379388,0.0,0.0,0.0,0.0,-0.0034914042335003614,-0.0003710844903253019,-0.0009535359567962587,0.998713493347168,0.0,0.0,0.0,0.6722310185432434,8.794890403747559,1.015216588973999,-121.6751480102539,0
1868.268,0.0011435035848990083,-0.0015111383982002735,0.0001484325621277094,0.0,0.0,0.0,0.0,-0.002625447930768132,0.005547306966036558,0.001601491472683847,1.0003631114959717,0.0,0.0,0.0,0.6701611280441284,8.785566329956055,1.0046473741531372,-121.30049133300781,0
1878.161,0.0011351087596267462,-0.0015539490850642323,0.00014484120765700936,0.0,0.0,0.0,0.0,-0.004559264983981848,-0.0005719315377064049,-0.0020492873154580593,0.9985494613647461,0.0,0.0,0.0,0.669603705406189,8.783262252807617,1.0082820653915405,-121.19961547851562,0
1888.0380000000005,0.0010994344484061003,-0.0015914462273940444,0.00014630152145400643,0.0,0.0,0.0,0.0,-0.0020517848897725344,-0.0045633199624717236,0.0013443715870380402,0.9971836805343628,0.0,0.0,0.0,0.66927570104599,8.782539367675781,0.9937958121299744,-121.1402359008789,0
1897.933000000001,0.001087918528355658,-0.0016414340352639556,0.00014264087076298892,0.0,0.0,0.0,0.0,0.0009615384042263031,0.006426967214792967,-0.0007529954891651869,0.9996245503425598,0.0,0.0,0.0,0.6683118343353271,8.77955436706543,0.9969331622123718,-120.96577453613281,0
1907.8100000000013,0.0011712828418239951,-0.0016845008358359337,0.00016216273070313036,0.0,0.0,0.0,0.0,0.00020658998982980847,-0.0006116632139310241,-0.002624319400638342,0.9989061951637268,0.0,0.0,0.0,0.6680941581726074,8.770812034606934,0.9966273307800293,-120.9263687133789,0
1917.6990000000005,0.0011668492807075381,-0.0017388922860845923,0.0001579283270984888,0.0,0.0,0.0,0.0,0.0010884128278121352,0.0007007371168583632,0.004313826095312834,0.9976059198379517,0.0,0.0,0.0,0.666782021522522,8.759495735168457,0.9914172291755676,-120.68887329101562,0
1927.5780000000013,0.0012040621368214488,-0.0017738654278218746,0.0001894874731078744,0.0,0.0,0.0,0.0,0.003235024167224765,0.003749578958377242,-0.0007988743018358946,0.9989691376686096,0.0,0.0,0.0,0.6656947135925293,8.751480102539062,0.9863099455833435,-120.49208068847656,0
1937.469000000001,0.001201594597660005,-0.0018313697073608637,0.00018621288472786546,0.0,0.0,0.0,0.0,-0.00141170306596905,-0.0013175306376069784,0.0012255202746018767,0.9988540410995483,0.0,0.0,0.0,0.6650922894477844,8.735878944396973,0.9757199287414551,-120.3830337524414,0
1947.3490000000002,0.0011961248237639666,-0.0018662416841834784,0.00022160202206578106,0.0,0.0,0.0,0.0,-0.0010318695567548275,4.315318801673129e-05,-0.0022252346388995647,0.9990391135215759,0.0,0.0,0.0,0.6486020088195801,8.73896312713623,0.9698901176452637,-117.39825439453125,0
1957.2450000000008,0.0011931813787668943,-0.0019268473843112588,0.00022006644576322287,0.0,0.0,0.0,0.0,0.0031406970228999853,-0.009319335222244263,-0.0011180611327290535,1.0021486282348633,0.0,0.0,0.0,0.6480162739753723,8.725028038024902,0.9646955728530884,-117.292236328125,0
1967.1180000000004,0.0011544269509613514,-0.0019447916420176625,0.0002853665209840983,0.0,0.0,0.0,0.0,-0.0012822402641177177,0.004982904531061649,0.00240484531968832,1.0000025033950806,0.0,0.0,0.0,0.6314644813537598,8.742324829101562,0.957798421382904,-114.29633331298828,0
1977.0150000000012,0.0011487972224131227,-0.002006269060075283,0.0002909362956415862,0.0,0.0,0.0,0.0,0.0007163682603277266,0.0010939554776996374,-0.0010424713836982846,0.9977247714996338,0.0,0.0,0.0,0.6305937767028809,8.728414535522461,0.9553365707397461,-114.13872528076172,0
1986.8900000000012,0.0010915833991020918,-0.0020031568128615618,0.0003936423163395375,0.0,0.0,0.0,0.0,-0.0021190072875469923,-0.0038377430755645037,-0.00041128951124846935,0.9998766183853149,0.0,0.0,0.0,0.6298769116401672,8.721759796142578,0.9492752552032471,-114.00897216796875,0
1996.782000000001,0.0010866407537832856,-0.0020622105803340673,0.00040713741327635944,0.0,0.0,0.0,0.0,5.744209192926064e-05,-0.0005639924202114344,-0.0008161648875102401,1.0005344152450562,0.0,0.0,0.0,0.6285476684570312,8.71052074432373,0.9530875086784363,-113.76838684082031,0
2006.6580000000013,0.0010902679059654474,-0.002072966890409589,0.0004941861261613667,0.0,0.0,0.0,0.0,-0.0038026159163564444,-0.0010048275580629706,9.110917744692415e-05,1.001999855041504,0.0,0.0,0.0,0.6168943047523499,8.720786094665527,0.9512059092521667,-111.65909576416016,0
2016.550000000001,0.0010858777677640319,-0.00213021133095026,0.0005147013580426574,0.0,0.0,0.0,0.0,-0.0003664700489025563,-5.239420261204941e-06,-0.0016359734581783414,1.00330650806427,0.0,0.0,0.0,0.6152220964431763,8.717118263244629,0.9461085796356201,-111.35641479492188,0
2026.437,0.0010087313130497932,-0.0021477332338690758,0.0005935616209171712,0.0,0.0,0.0,0.0,-0.0002539039123803377,0.004431700799614191,-0.0007599891978316009,1.0000847578048706,0.0,0.0,0.0,0.60511714220047,8.727941513061523,0.9303343296051025,-109.52741241455078,0
2036.3270000000011,0.0011576926335692406,-0.0015682355733588338,8.598390559200197e-05,0.0,0.0,0.0,0.0,0.0008298348402604461,0.003365440061315894,-0.0029647962655872107,0.9989331364631653,0.0,0.0,0.0,0.615600049495697,8.866226196289062,0.9415413737297058,-111.42483520507812,0
2046.210000000001,0.001144310925155878,-0.0015656189061701298,0.00013121853407938033,0.0,0.0,0.0,0.0,-0.0019900414627045393,-0.0008667557849548757,0.0006047534989193082,1.000748634338379,0.0,0.0,0.0,0.6146367788314819,8.859097480773926,0.9342316389083862,-111.25048065185547,0
2056.0920000000006,0.0011859205551445484,-0.0014649593504145741,0.00012103018525522202,0.0,0.0,0.0,0.0,-0.0006888866191729903,-0.005190372932702303,0.0023514924105256796,1.0007133483886719,0.0,0.0,0.0,0.6280972957611084,8.888278007507324,0.9503583908081055,-113.6868667602539,0
2065.9850000000006,0.0011904006823897362,-0.0014739555772393942,0.00015164303476922214,0.0,0.0,0.0,0.0,0.0010820592287927866,0.0020965994335711002,-0.0021041869185864925,1.0010614395141602,0.0,0.0,0.0,0.6274439096450806,8.877045631408691,0.944969892501831,-113.56859588623047,0
2075.863000000001,0.0011872252216562629,-0.0014975143130868673,0.0001707846822682768,0.0,0.0,0.0,0.0,0.0007097775232978165,0.004407605621963739,-0.00244507915340364,1.0013304948806763,0.0,0.0,0.0,0.6278044581413269,8.870495796203613,0.9536757469177246,-113.63385772705078,0
2085.75,0.0011675585992634296,-0.0015060586156323552,0.00021020168787799776,0.0,0.0,0.0,0.0,-0.0020846447441726923,-0.0031415121629834175,0.00035171330091543496,1.0010390281677246,0.0,0.0,0.0,0.6172982454299927,8.860549926757812,0.9381216168403625,-111.73220825195312,0
2095.6370000000006,0.0011607828782871366,-0.0015336890937760472,0.000234406121307984,0.0,0.0,0.0,0.0,-0.002392092952504754,0.0005808374844491482,-0.0034330005291849375,1.0005654096603394,0.0,0.0,0.0,0.6166513562202454,8.861675262451172,0.9395661354064941,-111.61511993408203,0
2105.5240000000013,0.0011775108287110925,-0.0015579051105305552,0.00027240061899647117,0.0,0.0,0.0,0.0,-0.0015115314163267612,0.00018287589773535728,0.004725329577922821,1.0014352798461914,0.0,0.0,0.0,0.6167694330215454,8.85606861114502,0.9434831738471985,-111.6364974975586,0
2115.4090000000015,0.0011699661845341325,-0.0015905178152024746,0.00030021683778613806,0.0,0.0,0.0,0.0,0.0010744979372248054,-0.00019014150893781334,0.0006990707479417324,0.999937117099762,0.0,0.0,0.0,0.6159244775772095,8.850797653198242,0.9394692182540894,-111.48355102539062,0
2125.300000000001,0.0011718107853084803,-0.0016237429808825254,0.00033637924934737384,0.0,0.0,0.0,0.0,0.0007508377311751246,0.003033844055607915,-0.0009814341319724917,1.0009018182754517,0.0,0.0,0.0,0.6045835018157959,8.841025352478027,0.9321346879005432,-109.43081665039062,0
