timestamp,stateEstimate.x,stateEstimate.y,stateEstimate.z,controller.cmd_thrust,controller.cmd_roll,controller.cmd_pitch,controller.cmd_yaw,controller.r_roll,controller.r_pitch,controller.r_yaw,controller.accelz,controller.actuatorThrust,controller.roll,controller.pitch,controller.yaw,controller.rollRate,controller.pitchRate,controller.yawRate,controller.ctr_yaw
0.0,-0.004879197105765343,-0.007467314135283232,-2.4757389837759547e-05,0.0,0.0,0.0,0.0,-0.0030081255827099085,0.0003411474754102528,2.305260750290472e-05,0.9999706745147705,0.0,0.0,0.0,21.443437576293945,5.7515740394592285,1.1487255096435547,-3881.30517578125,0
9.897000000000844,-0.004868111107498407,-0.007475170306861401,-1.4007191566633992e-05,0.0,0.0,0.0,0.0,0.0029943545814603567,0.002103731269016862,-0.001953768776729703,0.9994074702262878,0.0,0.0,0.0,21.421812057495117,5.752527713775635,1.1481413841247559,-3877.390380859375,0
19.772000000000844,-0.004855972249060869,-0.007484551053494215,-3.4912209230242297e-06,0.0,0.0,0.0,0.0,-0.0016875830478966236,-0.0014362853253260255,0.0008345624664798379,0.99598628282547,0.0,0.0,0.0,21.400373458862305,5.739327430725098,1.136214256286621,-3873.51025390625,0
29.66899999999987,-0.004843366798013449,-0.007495795842260122,4.914489181828685e-06,0.0,0.0,0.0,0.0,-0.0009499078732915223,-0.0009005243191495538,0.003173387609422207,0.9986047744750977,0.0,0.0,0.0,21.380130767822266,5.739344596862793,1.1334882974624634,-3869.845947265625,0
39.54000000000087,-0.004861514549702406,-0.007489136885851622,-9.962143849406857e-06,0.0,0.0,0.0,0.0,-0.001178076141513884,0.001465527922846377,0.0029692628886550665,1.000309944152832,0.0,0.0,0.0,21.403188705444336,5.747048377990723,1.1165958642959595,-3874.019775390625,0
49.447000000000116,-0.004853138700127602,-0.007501967716962099,-5.444298039947171e-06,0.0,0.0,0.0,0.0,-0.0004072404990438372,-0.003952231723815203,0.0011374438181519508,1.0014724731445312,0.0,0.0,0.0,21.382219314575195,5.740356922149658,1.1104915142059326,-3870.22412109375,0
59.31800000000112,-0.00486100884154439,-0.007490768097341061,-2.625448723847512e-05,0.0,0.0,0.0,0.0,-0.00021398828539531678,-0.003155201906338334,0.0004737144918181002,0.9996340274810791,0.0,0.0,0.0,21.40073585510254,5.742275714874268,1.1088694334030151,-3873.575439453125,0
69.21100000000115,-0.0048539419658482075,-0.007505261339247227,-2.0914923879900016e-05,0.0,0.0,0.0,0.0,0.00021228611876722425,0.0020778023172169924,-0.0005775875761173666,0.999493420124054,0.0,0.0,0.0,21.379444122314453,5.737022399902344,1.1174767017364502,-3869.721923828125,0
79.09400000000096,-0.0048810807056725025,-0.007478242740035057,-4.294254904380068e-05,0.0,0.0,0.0,0.0,0.000511712918523699,-0.00037680892273783684,0.00440716277807951,1.0002996921539307,0.0,0.0,0.0,21.402189254760742,5.75462007522583,1.0972932577133179,-3873.838623046875,0
88.97500000000036,-0.004878566600382328,-0.007492198143154383,-3.7679878005292267e-05,0.0,0.0,0.0,0.0,-0.0036639056634157896,-2.564891110523604e-05,-0.0003483245673123747,1.0020675659179688,0.0,0.0,0.0,21.381710052490234,5.748959541320801,1.1009788513183594,-3870.132080078125,0
98.85499999999956,-0.004928090609610081,-0.007510214578360319,-3.761624975595623e-05,0.0,0.0,0.0,0.0,0.0017542763380333781,-0.0037093234714120626,-4.996807183488272e-05,1.0021723508834839,0.0,0.0,0.0,21.402957916259766,5.75894021987915,1.082711100578308,-3873.977783203125,0
108.7440000000006,-0.0049325404688715935,-0.007526306435465813,-2.9692673706449568e-05,0.0,0.0,0.0,0.0,-0.0007275239331647754,-0.0018906390760093927,-0.0009341024560853839,1.0016809701919556,0.0,0.0,0.0,21.382051467895508,5.751814365386963,1.0916539430618286,-3870.19384765625,0
118.62700000000041,-0.004974790383130312,-0.0075471289455890656,-2.032927659456618e-05,0.0,0.0,0.0,0.0,-4.208734389976598e-05,-0.0037200686056166887,0.0010352510726079345,1.0013439655303955,0.0,0.0,0.0,21.4016170501709,5.7550883293151855,1.0734236240386963,-3873.735107421875,0
128.51900000000023,-0.004982738755643368,-0.007564921397715807,-9.323895937995985e-06,0.0,0.0,0.0,0.0,-0.0014349283883348107,0.002716036280617118,-0.0038214835803955793,1.0015166997909546,0.0,0.0,0.0,21.38042449951172,5.746683597564697,1.0736243724822998,-3869.8994140625,0
138.40500000000065,-0.00500354403629899,-0.0075278980657458305,-3.1470644898945466e-05,0.0,0.0,0.0,0.0,-8.351893484359607e-05,-0.0017857938073575497,-0.002372305141761899,1.0015058517456055,0.0,0.0,0.0,21.407958984375,5.765583515167236,1.065903663635254,-3874.8828125,0
148.28600000000006,-0.005012760404497385,-0.00754505442455411,-1.6987880371743813e-05,0.0,0.0,0.0,0.0,-0.0012512252433225513,-0.0018757008947432041,0.0009325766586698592,0.9993326663970947,0.0,0.0,0.0,21.386322021484375,5.758203506469727,1.0707496404647827,-3870.966552734375,0
158.17100000000028,-0.005022240336984396,-0.007548315450549126,-6.188163752085529e-06,0.0,0.0,0.0,0.0,-0.00011516049562487751,0.006746980361640453,-0.0018166318768635392,1.0002188682556152,0.0,0.0,0.0,21.40482521057129,5.757969379425049,1.0733810663223267,-3874.31591796875,0
168.0590000000011,-0.005030899308621883,-0.007566556800156832,9.47132684814278e-06,0.0,0.0,0.0,0.0,-0.0009829725604504347,-0.007359725888818502,0.002490576822310686,0.99928879737854,0.0,0.0,0.0,21.382970809936523,5.754709243774414,1.0536558628082275,-3870.3603515625,0
177.95000000000073,-0.005000317003577948,-0.007541954517364502,-9.474359103478491e-06,0.0,0.0,0.0,0.0,0.003851867513731122,-0.0009605114464648068,-0.0009337231167592108,1.0020216703414917,0.0,0.0,0.0,21.409685134887695,5.757114887237549,1.0863354206085205,-3875.1953125,0
187.83799999999974,-0.005004859529435635,-0.007556016091257334,7.5009738793596625e-06,0.0,0.0,0.0,0.0,-0.00033777899807319045,-0.001984719419851899,-0.0033194718416780233,1.0008569955825806,0.0,0.0,0.0,21.388427734375,5.745281219482422,1.0829412937164307,-3871.34765625,0
197.71500000000015,-0.005005538929253817,-0.007598938886076212,4.644239379558712e-05,0.0,0.0,0.0,0.0,0.00027807988226413727,-0.0024499683640897274,-0.007415811065584421,1.0019246339797974,0.0,0.0,0.0,21.406936645507812,5.733636856079102,1.08548104763031,-3874.697998046875,0
207.612000000001,-0.0050076390616595745,-0.007614654488861561,6.61567464703694e-05,0.0,0.0,0.0,0.0,0.0002989827189594507,0.001383813563734293,0.0029722279869019985,1.0007044076919556,0.0,0.0,0.0,21.384370803833008,5.731153964996338,1.0877591371536255,-3870.613525390625,0
217.487000000001,-0.005000369157642126,-0.007639315910637379,0.00011469938908703625,0.0,0.0,0.0,0.0,-0.0002314672019565478,0.003108808770775795,-0.000196570428670384,1.001783847808838,0.0,0.0,0.0,21.407285690307617,5.7235517501831055,1.0879108905792236,-3874.76123046875,0
227.3760000000002,-0.005001523531973362,-0.007658861577510834,0.00013837908045388758,0.0,0.0,0.0,0.0,-0.0010634477948769927,-0.006786011625081301,0.0011515720980241895,1.0008399486541748,0.0,0.0,0.0,21.385494232177734,5.716258525848389,1.06837797164917,-3870.817138671875,0
237.26599999999962,-0.004996808711439371,-0.0076928092166781425,0.0001848711835918948,0.0,0.0,0.0,0.0,-0.004127597901970148,-0.00014044990530237556,-5.768654227722436e-05,1.0004878044128418,0.0,0.0,0.0,21.40642547607422,5.70699405670166,1.0865426063537598,-3874.605224609375,0
247.14500000000044,-0.004997360985726118,-0.0077139222994446754,0.0002114845410687849,0.0,0.0,0.0,0.0,-0.0014846142148599029,0.0019126926781609654,0.0032565684523433447,1.001678466796875,0.0,0.0,0.0,21.38511848449707,5.709844589233398,1.0915368795394897,-3870.7490234375,0
257.0420000000013,-0.0049989838153123856,-0.007743391674011946,0.0002611488744150847,0.0,0.0,0.0,0.0,-0.00286111724562943,2.601878804853186e-05,-0.0016368458746001124,0.9988839030265808,0.0,0.0,0.0,21.408740997314453,5.704516410827637,1.0903525352478027,-3875.024658203125,0
266.91899999999987,-0.004995882976800203,-0.0077638630755245686,0.00029003576491959393,0.0,0.0,0.0,0.0,-0.002509776270017028,0.0006825443706475198,0.00019650848116725683,1.0012844800949097,0.0,0.0,0.0,21.387346267700195,5.701934337615967,1.0904536247253418,-3871.152099609375,0
276.8140000000003,-0.005010585766285658,-0.007757116109132767,0.00030774259357713163,0.0,0.0,0.0,0.0,0.002153454814106226,0.001114318030886352,0.0007099980139173567,1.0009865760803223,0.0,0.0,0.0,21.405855178833008,5.714670658111572,1.0848314762115479,-3874.502197265625,0
286.6910000000007,-0.0050055827014148235,-0.007779402192682028,0.0003383075527381152,0.0,0.0,0.0,0.0,0.00017415921320207417,0.001769774011336267,-0.0008159150020219386,1.0007401704788208,0.0,0.0,0.0,21.384960174560547,5.707526206970215,1.0761237144470215,-3870.72021484375,0
296.5740000000005,-0.005008986219763756,-0.007736064959317446,0.0003168660623487085,0.0,0.0,0.0,0.0,-0.001962273381650448,0.0020288629457354546,0.0004637543170247227,1.0011494159698486,0.0,0.0,0.0,21.406692504882812,5.724302768707275,1.0662606954574585,-3874.65380859375,0
306.46100000000115,-0.005003986414521933,-0.00775599991902709,0.0003500299353618175,0.0,0.0,0.0,0.0,0.00034933252027258277,0.0016342817107215524,0.0018815111834555864,1.0019457340240479,0.0,0.0,0.0,21.386213302612305,5.72281551361084,1.0640099048614502,-3870.947265625,0
316.34799999999996,-0.0050057303160429,-0.007738122250884771,0.00035192264476791024,0.0,0.0,0.0,0.0,0.0023676555138081312,0.0012894751271232963,0.003188192378729582,1.0010424852371216,0.0,0.0,0.0,21.41343879699707,5.730717182159424,1.0594813823699951,-3875.875,0
326.2330000000002,-0.005001891870051622,-0.007758148945868015,0.00038860313361510634,0.0,0.0,0.0,0.0,-0.00024698907509446144,0.00030465159215964377,-0.003033542074263096,0.9990606307983398,0.0,0.0,0.0,21.392173767089844,5.721680164337158,1.0557854175567627,-3872.02587890625,0
336.1190000000006,-0.005006732419133186,-0.007719647139310837,0.0003723906120285392,0.0,0.0,0.0,0.0,0.004417809192091227,-0.004003983922302723,-0.0008721136255189776,0.998279869556427,0.0,0.0,0.0,21.41330337524414,5.737756729125977,1.0527888536453247,-3875.850341796875,0
346.0040000000008,-0.0050072758458554745,-0.00773855485022068,0.0004084415268152952,0.0,0.0,0.0,0.0,-0.002490003127604723,0.001986866816878319,0.0010252470383420587,0.999458372592926,0.0,0.0,0.0,21.392881393432617,5.7266411781311035,1.0554369688034058,-3872.154052734375,0
355.8909999999996,-0.004989281762391329,-0.0076820943504571915,0.00036223119241185486,0.0,0.0,0.0,0.0,0.0021390102338045835,0.0036198757588863373,-0.0004980407538823783,1.0015685558319092,0.0,0.0,0.0,21.417896270751953,5.740140914916992,1.06290864944458,-3876.681640625,0
365.78000000000065,-0.004992200993001461,-0.0076984502375125885,0.00039888484752736986,0.0,0.0,0.0,0.0,-0.001403391477651894,-0.004623645916581154,0.002795521402731538,0.999578595161438,0.0,0.0,0.0,21.396320343017578,5.731221675872803,1.0563410520553589,-3872.7763671875,0
375.66200000000026,-0.005016915965825319,-0.007661125157028437,0.00038383816718123853,0.0,0.0,0.0,0.0,0.00011933980567846447,-0.0026546476874500513,-0.0011543387081474066,1.0031728744506836,0.0,0.0,0.0,21.421131134033203,5.7565717697143555,1.061591386795044,-3877.267333984375,0
385.5500000000011,-0.005023007281124592,-0.007677929475903511,0.0004224419535603374,0.0,0.0,0.0,0.0,0.0015693239402025938,-0.0027490698266774416,0.006403414066880941,1.0009222030639648,0.0,0.0,0.0,21.400238037109375,5.751248836517334,1.0686272382736206,-3873.4853515625,0
395.4350000000013,-0.005018641706556082,-0.007658679503947496,0.00042340735672041774,0.0,0.0,0.0,0.0,0.0018512335373088717,0.0031603958923369646,0.001492675975896418,1.0032716989517212,0.0,0.0,0.0,21.42456817626953,5.7475104331970215,1.081020474433899,-3877.889404296875,0
405.3230000000003,-0.005024641752243042,-0.007675775792449713,0.00046621402725577354,0.0,0.0,0.0,0.0,-0.002465121913701296,0.003910770174115896,0.0003094998828601092,1.0026010274887085,0.0,0.0,0.0,21.403329849243164,5.736367702484131,1.0703898668289185,-3874.044921875,0
415.20600000000013,-0.005053820554167032,-0.007670339662581682,0.0005021704128012061,0.0,0.0,0.0,0.0,-0.002540773246437311,-0.0037749623879790306,0.0005293506546877325,1.0006990432739258,0.0,0.0,0.0,21.42856788635254,5.747678756713867,1.0517809391021729,-3878.61328125,0
425.10200000000077,-0.005062525160610676,-0.007686514873057604,0.0005496199009940028,0.0,0.0,0.0,0.0,0.004355658311396837,0.010309221222996712,0.00033254033769480884,1.0005296468734741,0.0,0.0,0.0,21.407690048217773,5.747427940368652,1.056869626045227,-3874.83447265625,0
434.987000000001,-0.00507573876529932,-0.007677906658500433,0.0005704466020688415,0.0,0.0,0.0,0.0,0.00012678767961915582,0.004191570449620485,-0.002948916982859373,1.000218391418457,0.0,0.0,0.0,21.43297576904297,5.741438388824463,1.0309014320373535,-3879.411376953125,0
444.8670000000002,-0.005088357254862785,-0.007692348212003708,0.0006193672306835651,0.0,0.0,0.0,0.0,0.00019117251213174313,-0.005533362273126841,0.001304928562603891,0.9988169074058533,0.0,0.0,0.0,21.411087036132812,5.737882137298584,1.0236140489578247,-3875.44921875,0
454.75,-0.00509518850594759,-0.007743241265416145,0.0007051092106848955,0.0,0.0,0.0,0.0,-0.001078387489542365,-0.00023089427850209177,-0.0034175615292042494,1.0005266666412354,0.0,0.0,0.0,21.43096923828125,5.72095251083374,1.0377123355865479,-3879.04833984375,0
464.63900000000103,-0.005106497090309858,-0.007760283071547747,0.0007535659824497998,0.0,0.0,0.0,0.0,-0.0006283782422542572,0.0036601910833269358,0.002373623661696911,1.0021388530731201,0.0,0.0,0.0,21.40880584716797,5.72122859954834,1.0342429876327515,-3875.036376953125,0
474.52599999999984,-0.005086207762360573,-0.007774780038744211,0.0007895436719991267,0.0,0.0,0.0,0.0,0.0012189564295113087,0.002020003041252494,0.0038257879205048084,0.9996389746665955,0.0,0.0,0.0,21.428268432617188,5.7106122970581055,1.0353009700775146,-3878.559326171875,0
484.41400000000067,-0.00509692681953311,-0.007791880518198013,0.0008402550010941923,0.0,0.0,0.0,0.0,-0.00018733966862782836,-0.0031154577154666185,-0.0034700187388807535,0.9997069239616394,0.0,0.0,0.0,21.40837860107422,5.69874906539917,1.03189218044281,-3874.958740234375,0
494.29399999999987,-0.005102803464978933,-0.007850796915590763,0.0009497044957242906,0.0,0.0,0.0,0.0,-0.002264250535517931,0.0010133243631571531,0.0001424764486728236,1.000299334526062,0.0,0.0,0.0,21.43082046508789,5.678363800048828,1.044339895248413,-3879.021484375,0
504.1830000000009,-0.005114349070936441,-0.007872920483350754,0.0010003149509429932,0.0,0.0,0.0,0.0,-0.00038899551145732403,-0.00031701120315119624,0.0008117904653772712,0.9998559355735779,0.0,0.0,0.0,21.409767150878906,5.676101207733154,1.0396955013275146,-3875.210205078125,0
514.0670000000009,-0.005099888890981674,-0.0079153748229146,0.0010965606197714806,0.0,0.0,0.0,0.0,0.001225501298904419,-0.0047339810989797115,-0.00019902474014088511,1.0002132654190063,0.0,0.0,0.0,21.431041717529297,5.660390377044678,1.0558512210845947,-3879.061279296875,0
523.9570000000003,-0.0051049040630459785,-0.007940088398754597,0.0011487733572721481,0.0,0.0,0.0,0.0,-0.0006777460803277791,-0.001515464042313397,-0.003111600875854492,1.0003184080123901,0.0,0.0,0.0,21.4095458984375,5.654522895812988,1.0667108297348022,-3875.17041015625,0
533.8410000000003,-0.005072432104498148,-0.007914343848824501,0.0010848026722669601,0.0,0.0,0.0,0.0,-0.00017588377522770315,-0.004127765540033579,0.0004716874100267887,1.0015078783035278,0.0,0.0,0.0,21.4283504486084,5.652814865112305,1.0796102285385132,-3878.57421875,0
543.7350000000006,-0.00507095642387867,-0.007940742187201977,0.0011374049354344606,0.0,0.0,0.0,0.0,-0.001363221788778901,0.0024003307335078716,0.0004905164823867381,0.9999996423721313,0.0,0.0,0.0,21.407493591308594,5.650341987609863,1.0848366022109985,-3874.798828125,0
553.6090000000004,-0.005094102583825588,-0.007937153801321983,0.0011418783105909824,0.0,0.0,0.0,0.0,0.0009423209121450782,0.0025814883410930634,-0.0008430316229350865,0.9982119202613831,0.0,0.0,0.0,21.43087387084961,5.660754203796387,1.0761101245880127,-3879.031005859375,0
563.5060000000012,-0.005093739368021488,-0.00796371977776289,0.0011937336530536413,0.0,0.0,0.0,0.0,0.002442352706566453,0.004282395821064711,-0.0008932462660595775,0.9990386962890625,0.0,0.0,0.0,21.409900665283203,5.65635871887207,1.0717687606811523,-3875.234619140625,0
573.3880000000008,-0.005113289225846529,-0.007964244112372398,0.0011979088885709643,0.0,0.0,0.0,0.0,-0.0008803153177723289,0.0030238372273743153,-0.0010575531050562859,1.0006636381149292,0.0,0.0,0.0,21.42831802368164,5.656149864196777,1.0457048416137695,-3878.568115234375,0
583.2810000000009,-0.005112085957080126,-0.007992949336767197,0.0012480468722060323,0.0,0.0,0.0,0.0,0.0029317429289221764,0.006811397150158882,-0.0006014920654706657,1.0007699728012085,0.0,0.0,0.0,21.406660079956055,5.650146007537842,1.033891201019287,-3874.647705078125,0
593.1620000000003,-0.005150326061993837,-0.008035345003008842,0.0013352495152503252,0.0,0.0,0.0,0.0,0.002371317008510232,-0.0015840617706999183,0.003972407430410385,0.9995726346969604,0.0,0.0,0.0,21.425365447998047,5.648107051849365,0.9954488277435303,-3878.0341796875,0
603.0490000000009,-0.005151023156940937,-0.008067113347351551,0.001386396586894989,0.0,0.0,0.0,0.0,-0.001968073658645153,-0.0002637275028973818,0.0015938427532091737,1.0010846853256226,0.0,0.0,0.0,21.40570640563965,5.637660503387451,1.002049207687378,-3874.475341796875,0
612.9269999999997,-0.005157312378287315,-0.008013445883989334,0.0013242843560874462,0.0,0.0,0.0,0.0,-0.0003648927086032927,-0.0018059519352391362,-0.0008598683052696288,1.001615047454834,0.0,0.0,0.0,21.429134368896484,5.657848834991455,0.9987901449203491,-3878.7158203125,0
622.8109999999997,-0.005160745698958635,-0.008044220507144928,0.0013769115321338177,0.0,0.0,0.0,0.0,-0.002685719635337591,-0.0016934085870161653,0.001659587724134326,0.9992373585700989,0.0,0.0,0.0,21.407794952392578,5.654360294342041,1.0018805265426636,-3874.853271484375,0
632.7060000000001,-0.005188773386180401,-0.008050238713622093,0.0014230856904760003,0.0,0.0,0.0,0.0,-0.0017716699512675405,-0.0020088606979697943,-0.0002571598452050239,1.0005450248718262,0.0,0.0,0.0,21.42167854309082,5.665781021118164,0.9899415969848633,-3877.3662109375,0
642.5879999999997,-0.00519562279805541,-0.008080621249973774,0.0014767074026167393,0.0,0.0,0.0,0.0,0.002079509198665619,-0.0010135149350389838,0.001984852831810713,1.0007202625274658,0.0,0.0,0.0,21.400543212890625,5.667164325714111,0.9917391538619995,-3873.541015625,0
652.4709999999995,-0.005214668810367584,-0.008088627830147743,0.001465679844841361,0.0,0.0,0.0,0.0,0.0002899635583162308,0.0002696422452572733,-0.00022563089441973716,1.0016086101531982,0.0,0.0,0.0,21.41951560974121,5.666728973388672,0.9775862693786621,-3876.974609375,0
662.357,-0.005223569460213184,-0.008121509104967117,0.0015198661712929606,0.0,0.0,0.0,0.0,0.0015905234031379223,0.0027281714137643576,0.006067183334380388,1.00091552734375,0.0,0.0,0.0,21.397533416748047,5.661361217498779,0.9703574180603027,-3872.996337890625,0
672.241,-0.005212016869336367,-0.00804529245942831,0.001404774491675198,0.0,0.0,0.0,0.0,0.0013319760328158736,0.003927193116396666,6.12604126217775e-05,1.00006902217865,0.0,0.0,0.0,21.424020767211914,5.674381256103516,0.9686179161071777,-3877.79052734375,0
682.1270000000004,-0.005219184327870607,-0.008075010031461716,0.0014606551267206669,0.0,0.0,0.0,0.0,0.003434764454141259,-0.0002302796783624217,0.0030447656754404306,0.9991903305053711,0.0,0.0,0.0,21.40169906616211,5.668091297149658,0.9573026299476624,-3873.749755859375,0
692.0130000000008,-0.00519420113414526,-0.008050728589296341,0.0014013774925842881,0.0,0.0,0.0,0.0,-0.0012534167617559433,-0.00497838482260704,0.004383369814604521,1.002798318862915,0.0,0.0,0.0,21.42563819885254,5.6624250411987305,0.9651115536689758,-3878.0830078125,0
701.9050000000007,-0.005197277292609215,-0.008081184700131416,0.0014575866516679525,0.0,0.0,0.0,0.0,-0.001571133267134428,-0.006287745665758848,-0.0002315879100933671,1.0005738735198975,0.0,0.0,0.0,21.405200958251953,5.662197589874268,0.9763794541358948,-3874.3837890625,0
711.7849999999999,-0.005182079970836639,-0.008033573627471924,0.0013800929300487041,0.0,0.0,0.0,0.0,-0.0017385835526511073,0.0013574258191511035,-0.0005335729802027345,0.9995406866073608,0.0,0.0,0.0,21.427078247070312,5.670197010040283,0.9947711825370789,-3878.343994140625,0
721.6820000000007,-0.005185051821172237,-0.008062859997153282,0.001437491038814187,0.0,0.0,0.0,0.0,-0.0015028843190521002,-0.006860377267003059,-0.0016845245845615864,1.0006777048110962,0.0,0.0,0.0,21.405824661254883,5.6668596267700195,0.9928168058395386,-3874.4970703125,0
731.5650000000005,-0.005121820606291294,-0.008000681176781654,0.001281509641557932,0.0,0.0,0.0,0.0,0.003005234757438302,-0.004282934591174126,0.0010867556557059288,1.000772476196289,0.0,0.0,0.0,21.428762435913086,5.664418697357178,1.028241515159607,-3878.648681640625,0
741.4470000000001,-0.0051210601814091206,-0.00802980549633503,0.0013388271909207106,0.0,0.0,0.0,0.0,0.001930875121615827,-0.0001115644263336435,0.002533511258661747,0.9997796416282654,0.0,0.0,0.0,21.407899856567383,5.654593467712402,1.0302528142929077,-3874.872314453125,0
751.3299999999999,-0.005069133825600147,-0.007969199679791927,0.0011905634310096502,0.0,0.0,0.0,0.0,-0.0017619130667299032,0.005261905025690794,0.0007240190752781928,1.0000803470611572,0.0,0.0,0.0,21.432720184326172,5.652698993682861,1.0469510555267334,-3879.365234375,0
761.2170000000006,-0.00506419874727726,-0.007999956607818604,0.0012470184592530131,0.0,0.0,0.0,0.0,-0.003170653246343136,-0.004232354927808046,-0.0015676622278988361,0.9994173645973206,0.0,0.0,0.0,21.41179847717285,5.649130821228027,1.0378780364990234,-3875.577880859375,0
771.103000000001,-0.005079359747469425,-0.008005351759493351,0.0012450256617739797,0.0,0.0,0.0,0.0,-0.0022860239259898663,-0.007523268926888704,-0.003447835799306631,1.0005829334259033,0.0,0.0,0.0,21.43288803100586,5.658136367797852,1.0373421907424927,-3879.3955078125,0
780.9889999999996,-0.005075341556221247,-0.008039857260882854,0.001300728297792375,0.0,0.0,0.0,0.0,-0.0013971294974908233,-0.0009810964111238718,0.002853771671652794,1.001973032951355,0.0,0.0,0.0,21.41044044494629,5.658105850219727,1.0527819395065308,-3875.332275390625,0
790.884,-0.005077500361949205,-0.00800891313701868,0.001298624905757606,0.0,0.0,0.0,0.0,-0.0005524820880964398,-0.004281732253730297,0.007321658078581095,1.0016191005706787,0.0,0.0,0.0,21.433794021606445,5.670372009277344,1.053241491317749,-3879.5595703125,0
800.7579999999998,-0.005071624647825956,-0.008042982779443264,0.001358032925054431,0.0,0.0,0.0,0.0,-0.0007170739118009806,0.0036319869104772806,0.0025123287923634052,1.0011515617370605,0.0,0.0,0.0,21.41410255432129,5.66495943069458,1.06208336353302,-3875.9951171875,0
810.648000000001,-0.005086471792310476,-0.008006100542843342,0.001317341928370297,0.0,0.0,0.0,0.0,-0.00045110969222150743,0.003400986548513174,0.0005514606600627303,0.9999347925186157,0.0,0.0,0.0,21.436647415161133,5.681073188781738,1.0437780618667603,-3880.075927734375,0
820.5310000000009,-0.005084349773824215,-0.00803819764405489,0.0013786281924694777,0.0,0.0,0.0,0.0,-0.0015485599869862199,-0.0014012459432706237,-0.0008038881933316588,0.9991024136543274,0.0,0.0,0.0,21.41544532775879,5.677720069885254,1.0387976169586182,-3876.238037109375,0
830.4210000000003,-0.005098859779536724,-0.008085079491138458,0.0014688585652038455,0.0,0.0,0.0,0.0,-0.0025088824331760406,0.002722006058320403,0.001727771945297718,1.0005601644515991,0.0,0.0,0.0,21.439115524291992,5.679381847381592,1.0350873470306396,-3880.52294921875,0
840.3040000000001,-0.0050958143547177315,-0.008120035752654076,0.0015303031541407108,0.0,0.0,0.0,0.0,2.5501834898022935e-05,-0.004539499990642071,0.0012816294329240918,1.0019835233688354,0.0,0.0,0.0,21.417818069458008,5.679234027862549,1.0244724750518799,-3876.66748046875,0
850.1890000000003,-0.005154334008693695,-0.008157672360539436,0.0016738964477553964,0.0,0.0,0.0,0.0,0.0034284302964806557,0.004564480856060982,-0.0037746152374893427,1.0008742809295654,0.0,0.0,0.0,21.434524536132812,5.694784641265869,1.0157055854797363,-3879.691650390625,0
860.0740000000005,-0.005156399216502905,-0.008192665874958038,0.0017391956644132733,0.0,0.0,0.0,0.0,0.0021979494486004114,0.002948042005300522,8.605013135820627e-05,1.0006840229034424,0.0,0.0,0.0,21.412233352661133,5.682324409484863,1.005244493484497,-3875.65673828125,0
869.960000000001,-0.005191547330468893,-0.00819624587893486,0.001789661357179284,0.0,0.0,0.0,0.0,-0.0016642167465761304,0.0005743597284890711,0.0016412930563092232,1.0001091957092285,0.0,0.0,0.0,21.433530807495117,5.691656112670898,0.983212411403656,-3879.51171875,0
879.8459999999995,-0.005196068435907364,-0.008230242878198624,0.0018566581420600414,0.0,0.0,0.0,0.0,0.0001889621780719608,-0.0030657576862722635,-0.002638939768075943,1.0000437498092651,0.0,0.0,0.0,21.41228485107422,5.688350200653076,0.9853337407112122,-3875.665771484375,0
889.737000000001,-0.005218776874244213,-0.008168776519596577,0.0017908120062202215,0.0,0.0,0.0,0.0,4.047208858537488e-05,0.0023318156599998474,0.0024038520641624928,0.999966561794281,0.0,0.0,0.0,21.437742233276367,5.70929479598999,0.9802678823471069,-3880.274169921875,0
899.6190000000006,-0.004896724596619606,-0.007405187468975782,-0.00022401944443117827,0.0,0.0,0.0,0.0,4.6565352818106476e-07,0.0032509327866137028,0.002552148886024952,1.000456690788269,0.0,0.0,0.0,21.471208572387695,5.734875202178955,0.9946931600570679,-3886.331298828125,0
909.505000000001,-0.004954635631293058,-0.0074178786017000675,-0.00020960543770343065,0.0,0.0,0.0,0.0,-0.0012435968965291977,-0.0011978722177445889,0.00012026890181005001,1.001086950302124,0.0,0.0,0.0,21.49001121520996,5.730098247528076,0.9883167147636414,-3889.73486328125,0
919.3900000000012,-0.0049372147768735886,-0.0073600453324615955,-0.0001755999110173434,0.0,0.0,0.0,0.0,0.0017562644788995385,0.0012863078154623508,0.002189286518841982,1.0007792711257935,0.0,0.0,0.0,21.519447326660156,5.732138633728027,0.9934607148170471,-3895.06298828125,0
929.2759999999998,-0.004960779566317797,-0.007390680722892284,-0.0001481062063248828,0.0,0.0,0.0,0.0,-0.0008406821871176362,-0.0001795908174244687,-0.0006776711088605225,1.000239610671997,0.0,0.0,0.0,21.535463333129883,5.721150875091553,0.9894466400146484,-3897.9619140625,0
939.1730000000007,-0.004962090402841568,-0.007413800340145826,-0.00010425051732454449,0.0,0.0,0.0,0.0,0.0003668752615340054,0.0032733860425651073,-0.001235444564372301,1.0011645555496216,0.0,0.0,0.0,21.51460838317871,5.717294216156006,0.9921433925628662,-3894.186767578125,0
949.0480000000007,-0.004962707869708538,-0.00743847107514739,-5.944313306827098e-05,0.0,0.0,0.0,0.0,0.001292989938519895,-0.0027228561230003834,-0.0029574839863926172,1.0015794038772583,0.0,0.0,0.0,21.493305206298828,5.709601402282715,0.9852113127708435,-3890.3310546875,0
958.9410000000007,-0.004911080002784729,-0.007369266822934151,-7.702108996454626e-05,0.0,0.0,0.0,0.0,0.001999987056478858,-0.000923394865822047,0.002806940348818898,0.9995858073234558,0.0,0.0,0.0,21.522930145263672,5.71645975112915,1.0057203769683838,-3895.693359375,0
968.8199999999997,-0.004893230739980936,-0.007447752635926008,-7.165357965277508e-05,0.0,0.0,0.0,0.0,0.000203634612262249,-0.0003552248526830226,-0.0013606641441583633,1.0005149841308594,0.0,0.0,0.0,21.5374755859375,5.697071075439453,1.0086501836776733,-3898.325927734375,0
978.7060000000001,-0.004890068434178829,-0.007474963553249836,-3.298879164503887e-05,0.0,0.0,0.0,0.0,-0.001153855468146503,-0.0022308428306132555,-0.0008061334956437349,1.0011318922042847,0.0,0.0,0.0,21.514816284179688,5.6846771240234375,1.0017777681350708,-3894.224365234375,0
988.5930000000008,-0.004959528334438801,-0.007486370857805014,1.4511714425680111e-06,0.0,0.0,0.0,0.0,0.00036089081550017,0.0068471357226371765,0.002299706684425473,1.001916527748108,0.0,0.0,0.0,21.529788970947266,5.679398059844971,0.995654821395874,-3896.934326171875,0
998.4840000000004,-0.0049566421657800674,-0.007515651639550924,4.211131818010472e-05,0.0,0.0,0.0,0.0,-0.004034989047795534,-0.003949013072997332,0.0004925403045490384,1.0000742673873901,0.0,0.0,0.0,21.509092330932617,5.674285411834717,0.9757815003395081,-3893.1884765625,0
1008.3649999999998,-0.004959020763635635,-0.007570852991193533,7.502331573050469e-05,0.0,0.0,0.0,0.0,-0.0016704455483704805,0.0015521661844104528,0.002087552333250642,0.9996877908706665,0.0,0.0,0.0,21.519847869873047,5.667724132537842,0.9755772948265076,-3895.135498046875,0
1018.2510000000002,-0.004956453572958708,-0.007605914492160082,0.00011631012603174895,0.0,0.0,0.0,0.0,0.0020102597773075104,-0.005482545588165522,0.0021886155009269714,0.9981927871704102,0.0,0.0,0.0,21.499866485595703,5.665657043457031,0.9716314673423767,-3891.5185546875,0
1028.148000000001,-0.0050062453374266624,-0.007611911743879318,0.00016651785699650645,0.0,0.0,0.0,0.0,-0.0014960328117012978,0.0034272971097379923,-0.0008825738914310932,0.9987052083015442,0.0,0.0,0.0,21.518352508544922,5.670853137969971,0.986177921295166,-3894.864501953125,0
1038.0220000000008,-0.005006970372051001,-0.007648471277207136,0.00020666501950472593,0.0,0.0,0.0,0.0,-0.0029658214189112186,0.001027267542667687,-0.0015770748723298311,1.0013586282730103,0.0,0.0,0.0,21.497203826904297,5.66769552230835,0.9745337963104248,-3891.03662109375,0
1047.9089999999997,-0.0050219143740832806,-0.007656095549464226,0.0002582576125860214,0.0,0.0,0.0,0.0,-0.0017720762407407165,0.00496109202504158,-0.00025722815189510584,1.0007131099700928,0.0,0.0,0.0,21.514780044555664,5.677138805389404,0.9743539690971375,-3894.218017578125,0
1057.7939999999999,-0.0050212182104587555,-0.007692462299019098,0.00030048988992348313,0.0,0.0,0.0,0.0,0.0007478015031665564,0.004999489523470402,0.0007804061751812696,1.0003023147583008,0.0,0.0,0.0,21.493471145629883,5.677865028381348,0.9583767056465149,-3890.361328125,0
1067.6800000000003,-0.005058259703218937,-0.007712590042501688,0.00035193757503293455,0.0,0.0,0.0,0.0,0.0004536402702797204,0.004586189053952694,0.0013691490748897195,1.000529170036316,0.0,0.0,0.0,21.504592895507812,5.677981376647949,0.9467852115631104,-3892.3740234375,0
1077.5660000000007,-0.005057262256741524,-0.0077513279393315315,0.0003962221962865442,0.0,0.0,0.0,0.0,-0.0009622448706068099,0.0004407215164974332,0.0017586875474080443,1.0003032684326172,0.0,0.0,0.0,21.483863830566406,5.6683220863342285,0.9346821308135986,-3888.6220703125,0
1087.4520000000011,-0.005044893361628056,-0.0077778976410627365,0.0004510839644353837,0.0,0.0,0.0,0.0,0.0006100250175222754,0.0013294641394168139,8.599078000770533e-07,0.9985791444778442,0.0,0.0,0.0,21.501901626586914,5.666529655456543,0.9353843927383423,-3891.886962890625,0
1097.339,-0.005042573437094688,-0.007819999009370804,0.0004967455752193928,0.0,0.0,0.0,0.0,-0.00032978024682961404,0.0011962796561419964,-0.001037866109982133,1.001084327697754,0.0,0.0,0.0,21.480066299438477,5.65521764755249,0.9302853345870972,-3887.9345703125,0
1107.2299999999996,-0.005040135234594345,-0.007864465937018394,0.0005424224073067307,0.0,0.0,0.0,0.0,-0.00011584605817915872,-0.0050713843666017056,-0.0031872026156634092,1.0018603801727295,0.0,0.0,0.0,21.45966911315918,5.650301456451416,0.930278480052948,-3884.242919921875,0
1117.1100000000006,-0.005038408562541008,-0.007911263965070248,0.0005895175272598863,0.0,0.0,0.0,0.0,0.000985269551165402,0.002847272204235196,-0.0016254078363999724,1.0014703273773193,0.0,0.0,0.0,21.438148498535156,5.640503883361816,0.9391028881072998,-3880.347900390625,0
1126.996000000001,-0.005095003638416529,-0.007880217395722866,0.0006695394986309111,0.0,0.0,0.0,0.0,0.0007163563859649003,0.00036820463719777763,0.004634074866771698,1.000256896018982,0.0,0.0,0.0,21.459888458251953,5.670237064361572,0.9333417415618896,-3884.282470703125,0
1136.8850000000002,-0.005095542874187231,-0.0079231858253479,0.000722171098459512,0.0,0.0,0.0,0.0,0.002423488534986973,0.0002857299114111811,0.001755016390234232,0.9981505870819092,0.0,0.0,0.0,21.439393997192383,5.666024684906006,0.9297318458557129,-3880.572998046875,0
1146.773000000001,-0.005134635604918003,-0.007891961373388767,0.0008019518572837114,0.0,0.0,0.0,0.0,-0.0001953474129550159,-0.001242261496372521,-0.0005152398371137679,1.000952959060669,0.0,0.0,0.0,21.46438980102539,5.690335273742676,0.9315493702888489,-3885.097412109375,0
1156.6550000000007,-0.005136484745889902,-0.007930402643978596,0.0008563022129237652,0.0,0.0,0.0,0.0,7.838127203285694e-05,-0.0015234745806083083,-0.001312187989242375,1.0023590326309204,0.0,0.0,0.0,21.442256927490234,5.69246768951416,0.9300694465637207,-3881.09130859375,0
1166.5400000000009,-0.005146642215549946,-0.007932044565677643,0.0009246726986020803,0.0,0.0,0.0,0.0,0.0010262633441016078,0.0018033181549981236,0.000170961968251504,1.0007562637329102,0.0,0.0,0.0,21.465673446655273,5.707712650299072,0.9430481791496277,-3885.329345703125,0
1176.434000000001,-0.0051488024182617664,-0.007969456724822521,0.0009840074926614761,0.0,0.0,0.0,0.0,-0.0014408578863367438,-0.006415868178009987,0.003480760380625725,1.0006968975067139,0.0,0.0,0.0,21.44489860534668,5.702106475830078,0.9348540902137756,-3881.569580078125,0
1186.3150000000005,-0.005122616421431303,-0.008004291914403439,0.0010517308255657554,0.0,0.0,0.0,0.0,0.0009197836625389755,-0.004103869199752808,8.38180221762741e-06,0.9985636472702026,0.0,0.0,0.0,21.464492797851562,5.698514461517334,0.9643958806991577,-3885.115966796875,0
1196.1980000000003,-0.00512303551658988,-0.008042208850383759,0.001112425234168768,0.0,0.0,0.0,0.0,0.002764045726507902,0.005468863062560558,-0.0013350372901186347,1.001298427581787,0.0,0.0,0.0,21.442996978759766,5.690197944641113,0.9729342460632324,-3881.22509765625,0
1206.0950000000012,-0.005124106537550688,-0.008061805739998817,0.001187406713142991,0.0,0.0,0.0,0.0,0.0023264556657522917,0.0007289620698429644,0.0014708817470818758,1.0012938976287842,0.0,0.0,0.0,21.462682723999023,5.687270164489746,0.965316116809845,-3884.788330078125,0
1215.9719999999998,-0.005122670903801918,-0.008102158084511757,0.001251097535714507,0.0,0.0,0.0,0.0,0.0038042168598622084,0.0010752208763733506,0.0021512028761208057,1.0015857219696045,0.0,0.0,0.0,21.44152069091797,5.677944660186768,0.9653778672218323,-3880.9580078125,0
1225.8590000000004,-0.005124283023178577,-0.008072096854448318,0.0013170527527108788,0.0,0.0,0.0,0.0,0.004581777844578028,-0.0026301706675440073,-0.0008185436599887908,1.0020127296447754,0.0,0.0,0.0,21.463985443115234,5.694382667541504,0.9726197719573975,-3885.024169921875,0
1235.7489999999998,-0.00512317381799221,-0.008111231960356236,0.0013857202138751745,0.0,0.0,0.0,0.0,0.0001704085007077083,0.00038465645047836006,8.837587301968597e-06,0.9996798634529114,0.0,0.0,0.0,21.441970825195312,5.681957721710205,0.9745641350746155,-3881.03955078125,0
1245.6280000000006,-0.005118152126669884,-0.008111768402159214,0.0014592818915843964,0.0,0.0,0.0,0.0,0.002043565269559622,6.708362889185082e-06,0.0008017691434361041,0.9995125532150269,0.0,0.0,0.0,21.46113395690918,5.691094875335693,0.9746389389038086,-3884.508056640625,0
1255.5150000000012,-0.005116268992424011,-0.00814985204488039,0.0015299818478524685,0.0,0.0,0.0,0.0,-0.0005538205150514841,0.0036877666134387255,-0.0005616905982606113,0.9989197850227356,0.0,0.0,0.0,21.439655303955078,5.685494899749756,0.9707193970680237,-3880.620361328125,0
1265.3999999999996,-0.005153279285877943,-0.008135182783007622,0.0015745293349027634,0.0,0.0,0.0,0.0,-0.0003899318689946085,0.006041140761226416,0.0013957347255200148,0.9997735023498535,0.0,0.0,0.0,21.461265563964844,5.707881450653076,0.9473202228546143,-3884.53173828125,0
1275.2890000000007,-0.0051551214419305325,-0.008170485496520996,0.0016445198561996222,0.0,0.0,0.0,0.0,0.001084399875253439,-0.0009483365574851632,0.000901286315638572,1.0005806684494019,0.0,0.0,0.0,21.44036865234375,5.704034328460693,0.9385049343109131,-3880.74951171875,0
1285.1730000000007,-0.005193869583308697,-0.008183502592146397,0.00170331250410527,0.0,0.0,0.0,0.0,-0.0012002927251160145,0.004250352270901203,-0.0012884282041341066,0.9999780654907227,0.0,0.0,0.0,21.4620418548584,5.716063499450684,0.9248865246772766,-3884.67236328125,0
1295.0660000000007,-0.005199719220399857,-0.008217462338507175,0.001773519441485405,0.0,0.0,0.0,0.0,-0.0009287872235290706,-0.0013370986562222242,0.0022875703871250153,0.9981186985969543,0.0,0.0,0.0,21.440120697021484,5.713596820831299,0.9125637412071228,-3880.704345703125,0
1304.9539999999997,-0.005220445338636637,-0.008204877376556396,0.0018162141786888242,0.0,0.0,0.0,0.0,0.0002123063604813069,-0.0019602642860263586,0.00018566778453532606,0.9986311793327332,0.0,0.0,0.0,21.461034774780273,5.725656032562256,0.9079228043556213,-3884.48974609375,0
1314.8410000000003,-0.00522769195958972,-0.008236771449446678,0.0018849524203687906,0.0,0.0,0.0,0.0,-0.0016743753803893924,0.006354639306664467,0.0012016259133815765,0.99782794713974,0.0,0.0,0.0,21.439678192138672,5.7193522453308105,0.9108722805976868,-3880.62451171875,0
1324.7160000000003,-0.005240729544311762,-0.008225063793361187,0.0019198281224817038,0.0,0.0,0.0,0.0,-0.0014145377790555358,-0.001146913506090641,-0.0023324722424149513,0.9970139861106873,0.0,0.0,0.0,21.46013069152832,5.732429504394531,0.8982788324356079,-3884.326171875,0
1334.6090000000004,-0.005248974543064833,-0.008256286382675171,0.0019852034747600555,0.0,0.0,0.0,0.0,-0.0025588085409253836,-0.00015128291852306575,-0.002681601559743285,1.0004754066467285,0.0,0.0,0.0,21.438405990600586,5.733665466308594,0.8965411186218262,-3880.39404296875,0
1344.487000000001,-0.005279077682644129,-0.008292325772345066,0.0020569355692714453,0.0,0.0,0.0,0.0,0.00340378494001925,-0.0023547776509076357,-0.00025470906984992325,0.9997841715812683,0.0,0.0,0.0,21.46171760559082,5.733948707580566,0.8835094571113586,-3884.613525390625,0
1354.389000000001,-0.005291708745062351,-0.00832576584070921,0.0021211612038314342,0.0,0.0,0.0,0.0,-0.0013396405847743154,-0.004314191173762083,0.002178432187065482,1.0001506805419922,0.0,0.0,0.0,21.440200805664062,5.724255561828613,0.8855610489845276,-3880.718994140625,0
1364.2600000000002,-0.005301595199853182,-0.008344084955751896,0.0021867132745683193,0.0,0.0,0.0,0.0,-0.00011590142094064504,-0.002655248623341322,-0.002144773956388235,1.0007587671279907,0.0,0.0,0.0,21.462230682373047,5.72476863861084,0.8994215130805969,-3884.706787109375,0
1374.1580000000013,-0.00531742163002491,-0.008378611877560616,0.0022525228559970856,0.0,0.0,0.0,0.0,0.0009593312861397862,0.002190303523093462,0.002918465295806527,1.0008994340896606,0.0,0.0,0.0,21.439899444580078,5.71519136428833,0.9074653387069702,-3880.66455078125,0
1384.041000000001,-0.005333440378308296,-0.008397037163376808,0.002318711718544364,0.0,0.0,0.0,0.0,0.002277207560837269,0.0012492660898715258,0.0010500855278223753,0.9998452663421631,0.0,0.0,0.0,21.460031509399414,5.714236259460449,0.9112333655357361,-3884.30859375,0
1393.925000000001,-0.005350103601813316,-0.008432621136307716,0.002386464038863778,0.0,0.0,0.0,0.0,-0.000749319267924875,0.002301244530826807,0.000557039282284677,0.9995138049125671,0.0,0.0,0.0,21.438825607299805,5.70629358291626,0.9044046998023987,-3880.47021484375,0
1403.8029999999999,-0.005355138331651688,-0.00843222625553608,0.0024225027300417423,0.0,0.0,0.0,0.0,-0.0004150685854256153,-0.0056044068187475204,0.00329616223461926,0.9984371066093445,0.0,0.0,0.0,21.453861236572266,5.712355136871338,0.9153974056243896,-3883.19140625,0
1413.7020000000011,-0.00537082739174366,-0.008468921296298504,0.0024897772818803787,0.0,0.0,0.0,0.0,-0.0003102402260992676,0.0014185073086991906,0.0028299426194280386,1.0000336170196533,0.0,0.0,0.0,21.433597564697266,5.710688591003418,0.9354445934295654,-3879.523681640625,0
1423.5750000000007,-0.005359223578125238,-0.0085104089230299,0.0025719297118484974,0.0,0.0,0.0,0.0,-0.0025862748734652996,-0.00036473441286943853,-0.0014707624213770032,0.9987064003944397,0.0,0.0,0.0,21.455778121948242,5.698078155517578,0.9533591866493225,-3883.53857421875,0
1433.482,-0.005375073757022619,-0.008553828112781048,0.0026389537379145622,0.0,0.0,0.0,0.0,0.00208043004386127,0.0012309481389820576,-0.0004360391176305711,0.9991006255149841,0.0,0.0,0.0,21.43435287475586,5.6984710693359375,0.9531214833259583,-3879.66064453125,0
1443.3490000000002,-0.005368162412196398,-0.008594885468482971,0.0026865906547755003,0.0,0.0,0.0,0.0,-0.0007240502745844424,-0.0018276625778526068,0.0009607197134755552,1.0011186599731445,0.0,0.0,0.0,21.456838607788086,5.681795120239258,0.9598293900489807,-3883.73046875,0
1453.2430000000004,-0.005380797199904919,-0.008640372194349766,0.002752655651420355,0.0,0.0,0.0,0.0,0.0024636094458401203,-0.0010474189184606075,0.002309467177838087,1.0009350776672363,0.0,0.0,0.0,21.43549919128418,5.671665191650391,0.9590544104576111,-3879.8681640625,0
1463.1200000000008,-0.005388901103287935,-0.008614510297775269,0.002753231441602111,0.0,0.0,0.0,0.0,0.0007657763781026006,-0.002154020359739661,-0.000876888632774353,0.9985190033912659,0.0,0.0,0.0,21.459030151367188,5.682766914367676,0.9683278799057007,-3884.127197265625,0
1473.0169999999998,-0.00540152145549655,-0.008657281287014484,0.0028203087858855724,0.0,0.0,0.0,0.0,0.001436492195352912,-0.0018274091416969895,-0.0013915912713855505,1.0003515481948853,0.0,0.0,0.0,21.437673568725586,5.677602767944336,0.9742608666419983,-3880.261474609375,0
1482.8940000000002,-0.005358620081096888,-0.008597294799983501,0.002763353521004319,0.0,0.0,0.0,0.0,0.0005811420851387084,0.004955571610480547,0.0017124135047197342,0.9991183280944824,0.0,0.0,0.0,21.455455780029297,5.691220760345459,1.0075360536575317,-3883.480224609375,0
1492.7960000000003,-0.0053653232753276825,-0.008636314421892166,0.0028305670712143183,0.0,0.0,0.0,0.0,-2.7685038617164537e-07,0.00015902465383987874,-0.0016140217194333673,0.9995886087417603,0.0,0.0,0.0,21.434316635131836,5.691073894500732,0.9971016645431519,-3879.654296875,0
1502.6630000000005,-0.00535915931686759,-0.00865692738443613,0.002900088205933571,0.0,0.0,0.0,0.0,-0.0007056388421915472,-0.0011629167711362243,0.0024126293137669563,1.0032151937484741,0.0,0.0,0.0,21.46195411682129,5.689258098602295,1.0016411542892456,-3884.656494140625,0
1512.558000000001,-0.005366581026464701,-0.008696286007761955,0.0029692058451473713,0.0,0.0,0.0,0.0,-0.0024877127725631,-0.0015849466435611248,0.0021824571304023266,1.0003021955490112,0.0,0.0,0.0,21.4417724609375,5.680739402770996,1.0022894144058228,-3881.003662109375,0
1522.4359999999997,-0.0053758639842271805,-0.008718937635421753,0.0030205303337424994,0.0,0.0,0.0,0.0,0.0011921264231204987,-0.0010586492717266083,0.0009624937665648758,1.0011889934539795,0.0,0.0,0.0,21.46158790588379,5.685911178588867,1.006723403930664,-3884.590087890625,0
1532.3379999999997,-0.005382323171943426,-0.008757837116718292,0.0030921204015612602,0.0,0.0,0.0,0.0,0.0006591150304302573,0.0007743114256300032,0.0018954685656353831,0.9997847676277161,0.0,0.0,0.0,21.44099998474121,5.680548667907715,1.0050382614135742,-3880.863525390625,0
1542.214,-0.005394735373556614,-0.008761335164308548,0.0031347917392849922,0.0,0.0,0.0,0.0,-0.0029547971207648516,0.0006277189240790904,0.0019462801283225417,1.0013411045074463,0.0,0.0,0.0,21.461191177368164,5.684171199798584,0.998101532459259,-3884.51806640625,0
1552.1049999999996,-0.005400349851697683,-0.008801628835499287,0.0032079413067549467,0.0,0.0,0.0,0.0,-0.0008536709938198328,-0.00122853834182024,0.0022884919308125973,1.0015369653701782,0.0,0.0,0.0,21.440141677856445,5.682672500610352,0.9950993061065674,-3880.70849609375,0
1561.9790000000012,-0.005405462346971035,-0.008843667805194855,0.003282605204731226,0.0,0.0,0.0,0.0,-0.002327012363821268,-0.0009111232939176261,-0.0011386702535673976,1.001590371131897,0.0,0.0,0.0,21.418893814086914,5.6781415939331055,0.9930057525634766,-3876.8623046875,0
1571.8729999999996,-0.0054105366580188274,-0.008887472562491894,0.0033589573577046394,0.0,0.0,0.0,0.0,0.002789353718981147,0.004534133244305849,-0.0013234021607786417,0.9993186593055725,0.0,0.0,0.0,21.397296905517578,5.675715923309326,0.9888411164283752,-3872.953125,0
1581.7510000000002,-0.005414840765297413,-0.008866604417562485,0.0034022086765617132,0.0,0.0,0.0,0.0,-0.0025455926079303026,0.0061209481209516525,-0.0013193213380873203,0.9993206858634949,0.0,0.0,0.0,21.42262840270996,5.6825714111328125,0.9788370132446289,-3877.538330078125,0
1591.6470000000008,-0.0054187350906431675,-0.008908133022487164,0.003480073530226946,0.0,0.0,0.0,0.0,0.0002849611919373274,-0.009535206481814384,0.003279369557276368,1.0006576776504517,0.0,0.0,0.0,21.400630950927734,5.682528018951416,0.9649232029914856,-3873.556884765625,0
1601.5300000000007,-0.005451676435768604,-0.008863105438649654,0.0034873338881880045,0.0,0.0,0.0,0.0,0.0004807338700629771,-0.0023034459445625544,-0.0030854952055960894,0.9990410208702087,0.0,0.0,0.0,21.42650032043457,5.707160472869873,0.9741410613059998,-3878.239501953125,0
1611.4230000000007,-0.005456403363496065,-0.008905187249183655,0.0035655354149639606,0.0,0.0,0.0,0.0,0.0003533249255269766,0.004260141868144274,-0.0006426374893635511,1.001078724861145,0.0,0.0,0.0,21.404510498046875,5.696315765380859,0.9732346534729004,-3874.2587890625,0
1621.2960000000003,-0.005474734120070934,-0.008886346593499184,0.003577707102522254,0.0,0.0,0.0,0.0,-0.0028882459737360477,-0.001972310710698366,0.001067132456228137,1.0007842779159546,0.0,0.0,0.0,21.429443359375,5.709546089172363,0.9643545746803284,-3878.771728515625,0
1631.1910000000007,-0.00548250786960125,-0.008931638672947884,0.0036569552030414343,0.0,0.0,0.0,0.0,0.00016356109699700028,0.002135859103873372,0.00016705950838513672,1.0023703575134277,0.0,0.0,0.0,21.40874481201172,5.709750175476074,0.9662771821022034,-3875.025390625,0
1641.067000000001,-0.005516050383448601,-0.008925968781113625,0.003669820725917816,0.0,0.0,0.0,0.0,0.0030272516887634993,0.005558736156672239,0.0023828991688787937,1.0032650232315063,0.0,0.0,0.0,21.426345825195312,5.72677755355835,0.9529060125350952,-3878.21142578125,0
1650.9700000000012,-0.005527349654585123,-0.008971326053142548,0.003752780146896839,0.0,0.0,0.0,0.0,0.0020010091830044985,0.0010063102236017585,-0.00028240715619176626,1.001526951789856,0.0,0.0,0.0,21.40611457824707,5.715790271759033,0.9413750171661377,-3874.54931640625,0
1660.839,-0.005538195837289095,-0.00900678988546133,0.003805807325989008,0.0,0.0,0.0,0.0,0.0043176766484975815,0.0004282449372112751,-0.0005268309614621103,1.0017842054367065,0.0,0.0,0.0,21.426864624023438,5.706507205963135,0.948556661605835,-3878.30517578125,0
1670.7399999999998,-0.0055516501888632774,-0.009052320383489132,0.003892153035849333,0.0,0.0,0.0,0.0,0.001587643171660602,0.0034939548932015896,-0.0006820876151323318,0.9995041489601135,0.0,0.0,0.0,21.40553092956543,5.6994404792785645,0.9539231061935425,-3874.443359375,0
1680.6139999999996,-0.005502332001924515,-0.008968113921582699,0.003778227837756276,0.0,0.0,0.0,0.0,-3.5518336517270654e-05,0.0020241865422576666,-0.0006975327851250768,0.9994699954986572,0.0,0.0,0.0,21.432392120361328,5.7119269371032715,0.9710598587989807,-3879.3056640625,0
1690.5060000000012,-0.00551573047414422,-0.009010647423565388,0.00386469392105937,0.0,0.0,0.0,0.0,0.0018558362498879433,-0.0008196280105039477,-0.0006883812602609396,1.0000619888305664,0.0,0.0,0.0,21.411378860473633,5.705499172210693,0.964802622795105,-3875.501953125,0
1700.3860000000004,-0.005530109629034996,-0.008994936011731625,0.003908962942659855,0.0,0.0,0.0,0.0,-0.0006651568110100925,0.0004256665997672826,-4.683641600422561e-05,0.9991912841796875,0.0,0.0,0.0,21.43808364868164,5.712326526641846,0.9633924961090088,-3880.335693359375,0
1710.2839999999997,-0.00554550951346755,-0.009037179872393608,0.0039963265880942345,0.0,0.0,0.0,0.0,-0.0020220184233039618,-0.0009829449700191617,0.0018483687890693545,0.9993700385093689,0.0,0.0,0.0,21.416812896728516,5.707988739013672,0.9531659483909607,-3876.48583984375,0
1720.1550000000007,-0.005542233120650053,-0.009046629071235657,0.004047665745019913,0.0,0.0,0.0,0.0,0.00044749307562597096,0.00486021488904953,-0.003075933549553156,1.0003678798675537,0.0,0.0,0.0,21.443605422973633,5.713091850280762,0.9608893990516663,-3881.335205078125,0
1730.063,-0.00555530097335577,-0.009090829640626907,0.004135107155889273,0.0,0.0,0.0,0.0,0.001201889244839549,0.0025412598624825478,-0.002046894747763872,0.9998975992202759,0.0,0.0,0.0,21.421682357788086,5.702291965484619,0.9469348192214966,-3877.366943359375,0
1739.929,-0.005565261002629995,-0.00907415896654129,0.004139403812587261,0.0,0.0,0.0,0.0,0.0002588203933555633,-0.0015020251739770174,0.0008908212766982615,0.9998700022697449,0.0,0.0,0.0,21.443979263305664,5.7074198722839355,0.9357964396476746,-3881.403076171875,0
1749.826000000001,-0.0055801221169531345,-0.009118001908063889,0.00422700634226203,0.0,0.0,0.0,0.0,0.0012572931591421366,0.00834712851792574,-8.15266466815956e-05,0.9990198016166687,0.0,0.0,0.0,21.422765731811523,5.698365688323975,0.9375388622283936,-3877.563232421875,0
1759.701000000001,-0.0055754706263542175,-0.009055794216692448,0.004131297115236521,0.0,0.0,0.0,0.0,-0.001035404042340815,-0.002542577451094985,0.002508467063307762,0.9985911846160889,0.0,0.0,0.0,21.451255798339844,5.707808017730713,0.929371178150177,-3882.719970703125,0
1769.6010000000006,-0.005589103326201439,-0.009095211513340473,0.004216034896671772,0.0,0.0,0.0,0.0,-0.001022030133754015,-0.005647653713822365,-0.0012459383578971028,0.9992801547050476,0.0,0.0,0.0,21.430341720581055,5.7039031982421875,0.9320787787437439,-3878.934326171875,0
1779.478000000001,-0.005593717098236084,-0.009097639471292496,0.004252511076629162,0.0,0.0,0.0,0.0,-0.0024315319024026394,-0.0032538040541112423,0.0011782157234847546,0.9998915195465088,0.0,0.0,0.0,21.456451416015625,5.708270072937012,0.9486470818519592,-3883.66064453125,0
1789.3680000000004,-0.005605045240372419,-0.009138502180576324,0.004335917532444,0.0,0.0,0.0,0.0,-0.001934611122123897,-0.00023343617795035243,-0.0007838444435037673,1.0009913444519043,0.0,0.0,0.0,21.4354248046875,5.706523895263672,0.9605351090431213,-3879.854736328125,0
1799.2440000000006,-0.005594929680228233,-0.009164942428469658,0.004404362291097641,0.0,0.0,0.0,0.0,-0.0007136735366657376,0.0019604249391704798,0.0037517778109759092,0.9993694424629211,0.0,0.0,0.0,21.45844078063965,5.711014747619629,0.9803057909011841,-3884.0205078125,0
1809.1540000000005,-0.005603439640253782,-0.009206547401845455,0.004488520324230194,0.0,0.0,0.0,0.0,-0.0026602521538734436,0.000980863580480218,0.003393379272893071,0.9985631108283997,0.0,0.0,0.0,21.437232971191406,5.70739221572876,0.9714376926422119,-3880.181884765625,0
1819.0169999999998,-0.0055856965482234955,-0.00914148148149252,0.004351640120148659,0.0,0.0,0.0,0.0,-0.002961087739095092,-0.0070707425475120544,0.0034281588159501553,0.998835563659668,0.0,0.0,0.0,21.46645736694336,5.723964214324951,0.977167010307312,-3885.4716796875,0
1828.9140000000007,-0.005593661684542894,-0.009180590510368347,0.004431629553437233,0.0,0.0,0.0,0.0,-0.0006582199712283909,0.003877397393807769,-0.000676947645843029,1.0006704330444336,0.0,0.0,0.0,21.446550369262695,5.721986293792725,0.9812921285629272,-3881.8681640625,0
1838.791000000001,-0.005607351660728455,-0.009153450839221478,0.004424057900905609,0.0,0.0,0.0,0.0,0.0008692473056726158,-0.0023902507964521646,0.0007920418283902109,1.0013012886047363,0.0,0.0,0.0,21.464616775512695,5.734734535217285,0.974429726600647,-3885.13818359375,0
1848.6820000000007,-0.005618579685688019,-0.009192422032356262,0.004505039192736149,0.0,0.0,0.0,0.0,-0.0024613612331449986,0.005604741163551807,-0.002654264448210597,1.0016332864761353,0.0,0.0,0.0,21.442596435546875,5.728183269500732,0.9754106998443604,-3881.152587890625,0
1858.5640000000003,-0.005621619988232851,-0.00909813679754734,0.004378088749945164,0.0,0.0,0.0,0.0,0.0017487606965005398,-0.0023838647175580263,0.0007581871468573809,1.0033421516418457,0.0,0.0,0.0,21.471710205078125,5.748842716217041,0.9632576107978821,-3886.42236328125,0
1868.460000000001,-0.005637583322823048,-0.00913657434284687,0.004462257493287325,0.0,0.0,0.0,0.0,-0.0005784467211924493,0.0046708546578884125,0.00018244019884150475,1.00251042842865,0.0,0.0,0.0,21.450111389160156,5.736235618591309,0.9566993117332458,-3882.51318359375,0
1878.344000000001,-0.00564925791695714,-0.00912947952747345,0.004441451281309128,0.0,0.0,0.0,0.0,0.002747642109170556,0.00016799736476968974,0.0033046980388462543,1.000537395477295,0.0,0.0,0.0,21.472440719604492,5.732797145843506,0.944692075252533,-3886.554443359375,0
1888.2270000000008,-0.0056652589701116085,-0.009168041869997978,0.004528047051280737,0.0,0.0,0.0,0.0,0.001698600361123681,0.00017766040400601923,1.128329495259095e-05,1.0010801553726196,0.0,0.0,0.0,21.45123291015625,5.721125602722168,0.9486408233642578,-3882.7158203125,0
1898.121000000001,-0.005665901582688093,-0.009152177721261978,0.004508132580667734,0.0,0.0,0.0,0.0,0.0005477310041896999,-2.2727697796653956e-05,0.0012529658852145076,1.0004178285598755,0.0,0.0,0.0,21.47443199157715,5.716346263885498,0.9513527154922485,-3886.9150390625,0
1908.0010000000002,-0.0056836470030248165,-0.009191911667585373,0.0046046581119298935,0.0,0.0,0.0,0.0,0.0026536087971180677,0.0001495507312938571,7.788372022332624e-05,1.000450611114502,0.0,0.0,0.0,21.452207565307617,5.71334171295166,0.9397258758544922,-3882.892333984375,0
1917.884,-0.0056694140657782555,-0.009155599400401115,0.004531721584498882,0.0,0.0,0.0,0.0,-0.0004966623964719474,0.0005359183996915817,-0.0012950156815350056,0.9999591708183289,0.0,0.0,0.0,21.470645904541016,5.710099697113037,0.9473848342895508,-3886.229736328125,0
1927.7759999999998,-0.005681620445102453,-0.009190795943140984,0.004618508741259575,0.0,0.0,0.0,0.0,0.0006868718191981316,-0.0011352531146258116,0.0015897679841145873,0.9986008405685425,0.0,0.0,0.0,21.44839096069336,5.705803871154785,0.9452455639839172,-3882.20166015625,0
1937.6550000000007,-0.005668172147125006,-0.009152751415967941,0.004548508208245039,0.0,0.0,0.0,0.0,-0.0003733399207703769,0.002988087711855769,-0.001866946811787784,1.000462532043457,0.0,0.0,0.0,21.471973419189453,5.708158016204834,0.9443362355232239,-3886.469970703125,0
1947.5470000000005,-0.005681049544364214,-0.009187789633870125,0.0046334522776305676,0.0,0.0,0.0,0.0,0.002148211468011141,0.003761393018066883,-0.00013203681737650186,0.9993346929550171,0.0,0.0,0.0,21.449113845825195,5.705214500427246,0.9434197545051575,-3882.332275390625,0
1957.433000000001,-0.005661956965923309,-0.009226085618138313,0.0046737901866436005,0.0,0.0,0.0,0.0,-5.0302933232160285e-05,-0.005726444069296122,0.0008125052554532886,1.0001897811889648,0.0,0.0,0.0,21.46976089477539,5.6832594871521,0.9472087621688843,-3886.069580078125,0
1967.3180000000011,-0.005672520492225885,-0.00926151592284441,0.004757907707244158,0.0,0.0,0.0,0.0,0.00043152959551662207,0.0006420136196538806,0.0030604195781052113,1.0000275373458862,0.0,0.0,0.0,21.44902801513672,5.680587291717529,0.9553481340408325,-3882.31689453125,0
1977.2060000000001,-0.00559299997985363,-0.00915598776191473,0.004534844309091568,0.0,0.0,0.0,0.0,0.0010745427571237087,-0.0006759706884622574,0.0005740005290135741,0.9984796047210693,0.0,0.0,0.0,21.472949981689453,5.674249649047852,0.9788825511932373,-3886.646728515625,0
1987.0920000000006,-0.005597657989710569,-0.009191102348268032,0.004615628160536289,0.0,0.0,0.0,0.0,0.002263347152620554,-0.0046430667862296104,0.0008271929109469056,0.9962164759635925,0.0,0.0,0.0,21.450450897216797,5.664397716522217,0.9748178720474243,-3882.57421875,0
1996.9880000000012,-0.005542316939681768,-0.009115967899560928,0.004429423250257969,0.0,0.0,0.0,0.0,0.0007788062212057412,-0.005822131410241127,0.00038599237450398505,1.0000908374786377,0.0,0.0,0.0,21.47794532775879,5.6587347984313965,1.001306414604187,-3887.55078125,0
2006.8590000000004,-0.005544010084122419,-0.009151797741651535,0.00450418796390295,0.0,0.0,0.0,0.0,-0.0030867233872413635,-9.615960152586922e-05,0.0023131342604756355,1.0026347637176514,0.0,0.0,0.0,21.455669403076172,5.654830455780029,1.010016679763794,-3883.51904296875,0
2016.7479999999996,-0.005567620042711496,-0.00919699389487505,0.0045591434463858604,0.0,0.0,0.0,0.0,-0.0007876237505115569,-0.007982587441802025,0.0009941317839547992,1.0009733438491821,0.0,0.0,0.0,21.475540161132812,5.650966167449951,0.9968199133872986,-3887.115478515625,0
2026.630000000001,-0.005573174450546503,-0.009236255660653114,0.004636325873434544,0.0,0.0,0.0,0.0,-0.004285307135432959,-0.0046705263666808605,0.0013185979332774878,1.0022011995315552,0.0,0.0,0.0,21.453861236572266,5.649548053741455,0.9992683529853821,-3883.19140625,0
2036.5159999999996,-0.005573108792304993,-0.009238576516509056,0.004624771419912577,0.0,0.0,0.0,0.0,0.001580847892910242,0.0015010660281404853,0.0013957149349153042,0.9988357424736023,0.0,0.0,0.0,21.480419158935547,5.658050537109375,1.0081548690795898,-3887.99853515625,0
2046.407000000001,-0.0055817714892327785,-0.009279545396566391,0.004702177830040455,0.0,0.0,0.0,0.0,-0.00024338558432646096,-0.006281278561800718,-0.0013368481304496527,0.999118983745575,0.0,0.0,0.0,21.45979881286621,5.653260231018066,1.0083458423614502,-3884.26611328125,0
2056.2890000000007,-0.005605315323919058,-0.009292869828641415,0.004733133129775524,0.0,0.0,0.0,0.0,0.0012767837615683675,-0.001603844459168613,0.0007500118226744235,1.002821445465088,0.0,0.0,0.0,21.47797393798828,5.66110897064209,1.0061137676239014,-3887.55615234375,0
2066.1720000000005,-0.005614113993942738,-0.009335435926914215,0.004811122547835112,0.0,0.0,0.0,0.0,0.0029256001580506563,0.001076534390449524,0.004446304868906736,1.001196026802063,0.0,0.0,0.0,21.4576416015625,5.651095390319824,1.0077608823776245,-3883.8759765625,0
2076.0640000000003,-0.005622665397822857,-0.009267601184546947,0.004697563126683235,0.0,0.0,0.0,0.0,-0.000449836632469669,-0.002764440141618252,-0.0008691977127455175,0.9998036026954651,0.0,0.0,0.0,21.48042106628418,5.662195682525635,1.0001295804977417,-3887.9990234375,0
2085.9400000000005,-0.0056304605677723885,-0.009308373555541039,0.00477581238374114,0.0,0.0,0.0,0.0,-9.61588229984045e-05,-0.00205491972155869,0.002965435152873397,1.0000934600830078,0.0,0.0,0.0,21.458566665649414,5.657535076141357,0.9970415234565735,-3884.04345703125,0
2095.8340000000007,-0.005620070733129978,-0.009168770164251328,0.0045343246310949326,0.0,0.0,0.0,0.0,-0.0027645761147141457,-0.006709265988320112,0.000219632827793248,1.0006773471832275,0.0,0.0,0.0,21.48392677307129,5.684957504272461,1.0014113187789917,-3888.633544921875,0
2105.7129999999997,-0.005628812592476606,-0.009202673099935055,0.004611272364854813,0.0,0.0,0.0,0.0,0.002172753680497408,0.004724074155092239,0.0006580091430805624,1.0005067586898804,0.0,0.0,0.0,21.461841583251953,5.685795307159424,1.0108518600463867,-3884.635986328125,0
2115.6049999999996,-0.005609696730971336,-0.009122796356678009,0.004439083393663168,0.0,0.0,0.0,0.0,0.00013025903899688274,-0.00021892119548283517,0.0006802408606745303,1.000750184059143,0.0,0.0,0.0,21.482215881347656,5.688919544219971,1.0034717321395874,-3888.32373046875,0
2125.496000000001,-0.005619115196168423,-0.009154895320534706,0.00451565021649003,0.0,0.0,0.0,0.0,-0.0017649027286097407,-0.004075927194207907,-0.0019209702732041478,1.0015332698822021,0.0,0.0,0.0,21.46183967590332,5.679814338684082,1.0075984001159668,-3884.635498046875,0
2135.384,-0.0056220791302621365,-0.009208785369992256,0.004639791790395975,0.0,0.0,0.0,0.0,-0.0004680624697357416,-0.0034223641268908978,0.00012577879533637315,0.9998909831047058,0.0,0.0,0.0,21.479856491088867,5.677141189575195,1.0225263833999634,-3887.896728515625,0
2145.2569999999996,-0.005631447769701481,-0.00924467109143734,0.004718415904790163,0.0,0.0,0.0,0.0,0.0017071380279958248,0.007917298004031181,-0.0027965412009507418,1.0005854368209839,0.0,0.0,0.0,21.457128524780273,5.674539566040039,1.0141290426254272,-3883.78271484375,0
