timestamp,stateEstimate.x,stateEstimate.y,stateEstimate.z,controller.cmd_thrust,controller.cmd_roll,controller.cmd_pitch,controller.cmd_yaw,controller.r_roll,controller.r_pitch,controller.r_yaw,controller.accelz,controller.actuatorThrust,controller.roll,controller.pitch,controller.yaw,controller.rollRate,controller.pitchRate,controller.yawRate,controller.ctr_yaw
0.0,-0.00012682628585025668,-0.00016873530694283545,-6.922102329554036e-05,0.0,0.0,0.0,0.0,-0.003421945031732321,-0.003959786146879196,-0.002458001719787717,0.9986474514007568,0.0,0.0,0.0,0.08254856616258621,6.057041168212891,0.5417141318321228,-14.941454887390137,0
9.878999999998996,-8.293254359159619e-05,-0.0001934010797413066,-3.025717887794599e-05,0.0,0.0,0.0,0.0,-0.0012944804038852453,0.002314370358362794,-0.0013446274679154158,0.9992283582687378,0.0,0.0,0.0,0.07531530410051346,6.062155246734619,0.5575793981552124,-13.632220268249512,0
19.76599999999962,-7.76210508774966e-05,-0.0001745456684147939,-4.953666575602256e-05,0.0,0.0,0.0,0.0,-0.0007462982321158051,-0.0009712554165162146,-8.111216448014602e-05,0.9993061423301697,0.0,0.0,0.0,0.08596127480268478,6.0746073722839355,0.5620462894439697,-15.559162139892578,0
29.65599999999904,-0.00013260319246910512,-0.000207426943234168,-4.07981569878757e-05,0.0,0.0,0.0,0.0,-0.0009946329519152641,-0.0010099882492795587,0.00123653095215559,1.0005451440811157,0.0,0.0,0.0,0.08571676909923553,6.072978973388672,0.5686895847320557,-15.51490592956543,0
39.53700000000026,-0.0001148204246419482,-0.00017295920406468213,-7.448186079273e-05,0.0,0.0,0.0,0.0,0.002694045891985297,0.0028971557039767504,0.0006312819896265864,1.000213861465454,0.0,0.0,0.0,0.09876757860183716,6.082670211791992,0.5767783522605896,-17.87712860107422,0
49.430999999998676,-4.431289198691957e-05,-0.00016678204701747745,-1.7058082448784262e-05,0.0,0.0,0.0,0.0,0.00021877032122574747,-0.0021169683896005154,0.004228763282299042,0.9993737936019897,0.0,0.0,0.0,0.08991986513137817,6.0873942375183105,0.5837817192077637,-16.275672912597656,0
59.3179999999993,-4.555007035378367e-05,-0.00015875225653871894,-3.2984196877805516e-05,0.0,0.0,0.0,0.0,0.002435187343508005,0.0010143594117835164,0.0013675945810973644,1.0016084909439087,0.0,0.0,0.0,0.10140260308980942,6.086982250213623,0.5857758522033691,-18.35407257080078,0
69.19499999999971,-3.3503558370284736e-05,-0.00015863082080613822,7.327337243623333e-06,0.0,0.0,0.0,0.0,0.0013835635036230087,0.003709264099597931,0.0012120158644393086,1.0009934902191162,0.0,0.0,0.0,0.09411261975765228,6.088751792907715,0.592024028301239,-17.03457260131836,0
79.07999999999993,-2.640925049490761e-05,-0.00015375821385532618,-1.862270619312767e-05,0.0,0.0,0.0,0.0,-0.000369789864635095,0.0033138771541416645,-0.00043580346391536295,0.9977710247039795,0.0,0.0,0.0,0.09410964697599411,6.079944133758545,0.5882598161697388,-17.034032821655273,0
88.97199999999975,-7.313155219890177e-05,-0.00017764804942999035,-3.94031303585507e-06,0.0,0.0,0.0,0.0,0.0004045638779643923,0.002133877482265234,-0.0017114526126533747,0.9980828762054443,0.0,0.0,0.0,0.08484629541635513,6.0795512199401855,0.5809894800186157,-15.357348442077637,0
98.85699999999997,-6.610392301809043e-05,-0.00015927560161799192,-3.180325074936263e-05,0.0,0.0,0.0,0.0,-0.0035724646877497435,-0.0008753676083870232,-0.002052669646218419,0.9987328052520752,0.0,0.0,0.0,0.09518571943044662,6.080628871917725,0.5873047709465027,-17.228803634643555,0
108.73599999999897,-9.246418630937114e-05,-0.0001961926172953099,-2.0352015781099908e-05,0.0,0.0,0.0,0.0,-0.0011642581084743142,-0.007377205416560173,-0.0024078553542494774,0.999688982963562,0.0,0.0,0.0,0.08697028458118439,6.080221652984619,0.5989786982536316,-15.74179458618164,0
118.6239999999998,-6.87561187078245e-05,-0.00016102701192721725,-6.497822323581204e-05,0.0,0.0,0.0,0.0,-2.7479785785544664e-05,0.0011071015615016222,0.001200784812681377,0.9980431199073792,0.0,0.0,0.0,0.08630673587322235,6.075131416320801,0.598098635673523,-15.62169075012207,0
128.5069999999996,-9.437108383281156e-05,-0.0001905799872474745,-5.5613058066228405e-05,0.0,0.0,0.0,0.0,-0.0032707583159208298,-0.0064356061629951,0.000338659476255998,0.9982858300209045,0.0,0.0,0.0,0.07946791499853134,6.071481227874756,0.6018471717834473,-14.383851051330566,0
138.39799999999923,-6.79549848427996e-05,-0.0001617230154806748,-0.00010858286259463057,0.0,0.0,0.0,0.0,-0.0015425444580614567,0.004712442401796579,-0.0006018173880875111,0.999543309211731,0.0,0.0,0.0,0.07977362722158432,6.067625999450684,0.6116085648536682,-14.439184188842773,0
148.28499999999985,-7.817416917532682e-05,-0.00016040512127801776,-8.767140388954431e-05,0.0,0.0,0.0,0.0,0.00222659925930202,0.002087147906422615,-0.0022311583161354065,1.0004359483718872,0.0,0.0,0.0,0.08006087690591812,6.060633182525635,0.6078640222549438,-14.491178512573242,0
158.16899999999987,-4.257250111550093e-05,-0.00014149912749417126,-0.00015456338587682694,0.0,0.0,0.0,0.0,0.0027558377478271723,0.0031685801222920418,0.00014795879542361945,0.9992721676826477,0.0,0.0,0.0,0.07891130447387695,6.042409896850586,0.5945529937744141,-14.283102989196777,0
168.04999999999927,-5.6999117077793926e-05,-0.0001561148965265602,-0.00014220942102838308,0.0,0.0,0.0,0.0,-0.0014744853833690286,-0.005520333535969257,0.0007577366777695715,0.9993211030960083,0.0,0.0,0.0,0.0791623517870903,6.029175758361816,0.5863546133041382,-14.328542709350586,0
177.9380000000001,-6.123731873231009e-05,-0.000104944032500498,-0.00015533642726950347,0.0,0.0,0.0,0.0,-0.0014165963511914015,0.004720750730484724,-0.0010359685402363539,0.9990763068199158,0.0,0.0,0.0,0.08668015897274017,6.038404941558838,0.5906835198402405,-15.68928050994873,0
187.82200000000012,-5.996540130581707e-05,-0.00014285295037552714,-0.00014768891560379416,0.0,0.0,0.0,0.0,-0.005514719523489475,0.0025375832337886095,0.0005296971648931503,0.9990756511688232,0.0,0.0,0.0,0.07942449301481247,6.036830902099609,0.5910425782203674,-14.375992774963379,0
197.70799999999872,-7.837047451175749e-05,-0.00014740585174877197,-0.00016058162145782262,0.0,0.0,0.0,0.0,0.0009013579692691565,-0.00047821036423556507,0.0005537693505175412,0.9985262155532837,0.0,0.0,0.0,0.09267645329236984,6.049815654754639,0.592395007610321,-16.774621963500977,0
207.59299999999894,-7.024356455076486e-05,-0.00017678325821179897,-0.000147444341564551,0.0,0.0,0.0,0.0,-0.002088187262415886,0.0012607760727405548,-0.0010885923402383924,1.000941514968872,0.0,0.0,0.0,0.08375916630029678,6.053731441497803,0.6012893915176392,-15.160575866699219,0
217.47899999999936,-8.547338075004518e-05,-0.00016941245121415704,-0.0001592616317793727,0.0,0.0,0.0,0.0,0.0018895810935646296,0.00013740472786594182,2.3329528630711138e-05,1.0024948120117188,0.0,0.0,0.0,0.09196390956640244,6.060377597808838,0.6064901947975159,-16.645648956298828,0
227.36499999999978,-5.218638034421019e-05,-0.0001860802440205589,-0.0001299658470088616,0.0,0.0,0.0,0.0,-0.0010512495646253228,0.0034971071872860193,0.00035629732883535326,0.9991103410720825,0.0,0.0,0.0,0.08462249487638474,6.055543899536133,0.6188225746154785,-15.316839218139648,0
237.2510000000002,-7.243406435009092e-05,-0.00018556625582277775,-0.0001310972438659519,0.0,0.0,0.0,0.0,-0.001757793826982379,-0.004755230620503426,0.0003594665613491088,1.0001105070114136,0.0,0.0,0.0,0.09235114604234695,6.062847137451172,0.6155576705932617,-16.715742111206055,0
247.13999999999942,-8.320590131916106e-05,-0.00018536279094405472,-0.00010609546006890014,0.0,0.0,0.0,0.0,0.002415779512375593,0.00015143989003263414,-0.002892511198297143,1.0015513896942139,0.0,0.0,0.0,0.09227443486452103,6.0569257736206055,0.6246382594108582,-16.70185661315918,0
257.02999999999884,-6.958848098292947e-05,-0.00015397001698147506,-0.00013305315223988146,0.0,0.0,0.0,0.0,0.0003072492254432291,0.0016025037039071321,-0.0015203651273623109,0.9998533129692078,0.0,0.0,0.0,0.0923466607928276,6.045978546142578,0.6227569580078125,-16.714929580688477,0
266.90799999999945,-6.730118184350431e-05,-0.00015725198318250477,-0.00010229406325379387,0.0,0.0,0.0,0.0,0.0010342600289732218,0.006737988907843828,0.0006698497454635799,0.999264657497406,0.0,0.0,0.0,0.09162406623363495,6.041071891784668,0.6127012372016907,-16.584136962890625,0
276.79399999999987,-7.998519868124276e-05,-0.00016429353854618967,-0.00010639299580361694,0.0,0.0,0.0,0.0,0.0015153334243223071,-0.00011105752491857857,-0.0011267447844147682,0.9984411597251892,0.0,0.0,0.0,0.10264841467142105,6.043501377105713,0.6024103760719299,-18.579566955566406,0
286.6809999999987,-7.925964746391401e-05,-0.00016472577408421785,-7.455013110302389e-05,0.0,0.0,0.0,0.0,0.00036610744427889585,-0.0006101016188040376,-0.002997633768245578,1.0002840757369995,0.0,0.0,0.0,0.10276389122009277,6.037346363067627,0.600998044013977,-18.600467681884766,0
296.5679999999993,-8.579781570006162e-05,-0.00016592282918281853,-8.36239050840959e-05,0.0,0.0,0.0,0.0,-0.0015200753696262836,-0.003393384860828519,0.003744601970538497,0.9992151260375977,0.0,0.0,0.0,0.1106184720993042,6.046852111816406,0.6144458055496216,-20.022165298461914,0
306.4509999999991,-6.051138188922778e-05,-0.00019392238755244762,-5.3652958740713075e-05,0.0,0.0,0.0,0.0,-0.003673900617286563,-0.0024349591694772243,0.001031863852404058,0.9992759227752686,0.0,0.0,0.0,0.10296736657619476,6.043432712554932,0.6268883347511292,-18.637296676635742,0
316.33699999999953,-4.059700950165279e-05,-0.00013469773693941534,-7.418527093250304e-05,0.0,0.0,0.0,0.0,0.001575339469127357,0.003917845897376537,0.0031595693435519934,0.998894214630127,0.0,0.0,0.0,0.11122582852840424,6.0614542961120605,0.6356023550033569,-20.132097244262695,0
326.22500000000036,-7.068242121022195e-05,-0.00014809849380981177,-5.704734576283954e-05,0.0,0.0,0.0,0.0,0.0008615063852630556,0.000647805049084127,0.00029879354406148195,0.9988670945167542,0.0,0.0,0.0,0.11219415068626404,6.054381370544434,0.6274319887161255,-20.30736541748047,0
336.1080000000002,-5.241699545877054e-05,-0.00015596079174429178,-9.518107253825292e-05,0.0,0.0,0.0,0.0,-0.004170520231127739,-0.003166947513818741,0.0030678154435008764,0.9974474310874939,0.0,0.0,0.0,0.11114360392093658,6.050170421600342,0.6197276711463928,-20.117216110229492,0
345.994999999999,-7.624656427651644e-05,-0.0002161001175409183,-9.951786341844127e-05,0.0,0.0,0.0,0.0,-0.0027033898513764143,-0.0031344073358923197,-0.0033131027594208717,0.999163806438446,0.0,0.0,0.0,0.11194724589586258,6.0491485595703125,0.6211492419242859,-20.26267433166504,0
355.8809999999994,-2.4912620574468747e-05,-0.00014431957970373333,-0.00015473221719730645,0.0,0.0,0.0,0.0,0.0015418995171785355,-0.0030011956114321947,0.0011690912069752812,1.0017942190170288,0.0,0.0,0.0,0.1189996749162674,6.080413818359375,0.6440240740776062,-21.5391788482666,0
365.76800000000003,-4.663238360080868e-05,-0.00020416970073711127,-0.0001626395242055878,0.0,0.0,0.0,0.0,0.00018892135994974524,0.0012669098796322942,0.0038974278140813112,0.9991991519927979,0.0,0.0,0.0,0.11820938438177109,6.074223518371582,0.645676851272583,-21.396135330200195,0
375.65499999999884,-2.1588310119113885e-05,-0.00015075750707183033,-0.00019349294598214328,0.0,0.0,0.0,0.0,-0.0016760264988988638,0.004420584999024868,0.0004270678909961134,0.9979382753372192,0.0,0.0,0.0,0.1281455010175705,6.103302478790283,0.6615391373634338,-23.194589614868164,0
385.53899999999885,-2.102010512317065e-05,-0.00016978905478026718,-0.00016900041373446584,0.0,0.0,0.0,0.0,0.00027693688753060997,-0.004738959949463606,0.0017531767953187227,0.9986023902893066,0.0,0.0,0.0,0.12890343368053436,6.097473621368408,0.6533901691436768,-23.331777572631836,0
395.4259999999995,-3.817999822786078e-05,-0.00018418292165733874,-0.00016348394274245948,0.0,0.0,0.0,0.0,0.00016476205200888216,-0.0008273323765024543,0.0014499301323667169,1.0004832744598389,0.0,0.0,0.0,0.13673412799835205,6.101494312286377,0.6696092486381531,-24.749147415161133,0
405.3089999999993,-4.718515265267342e-05,-0.0001784794294508174,-0.00014337866741698235,0.0,0.0,0.0,0.0,0.00020992786448914558,0.0032499837689101696,0.0025868751108646393,1.000462532043457,0.0,0.0,0.0,0.1367741823196411,6.092278957366943,0.6665977239608765,-24.756397247314453,0
415.1999999999989,-5.041567055741325e-05,-0.00016960548236966133,-0.0001484331878600642,0.0,0.0,0.0,0.0,-0.0019002733752131462,-0.0007386598153971136,0.0025854746345430613,1.0016844272613525,0.0,0.0,0.0,0.14639441668987274,6.097298622131348,0.6681286096572876,-26.4976806640625,0
425.0799999999999,-7.054690649965778e-05,-0.00022525394160766155,-0.0001530498411739245,0.0,0.0,0.0,0.0,-0.0018368958262726665,-0.0021176771260797977,0.00469134422019124,1.0020538568496704,0.0,0.0,0.0,0.14730273187160492,6.096651554107666,0.6737746596336365,-26.662084579467773,0
434.97400000000016,-0.00011476143845357001,-0.00025888081290759146,-0.00012108228111173958,0.0,0.0,0.0,0.0,0.003226242493838072,0.0018125312635675073,-0.0003527880762703717,1.0020160675048828,0.0,0.0,0.0,0.15712830424308777,6.097002983093262,0.6750808358192444,-28.440536499023438,0
444.85199999999895,-8.074486686382443e-05,-0.0002447215956635773,-5.015340866521001e-05,0.0,0.0,0.0,0.0,-0.0032238855492323637,-0.0005208697402849793,-0.002153821522369981,1.0007939338684082,0.0,0.0,0.0,0.15670259296894073,6.085421085357666,0.6744849681854248,-28.363481521606445,0
454.73699999999917,-9.567437518853694e-05,-0.0002252281119581312,-2.6268862711731344e-05,0.0,0.0,0.0,0.0,0.001075858948752284,0.0003961863403674215,-0.001256869756616652,0.9996168613433838,0.0,0.0,0.0,0.16311335563659668,6.097090721130371,0.6675552129745483,-29.523839950561523,0
464.6329999999998,-9.24406194826588e-05,-0.000230891426326707,1.555276321596466e-05,0.0,0.0,0.0,0.0,-0.0021580918692052364,-0.003179252380505204,0.001037250505760312,0.9987199902534485,0.0,0.0,0.0,0.15166698396205902,6.099527359008789,0.6676607131958008,-27.4520263671875,0
474.512999999999,-5.8112294937018305e-05,-0.00020070915343239903,-1.877119211712852e-05,0.0,0.0,0.0,0.0,0.0017400042852386832,0.006751230917870998,-0.0017385119572281837,0.9976686835289001,0.0,0.0,0.0,0.15988536179065704,6.1123456954956055,0.6725074052810669,-28.939571380615234,0
484.40499999999884,-7.801511674188077e-05,-0.00020872433378826827,1.0143734471057542e-05,0.0,0.0,0.0,0.0,0.0010288618505001068,-0.0015838432591408491,-0.0006769511383026838,0.9976147413253784,0.0,0.0,0.0,0.1478140652179718,6.112144947052002,0.660516083240509,-26.754640579223633,0
494.28700000000026,-4.928304042550735e-05,-0.00018982961773872375,-2.2263016944634728e-05,0.0,0.0,0.0,0.0,1.0159406116372338e-07,0.0008064067224040627,0.0017581660067662597,1.0011593103408813,0.0,0.0,0.0,0.15592561662197113,6.1128315925598145,0.6686661839485168,-28.22284698486328,0
504.16699999999946,-7.7230048191268e-05,-0.00021038352861069143,-2.5819626898737624e-06,0.0,0.0,0.0,0.0,-0.0011713275453075767,0.0024432928767055273,0.00426251208409667,1.0010287761688232,0.0,0.0,0.0,0.14646223187446594,6.110825061798096,0.6599259972572327,-26.50995445251465,0
514.0609999999997,-3.3430158509872854e-05,-0.0001347791840089485,-3.7136749597266316e-05,0.0,0.0,0.0,0.0,-0.002079620258882642,-0.0018881007563322783,0.0007980461232364178,0.9971752762794495,0.0,0.0,0.0,0.15351594984531403,6.120461940765381,0.6613641381263733,-27.786691665649414,0
523.9380000000001,-6.318226223811507e-05,-0.00016243531717918813,-2.3774842702550814e-05,0.0,0.0,0.0,0.0,0.0015011787181720138,0.005533328279852867,-0.0008306993404403329,0.9987378716468811,0.0,0.0,0.0,0.1413753181695938,6.124797821044922,0.6676124930381775,-25.58921241760254,0
533.8259999999991,-5.1789978897431865e-05,-0.00017116867820732296,-4.365200220490806e-05,0.0,0.0,0.0,0.0,0.0005170621443539858,0.0012961399042978883,-0.0021550978999584913,1.00133216381073,0.0,0.0,0.0,0.1483416110277176,6.129030704498291,0.6565733551979065,-26.850126266479492,0
543.7129999999997,-7.177477527875453e-05,-0.00022539272322319448,-3.890333391609602e-05,0.0,0.0,0.0,0.0,-0.0001347873330814764,-0.0006063009495846927,0.0009361581178382039,1.0012000799179077,0.0,0.0,0.0,0.14011681079864502,6.120260238647461,0.6513554453849792,-25.361421585083008,0
553.5990000000002,-5.054464054410346e-05,-0.00021204471704550087,-6.535838474519551e-05,0.0,0.0,0.0,0.0,0.0016253646463155746,-0.0012023304589092731,-0.0017286945367231965,0.9997916221618652,0.0,0.0,0.0,0.1502757966518402,6.129092693328857,0.6564065217971802,-27.200218200683594,0
563.4920000000002,-7.970376464072615e-05,-0.00020499038510024548,-3.949551683035679e-05,0.0,0.0,0.0,0.0,0.00021542243484873325,0.002612193813547492,-0.0007784761837683618,1.0015416145324707,0.0,0.0,0.0,0.14952239394187927,6.121243476867676,0.6540582776069641,-27.06385040283203,0
573.3680000000004,-4.8458041419507936e-05,-0.00018785450083669275,-7.837838347768411e-05,0.0,0.0,0.0,0.0,-0.0033434422221034765,0.0009471888770349324,0.0018364082789048553,0.9982451796531677,0.0,0.0,0.0,0.1498887538909912,6.118899822235107,0.646867036819458,-27.13016128540039,0
583.2529999999988,-7.068965351209044e-05,-0.00024773183395154774,-7.814549462636933e-05,0.0,0.0,0.0,0.0,-0.0016302184667438269,-0.0033344896510243416,-0.001494731055572629,0.998823881149292,0.0,0.0,0.0,0.15005096793174744,6.117624282836914,0.651312530040741,-27.15952491760254,0
593.1399999999994,-5.0047048716805875e-05,-0.00017837167251855135,-9.392765059601516e-05,0.0,0.0,0.0,0.0,-0.001027330756187439,-0.0011973680229857564,0.004735948517918587,1.0013551712036133,0.0,0.0,0.0,0.15002787113189697,6.116847991943359,0.6554216146469116,-27.15534210205078,0
603.0339999999997,-6.975119322305545e-05,-0.0002365878754062578,-9.544896602164954e-05,0.0,0.0,0.0,0.0,0.00033394069760106504,0.00034603331005200744,0.0006502358010038733,0.998990535736084,0.0,0.0,0.0,0.14975087344646454,6.112554550170898,0.66875821352005,-27.105207443237305,0
612.9159999999993,-5.642687756335363e-05,-0.00021057440608274192,-0.00011498464300530031,0.0,0.0,0.0,0.0,-0.00044670733041130006,0.0034187636338174343,0.002587626688182354,0.9988729953765869,0.0,0.0,0.0,0.14925885200500488,6.106091499328613,0.6565883755683899,-27.016151428222656,0
622.8069999999989,-7.219698454719037e-05,-0.00026775134028866887,-0.00011850399459945038,0.0,0.0,0.0,0.0,-0.0001474307500757277,0.0010856699664145708,-0.0005867232102900743,1.0011897087097168,0.0,0.0,0.0,0.14992888271808624,6.101311683654785,0.6559340357780457,-27.137426376342773,0
632.6999999999989,-2.5662704501883127e-05,-0.00022927600366529077,-0.00016375961422454566,0.0,0.0,0.0,0.0,0.0013480569468811154,0.002867812756448984,0.0006526239449158311,1.0007953643798828,0.0,0.0,0.0,0.1487686038017273,6.0933685302734375,0.6488083004951477,-26.927413940429688,0
642.5739999999987,-3.288494553999044e-05,-0.00028083426877856255,-0.00016938518092501909,0.0,0.0,0.0,0.0,-0.0013087631668895483,0.003292195498943329,0.0016907354583963752,0.998262345790863,0.0,0.0,0.0,0.150087371468544,6.0893754959106445,0.650890052318573,-27.166112899780273,0
652.4549999999999,-3.532311166054569e-05,-0.00024410510377492756,-0.0001549476000946015,0.0,0.0,0.0,0.0,0.00021043879678472877,0.0005560839199461043,0.0018534403061494231,0.9979516267776489,0.0,0.0,0.0,0.15854063630104065,6.1162261962890625,0.6618587374687195,-28.696170806884766,0
662.3459999999995,-4.382605402497575e-05,-0.00029387196991592646,-0.0001615852233953774,0.0,0.0,0.0,0.0,0.004948205780237913,0.004437323193997145,0.0042078616097569466,0.9988527894020081,0.0,0.0,0.0,0.15867844223976135,6.105626106262207,0.6562311053276062,-28.721113204956055,0
672.2279999999992,-8.004660048754886e-05,-0.00028998299967497587,-0.00012766782310791314,0.0,0.0,0.0,0.0,-0.0028490605764091015,-0.004275273531675339,-0.0005025677382946014,1.0006630420684814,0.0,0.0,0.0,0.15861976146697998,6.094472885131836,0.6565137505531311,-28.710491180419922,0
682.1170000000002,-9.172275895252824e-05,-0.00034070340916514397,-0.00013176939683035016,0.0,0.0,0.0,0.0,-0.000512859201990068,-0.0001422613422619179,-0.0019443188793957233,1.0007154941558838,0.0,0.0,0.0,0.1594173163175583,6.099222183227539,0.660317599773407,-28.8548526763916,0
692.0010000000002,-0.00010358109284425154,-0.0003160831693094224,-0.00011050991452066228,0.0,0.0,0.0,0.0,-0.0004978256183676422,0.00021856561943423003,0.0012084625195711851,1.0010638236999512,0.0,0.0,0.0,0.15865938365459442,6.090500831604004,0.6631592512130737,-28.717662811279297,0
701.8809999999994,-0.00011507704039104283,-0.0003644758544396609,-0.00011083238496212289,0.0,0.0,0.0,0.0,-0.0009156643063761294,-0.0025473241694271564,0.0032084386330097914,1.0014818906784058,0.0,0.0,0.0,0.15893690288066864,6.086349010467529,0.6531321406364441,-28.767894744873047,0
711.768,-8.726246596779674e-05,-0.000306165951769799,-0.00010025729716289788,0.0,0.0,0.0,0.0,-0.0009321154211647809,0.0024821360129863024,0.0005247779190540314,0.9987665414810181,0.0,0.0,0.0,0.16958843171596527,6.123701572418213,0.6701192259788513,-30.695844650268555,0
721.6539999999986,-9.697968926047906e-05,-0.0003517481673043221,-0.0001000753982225433,0.0,0.0,0.0,0.0,-0.0017708808882161975,0.0014630554942414165,0.0014044796116650105,0.9985986948013306,0.0,0.0,0.0,0.17043448984622955,6.120744228363037,0.6626594066619873,-30.848981857299805,0
731.5389999999989,-1.0526515325182118e-05,-0.0002492023049853742,-0.00011514011566760018,0.0,0.0,0.0,0.0,-0.000556651852093637,-0.0013148842845112085,0.0020602932199835777,0.9982511401176453,0.0,0.0,0.0,0.17776422202587128,6.179763317108154,0.6985839009284973,-32.17567825317383,0
741.4259999999995,-1.736171543598175e-05,-0.00028790911892428994,-0.00012041818263242021,0.0,0.0,0.0,0.0,0.000128888466861099,-0.0015326245920732617,0.0054143075831234455,0.9984179735183716,0.0,0.0,0.0,0.1778082251548767,6.17686653137207,0.7145588397979736,-32.18363952636719,0
751.3189999999995,3.2162017305381596e-05,-0.00025722302962094545,-0.0001404322247253731,0.0,0.0,0.0,0.0,0.00134010158944875,0.001198556856252253,-0.0019455004949122667,0.9986221790313721,0.0,0.0,0.0,0.18488308787345886,6.200046539306641,0.7355194091796875,-33.46420669555664,0
761.1980000000003,2.7766542189056054e-05,-0.0002935933298431337,-0.0001497993216617033,0.0,0.0,0.0,0.0,0.0020529539324343204,-0.003678534645587206,-4.82104551338125e-05,0.9988141655921936,0.0,0.0,0.0,0.18315812945365906,6.196810245513916,0.7303472757339478,-33.1519889831543,0
771.0859999999993,2.348847010580357e-05,-0.00033310550497844815,-0.00015986723883543164,0.0,0.0,0.0,0.0,0.0021538014989346266,0.0010163765400648117,-0.0021263579837977886,1.0005817413330078,0.0,0.0,0.0,0.18414747714996338,6.187611103057861,0.7381740212440491,-33.331058502197266,0
780.9689999999991,1.8392405763734132e-05,-0.00037693159538321197,-0.00017005250265356153,0.0,0.0,0.0,0.0,-0.0027750530280172825,-0.006034088786691427,0.0007828394300304353,0.9998299479484558,0.0,0.0,0.0,0.18322379887104034,6.181386947631836,0.7344339489936829,-33.16387176513672,0
790.8539999999994,1.2265490113350097e-05,-0.0004245720338076353,-0.00017981462588068098,0.0,0.0,0.0,0.0,-0.0004725514736492187,0.005593464244157076,-0.000554877333343029,0.9999099969863892,0.0,0.0,0.0,0.18345364928245544,6.180198669433594,0.731636643409729,-33.205474853515625,0
800.7389999999996,4.831566002394538e-06,-0.0004741860902868211,-0.0001896593748824671,0.0,0.0,0.0,0.0,-0.0002877552469726652,0.0032896792981773615,0.001021481934003532,0.999001681804657,0.0,0.0,0.0,0.18369220197200775,6.173530578613281,0.7342053055763245,-33.248653411865234,0
810.6260000000002,-3.6972951420466416e-06,-0.000524258881341666,-0.0002004513080464676,0.0,0.0,0.0,0.0,-8.985368913272396e-05,-0.0008878384833224118,5.4278985771816224e-05,0.9993351697921753,0.0,0.0,0.0,0.1820649653673172,6.172756671905518,0.7363210916519165,-32.95411682128906,0
820.5139999999992,-7.10113235982135e-05,-0.0002984062593895942,-5.1726845413213596e-05,0.0,0.0,0.0,0.0,0.0016304535092785954,0.00116925744805485,0.0003415991959627718,1.0002278089523315,0.0,0.0,0.0,0.1650492399930954,6.2530741691589355,0.7274767756462097,-29.874238967895508,0
830.3979999999992,-8.232631807914004e-05,-0.0003327848098706454,-5.344990859157406e-05,0.0,0.0,0.0,0.0,-0.0011123393196612597,-0.0025390395894646645,0.0015006494941189885,0.9979039430618286,0.0,0.0,0.0,0.1660117357969284,6.247381210327148,0.7208036780357361,-30.0484561920166,0
840.2960000000003,-7.707679469604045e-05,-0.00027891015633940697,1.1648347935988568e-05,0.0,0.0,0.0,0.0,-0.0014861199306324124,0.004614189267158508,-0.0013221288099884987,0.9981662631034851,0.0,0.0,0.0,0.1655319631099701,6.247803688049316,0.7173970937728882,-29.96161651611328,0
850.1769999999997,-9.00166342034936e-05,-0.0003129299730062485,1.0988738722517155e-05,0.0,0.0,0.0,0.0,-0.003997978754341602,0.0035818142350763083,0.0016607441939413548,0.9998366236686707,0.0,0.0,0.0,0.1648879051208496,6.246636867523193,0.7004767656326294,-29.84503746032715,0
860.0630000000001,-9.928960935212672e-05,-0.0002819026412907988,5.002942998544313e-05,0.0,0.0,0.0,0.0,0.0037493668496608734,-0.0017256258288398385,0.0005833018803969026,0.9998955130577087,0.0,0.0,0.0,0.15025870501995087,6.265377521514893,0.6965234279632568,-27.197124481201172,0
869.9470000000001,-0.00011485109280329198,-0.00031745442538522184,5.15822357556317e-05,0.0,0.0,0.0,0.0,0.0006023984751664102,-0.003533848561346531,0.0008004495757631958,0.9989529848098755,0.0,0.0,0.0,0.1509070098400116,6.255880355834961,0.713919997215271,-27.31446647644043,0
879.8369999999995,-0.0001406035153195262,-0.0003190545830875635,7.09771120455116e-05,0.0,0.0,0.0,0.0,0.0002528169716242701,-0.0012804182479158044,-0.0006101182661950588,0.9987550377845764,0.0,0.0,0.0,0.15115970373153687,6.253603935241699,0.7117300033569336,-27.36020851135254,0
889.7169999999987,-0.00015744930715300143,-0.0003579795593395829,7.2088761953637e-05,0.0,0.0,0.0,0.0,4.08331434300635e-05,0.0014260387979447842,0.001348128542304039,0.9966011047363281,0.0,0.0,0.0,0.1508171260356903,6.248650074005127,0.712277889251709,-27.298200607299805,0
899.6039999999994,-0.00011407415877329186,-0.00033439931576140225,0.00010214486246695742,0.0,0.0,0.0,0.0,0.00040687795262783766,0.0035336485598236322,-0.004734903108328581,0.9982663989067078,0.0,0.0,0.0,0.15085464715957642,6.232793807983398,0.7083583474159241,-27.30499267578125,0
909.4879999999994,-0.00013013664283789694,-0.00037162768421694636,0.00010210079926764593,0.0,0.0,0.0,0.0,-0.00032018820638768375,-0.004610447678714991,-0.0012337270891293883,1.001775860786438,0.0,0.0,0.0,0.14956174790859222,6.2291412353515625,0.6955536603927612,-27.070974349975586,0
919.387999999999,-7.678072870476171e-05,-0.0003311345062684268,0.0001486284309066832,0.0,0.0,0.0,0.0,-0.002594493329524994,-0.005685687530785799,0.0021649894770234823,1.000510334968567,0.0,0.0,0.0,0.1362401247024536,6.2510294914245605,0.707013726234436,-24.659732818603516,0
929.2549999999992,-9.240267536370084e-05,-0.0003663236857391894,0.00015480874571949244,0.0,0.0,0.0,0.0,-0.0017574954545125365,0.0010981312952935696,-0.0016581194940954447,1.0013571977615356,0.0,0.0,0.0,0.13573691248893738,6.24936580657959,0.717497706413269,-24.568649291992188,0
939.1589999999997,-0.00011310377158224583,-0.00034673867048695683,0.00019903326756320894,0.0,0.0,0.0,0.0,-6.108708475949243e-05,-0.0024928716011345387,0.0011602079030126333,1.0023757219314575,0.0,0.0,0.0,0.12017545104026794,6.271167755126953,0.7211143374443054,-21.751995086669922,0
949.027,-0.00013126697740517557,-0.0003802463470492512,0.00021146328072063625,0.0,0.0,0.0,0.0,0.00019340326252859086,-0.0015870871720835567,0.001971108838915825,1.0010204315185547,0.0,0.0,0.0,0.12132413685321808,6.270308017730713,0.7267671823501587,-21.959911346435547,0
958.9200000000001,-0.0002179838193114847,-0.0003607545222621411,0.0002530888596083969,0.0,0.0,0.0,0.0,-0.0010555563494563103,0.0027146870270371437,-0.004397174809128046,1.0002363920211792,0.0,0.0,0.0,0.12126673012971878,6.257575035095215,0.7243179082870483,-21.94951820373535,0
968.7969999999987,-0.00023928796872496605,-0.0003943962510675192,0.0002703240897972137,0.0,0.0,0.0,0.0,0.0021533563267439604,-0.0014981005806475878,-0.0023195722606033087,1.0006020069122314,0.0,0.0,0.0,0.12062492221593857,6.2523627281188965,0.7167646288871765,-21.833349227905273,0
978.7049999999999,-0.00020973404753021896,-0.00035812525311484933,0.00033533276291564107,0.0,0.0,0.0,0.0,1.2126372894272208e-05,0.002302268985658884,0.0006907143979333341,1.000717282295227,0.0,0.0,0.0,0.10970500856637955,6.274772644042969,0.7167182564735413,-19.85682487487793,0
988.5779999999995,-0.00023144712031353265,-0.0003896657726727426,0.0003581013879738748,0.0,0.0,0.0,0.0,0.001511136768385768,0.006082522217184305,0.0008420298690907657,1.000120759010315,0.0,0.0,0.0,0.11006934195756912,6.270293712615967,0.7174979448318481,-19.922767639160156,0
998.4619999999995,-0.00017257766739930958,-0.0003711650788318366,0.0004070916911587119,0.0,0.0,0.0,0.0,-0.0012022166047245264,-0.002442112425342202,0.0003627851838245988,0.99883633852005,0.0,0.0,0.0,0.11091621965169907,6.263396263122559,0.7045373320579529,-20.0760555267334,0
1008.3410000000003,-4.772129614138976e-05,-0.00012120568135287613,-0.0002834460756275803,0.0,0.0,0.0,0.0,0.0024840952828526497,-0.002861146116629243,-0.0010339082218706608,0.9996592402458191,0.0,0.0,0.0,0.11234451830387115,6.306520462036133,0.7169494032859802,-20.33458137512207,0
1018.2369999999992,-4.5355671318247914e-05,-0.0001104779657907784,-0.0002581316221039742,0.0,0.0,0.0,0.0,-0.000610135670285672,0.002806408330798149,0.0028233949560672045,1.001025676727295,0.0,0.0,0.0,0.10231560468673706,6.310372352600098,0.728156566619873,-18.51932716369629,0
1028.1139999999996,-6.91832319716923e-05,-0.00010395624121883884,-0.00022647148580290377,0.0,0.0,0.0,0.0,-0.001016423455439508,-0.0035679086577147245,0.0004879331972915679,1.0015180110931396,0.0,0.0,0.0,0.11222236603498459,6.307998180389404,0.7241435050964355,-20.312471389770508,0
1038.0059999999994,-3.85696766898036e-05,-0.00011193328828085214,-0.0001908786507556215,0.0,0.0,0.0,0.0,-0.00022126417024992406,-0.0008255294524133205,-0.002536524785682559,1.001542568206787,0.0,0.0,0.0,0.10566344857215881,6.307013034820557,0.7290397882461548,-19.125293731689453,0
1047.8850000000002,-9.73474743659608e-05,-0.00015579929458908737,-0.00012176514428574592,0.0,0.0,0.0,0.0,-0.001669836463406682,-0.0017017018981277943,0.00012272900494281203,0.9998331069946289,0.0,0.0,0.0,0.10500194877386093,6.299849033355713,0.7277977466583252,-19.00556182861328,0
1057.7819999999992,-3.624022065196186e-05,-0.00016600334492977709,-6.956129800528288e-05,0.0,0.0,0.0,0.0,-0.003818574594333768,-0.0008528338512405753,0.0007571776513941586,1.0008368492126465,0.0,0.0,0.0,0.10512063652276993,6.292862415313721,0.7275687456130981,-19.02704429626465,0
1067.6539999999986,-2.0685369236161932e-05,-0.00014075708168093115,-8.055305079324171e-05,0.0,0.0,0.0,0.0,0.000866820162627846,0.001112532801926136,-0.0029816844034940004,1.0024759769439697,0.0,0.0,0.0,0.10494208335876465,6.295328140258789,0.7269656658172607,-18.99472427368164,0
1077.5519999999997,-1.1058452400902752e-05,-0.00016152964963112026,-5.107372999191284e-05,0.0,0.0,0.0,0.0,0.00019603532564360648,0.002033210126683116,-0.0013448556419461966,1.0000293254852295,0.0,0.0,0.0,0.10385454446077347,6.293542385101318,0.7234123349189758,-18.79787826538086,0
1087.4269999999997,9.2582922661677e-06,-0.00012551916006486863,-5.893751949770376e-05,0.0,0.0,0.0,0.0,-6.55037074466236e-05,0.0031143862288445234,0.0013957064365968108,1.000590443611145,0.0,0.0,0.0,0.1042037382721901,6.282690048217773,0.7193418145179749,-18.861083984375,0
1097.3189999999995,5.3017640311736614e-05,-0.00015022078878246248,-2.1182011550990865e-05,0.0,0.0,0.0,0.0,-0.00012713058094959706,0.0010881549678742886,-0.0021733464673161507,1.0006990432739258,0.0,0.0,0.0,0.09516479074954987,6.277620315551758,0.7125352621078491,-17.225017547607422,0
1107.1989999999987,5.732142017222941e-05,-0.0001366596989100799,-1.4843131793895736e-05,0.0,0.0,0.0,0.0,0.0016182116232812405,0.001945944270119071,0.0008008625591173768,0.9978448152542114,0.0,0.0,0.0,0.09456538408994675,6.269412517547607,0.7087165117263794,-17.11652183532715,0
1117.1029999999992,1.8791666661854833e-05,-0.0001906470861285925,-1.1673873814288527e-05,0.0,0.0,0.0,0.0,0.0005302816280163825,-0.004718775860965252,0.003445795038715005,0.9985558986663818,0.0,0.0,0.0,0.08379032462835312,6.259340286254883,0.6931183934211731,-15.166215896606445,0
1126.973,3.537461452651769e-05,-0.00016460116603411734,-2.318085535080172e-05,0.0,0.0,0.0,0.0,-0.0009562675259076059,0.0039841108955442905,-0.001517377677373588,0.9994378089904785,0.0,0.0,0.0,0.08391067385673523,6.251095294952393,0.6890420317649841,-15.187997817993164,0
1136.8729999999996,-1.920772047014907e-05,-0.0001873961737146601,-1.3016791854170151e-05,0.0,0.0,0.0,0.0,0.0015763458795845509,0.004792045336216688,-0.0003600000054575503,1.0003548860549927,0.0,0.0,0.0,0.08385258167982101,6.2420477867126465,0.6863593459129333,-15.177484512329102,0
1146.7520000000004,-2.608723661978729e-06,-0.00016091081488411874,-2.942936771432869e-05,0.0,0.0,0.0,0.0,-0.0015637814067304134,-0.0035164733417332172,0.0006564139621332288,0.99901282787323,0.0,0.0,0.0,0.08454307913780212,6.232617378234863,0.6635779142379761,-15.302465438842773,0
1156.634,-4.344109765952453e-05,-0.00015600300685036927,-7.192591510829516e-06,0.0,0.0,0.0,0.0,-0.0004980196827091277,-0.0010271270293742418,0.0008142216829583049,0.9988307952880859,0.0,0.0,0.0,0.074278824031353,6.234806060791016,0.6757463216781616,-13.444615364074707,0
1166.5209999999988,-6.61028825561516e-05,-0.0001492825394961983,1.4650287994300015e-05,0.0,0.0,0.0,0.0,0.0031257120426744223,-0.0008607359486632049,0.001602626871317625,0.9986881017684937,0.0,0.0,0.0,0.07450700551271439,6.229825019836426,0.6737838983535767,-13.485917091369629,0
1176.42,-7.179567182902247e-05,-0.0001700080611044541,4.305415859562345e-05,0.0,0.0,0.0,0.0,-0.0027850100304931402,-0.0034105090890079737,-0.0019210019381716847,0.9978799819946289,0.0,0.0,0.0,0.07379262894392014,6.219526290893555,0.6800854802131653,-13.356613159179688,0
1186.2870000000003,-9.024175960803404e-05,-0.0001964327530004084,4.897931285086088e-05,0.0,0.0,0.0,0.0,-0.0007692610961385071,0.003303857985883951,0.0018765571294352412,0.9993653893470764,0.0,0.0,0.0,0.08658728748559952,6.217558860778809,0.6822245121002197,-15.672471046447754,0
1196.182999999999,-0.0001826864026952535,-0.00016808524378575385,6.918043800396845e-05,0.0,0.0,0.0,0.0,-0.0010649589821696281,-0.0014387794071808457,-0.0011965594021603465,0.996768057346344,0.0,0.0,0.0,0.08683855086565018,6.213126182556152,0.6851850748062134,-15.717950820922852,0
1206.0559999999987,-0.00015960392192937434,-0.00012453699309844524,3.510274473228492e-05,0.0,0.0,0.0,0.0,-0.001190625480376184,-0.00046318245586007833,-0.0004860171757172793,0.9975601434707642,0.0,0.0,0.0,0.08704286068677902,6.209047794342041,0.6929280757904053,-15.75493049621582,0
1215.9489999999987,-0.00019253665232099593,-0.00013715426030103117,5.526653694687411e-05,0.0,0.0,0.0,0.0,-0.001464924542233348,0.000702661054674536,-0.001802713260985911,1.0011842250823975,0.0,0.0,0.0,0.08674813061952591,6.200243949890137,0.6903999447822571,-15.701583862304688,0
1225.839,-0.00013930143904872239,-0.00010728869528975338,-2.5890392862493172e-05,0.0,0.0,0.0,0.0,0.0020267756190150976,-0.002474553417414427,0.00336321908980608,0.9991361498832703,0.0,0.0,0.0,0.08625781536102295,6.197932720184326,0.6936678886413574,-15.612835884094238,0
1235.7209999999995,-0.0001856707240222022,-0.00012833102664444596,-1.625136428629048e-05,0.0,0.0,0.0,0.0,-0.0014117389218881726,-0.0018067093333229423,0.0023950336035341024,0.9986130595207214,0.0,0.0,0.0,0.08753877133131027,6.195737838745117,0.7014869451522827,-15.844691276550293,0
1245.598,-0.00014665904745925218,-0.00010374734847573563,-8.684457134222612e-05,0.0,0.0,0.0,0.0,0.0004093231982551515,0.005047906190156937,-0.003131514647975564,1.001110315322876,0.0,0.0,0.0,0.08848920464515686,6.189641952514648,0.7027686834335327,-16.016721725463867,0
1255.5020000000004,-9.240713552571833e-05,-0.00014395202742889524,-5.9479891206137836e-05,0.0,0.0,0.0,0.0,-0.0003271262685302645,0.0028425368946045637,0.0008954274817369878,1.0015052556991577,0.0,0.0,0.0,0.08832129091024399,6.180668354034424,0.6916689872741699,-15.986329078674316,0
1265.3819999999996,-4.504990283749066e-05,-0.000125767634017393,-0.00014065847790334374,0.0,0.0,0.0,0.0,0.0009301138925366104,0.0023440460208803415,0.0001749867806211114,0.9997279644012451,0.0,0.0,0.0,0.08894941210746765,6.1714677810668945,0.6786977648735046,-16.100021362304688,0
1275.2699999999986,-1.2439873898983933e-05,-0.00012394289660733193,-0.00010427393863210455,0.0,0.0,0.0,0.0,-0.0013806294882670045,-0.0005992665537633002,0.0017089815810322762,1.0016257762908936,0.0,0.0,0.0,0.07906629145145416,6.164816856384277,0.6867580413818359,-14.311155319213867,0
1285.1440000000002,4.172525223111734e-06,-0.00013675114314537495,-0.0001544692786410451,0.0,0.0,0.0,0.0,0.002224429277703166,-0.0012219850905239582,-0.00031041214242577553,0.9987093806266785,0.0,0.0,0.0,0.08884745091199875,6.167679786682129,0.6945810914039612,-16.081565856933594,0
1295.0429999999997,-5.5001481086947024e-05,-0.00013533903984352946,-0.00014610351354349405,0.0,0.0,0.0,0.0,0.0020369160920381546,0.001450692187063396,0.001432431279681623,0.9989747405052185,0.0,0.0,0.0,0.08844096958637238,6.166154861450195,0.6878611445426941,-16.007991790771484,0
1304.9159999999993,-2.1700907382182777e-05,-9.778825915418565e-05,-0.00020595177193172276,0.0,0.0,0.0,0.0,0.002786140888929367,0.0005872233305126429,-0.001961887115612626,1.0004962682724,0.0,0.0,0.0,0.09606851637363434,6.165792465209961,0.6874786019325256,-17.388591766357422,0
1314.816999999999,-1.1146956239826977e-05,-9.641662472859025e-05,-0.00018421832646708935,0.0,0.0,0.0,0.0,-0.0009343980345875025,0.0008469856111332774,0.0008987669716589153,0.999224066734314,0.0,0.0,0.0,0.0866241604089737,6.1674675941467285,0.6823132038116455,-15.679144859313965,0
1324.687,-4.2078874685103074e-05,-8.203434845199808e-05,-0.00017251742247026414,0.0,0.0,0.0,0.0,-0.00242821522988379,0.0033213237766176462,-0.0020481166429817677,1.001320481300354,0.0,0.0,0.0,0.09481354057788849,6.171959400177002,0.6927155256271362,-17.161439895629883,0
1334.5810000000001,-5.733104990213178e-05,-9.610189590603113e-05,-0.0001567615254316479,0.0,0.0,0.0,0.0,-0.0013382111210376024,0.0023203520104289055,-0.0017473376356065273,0.9986435174942017,0.0,0.0,0.0,0.09392250329256058,6.174369812011719,0.6836310625076294,-17.000160217285156,0
1344.4629999999997,-9.086988575290889e-05,-0.00012322254769969732,-0.00015277024067472667,0.0,0.0,0.0,0.0,-0.0016676242230460048,0.0018957607680931687,0.0023134455550462008,0.9998377561569214,0.0,0.0,0.0,0.10099397599697113,6.17447566986084,0.6749212741851807,-18.28011131286621,0
1354.3509999999987,-7.816529978299513e-05,-0.00013876889715902507,-0.00012332969345152378,0.0,0.0,0.0,0.0,0.002092213835567236,0.0009046930936165154,-0.0062124538235366344,1.0009057521820068,0.0,0.0,0.0,0.10065671801567078,6.167178153991699,0.6665279865264893,-18.21906852722168,0
1364.235999999999,-0.00012202272046124563,-0.00014806355466134846,-0.00010089040733873844,0.0,0.0,0.0,0.0,-0.0022313203662633896,0.003405757248401642,-0.0017392841400578618,1.0005780458450317,0.0,0.0,0.0,0.0996091216802597,6.152891635894775,0.6524592638015747,-18.029447555541992,0
1374.1270000000004,-0.00016184367996174842,-0.00014907321019563824,-7.694336090935394e-05,0.0,0.0,0.0,0.0,-0.0019371072994545102,-0.004267395939677954,-0.0009259232901968062,0.9991337656974792,0.0,0.0,0.0,0.10013406723737717,6.150908946990967,0.6512362360954285,-18.124465942382812,0
1384.0010000000002,-0.0001393334096064791,-0.00012620618508663028,-0.00012050791701767594,0.0,0.0,0.0,0.0,-0.001057495828717947,-0.0012258226051926613,0.002680604811757803,0.9992997050285339,0.0,0.0,0.0,0.10080653429031372,6.155147075653076,0.6579557061195374,-18.246183395385742,0
1393.8999999999996,-7.38144590286538e-05,-0.00016891345148906112,-8.23006485006772e-05,0.0,0.0,0.0,0.0,-0.0005571790970861912,0.0021837709937244654,0.0011888344306498766,0.9997169375419617,0.0,0.0,0.0,0.09242217987775803,6.153480052947998,0.6768319606781006,-16.72859764099121,0
1403.777,-7.545745756942779e-05,-0.0001703960879240185,-9.915372356772423e-05,0.0,0.0,0.0,0.0,0.0016815131530165672,-0.0005845362902618945,0.0005070004262961447,0.998598575592041,0.0,0.0,0.0,0.10292293131351471,6.157904148101807,0.6729685664176941,-18.629257202148438,0
1413.6710000000003,-0.00017620807921048254,-0.00015417284157592803,-8.808807615423575e-05,0.0,0.0,0.0,0.0,-0.0014359229244291782,0.005944081582129002,-0.0036967440973967314,0.9989287853240967,0.0,0.0,0.0,0.10277584940195084,6.148639678955078,0.6773738265037537,-18.602632522583008,0
1423.5429999999997,-0.00015834443911444396,-0.00013318724813871086,-0.00012553785927593708,0.0,0.0,0.0,0.0,0.0009716718923300505,-0.001338885398581624,-0.0013302286388352513,0.9975597858428955,0.0,0.0,0.0,0.1115613654255867,6.160092830657959,0.6837214827537537,-20.19283103942871,0
1433.438,-0.00018095785344485193,-0.00014041484973859042,-0.00010613257472869009,0.0,0.0,0.0,0.0,-0.0033139463048428297,-0.0003610111598391086,-0.0006473055691458285,0.9987791180610657,0.0,0.0,0.0,0.11023392528295517,6.151059627532959,0.6804867386817932,-19.952560424804688,0
1443.316999999999,-0.0001581699907546863,-0.00012998994498047978,-0.00016093997692223638,0.0,0.0,0.0,0.0,-0.0005506080924533308,-0.0029594916850328445,0.00025957575417123735,0.9972624778747559,0.0,0.0,0.0,0.11040402203798294,6.1517157554626465,0.6833686828613281,-19.983346939086914,0
1453.2119999999995,-8.731679554330185e-05,-0.00015885219909250736,-0.00012833441724069417,0.0,0.0,0.0,0.0,-0.003996178507804871,0.003434289013966918,-0.0014106641756370664,1.000882625579834,0.0,0.0,0.0,0.11067240685224533,6.1489667892456055,0.6861112117767334,-20.031925201416016,0
1463.0879999999997,-0.00011959404218941927,-0.00016587373102083802,-0.00011709472892107442,0.0,0.0,0.0,0.0,-0.001507180044427514,0.004954608157277107,-0.0018516586860641837,1.001441240310669,0.0,0.0,0.0,0.11021877825260162,6.14747953414917,0.6773128509521484,-19.949817657470703,0
1472.9799999999996,1.1910760804312304e-05,-0.00020626248442567885,-6.614968151552603e-05,0.0,0.0,0.0,0.0,0.00043733222992159426,0.001115769729949534,-0.002837610896676779,0.9999527335166931,0.0,0.0,0.0,0.09889350086450577,6.15069580078125,0.6911588907241821,-17.899919509887695,0
1482.8619999999992,1.1061260011047125e-05,-0.00020519591635093093,-7.457838364643976e-05,0.0,0.0,0.0,0.0,-0.001684279297478497,-0.0003199474303983152,-0.003921600058674812,0.9994506239891052,0.0,0.0,0.0,0.10809795558452606,6.152632713317871,0.6903636455535889,-19.56594467163086,0
1492.7569999999996,-6.611619028262794e-05,-0.00018377703963778913,-5.846330168424174e-05,0.0,0.0,0.0,0.0,-0.0019176159985363483,3.0142668038024567e-05,0.0005812913877889514,1.0004106760025024,0.0,0.0,0.0,0.10756377875804901,6.150602340698242,0.6889668703079224,-19.469257354736328,0
1502.6369999999988,-5.128992779646069e-05,-0.0001765902416082099,-9.198275802191347e-05,0.0,0.0,0.0,0.0,-0.0044571892358362675,-7.404346979456022e-05,-0.0008302596397697926,0.9981721639633179,0.0,0.0,0.0,0.10787729918956757,6.151458263397217,0.6844722628593445,-19.5260066986084,0
1512.5280000000002,-8.236453868448734e-05,-0.00018576145521365106,-7.787360664224252e-05,0.0,0.0,0.0,0.0,-0.0002634030533954501,8.67076960275881e-06,-0.0007685718592256308,0.9995854496955872,0.0,0.0,0.0,0.09687379747629166,6.1566619873046875,0.6883714199066162,-17.534351348876953,0
1522.402,-6.356681842589751e-05,-0.00017434521578252316,-0.00011928111052839085,0.0,0.0,0.0,0.0,-0.000490921491291374,-0.000563650915864855,0.002774359192699194,1.0009397268295288,0.0,0.0,0.0,0.09734518826007843,6.145051002502441,0.6875331997871399,-17.619670867919922,0
1532.2979999999989,3.7973077269271016e-05,-0.0002250837569590658,-7.930849824333563e-05,0.0,0.0,0.0,0.0,-0.0005798042402602732,0.0031316792592406273,0.0001212974384543486,0.9985284209251404,0.0,0.0,0.0,0.0979107990860939,6.148097515106201,0.6920109987258911,-17.7220516204834,0
1542.1769999999997,8.140996214933693e-05,-0.00015905057080090046,-0.00012736700591631234,0.0,0.0,0.0,0.0,0.0021449076011776924,0.005172440782189369,0.0008978278492577374,1.0004924535751343,0.0,0.0,0.0,0.10715349018573761,6.164874076843262,0.6981509327888489,-19.394994735717773,0
1552.0720000000001,4.5979344577062875e-05,-0.00018159172032028437,-0.0001219094920088537,0.0,0.0,0.0,0.0,0.0016911807470023632,-0.0012061453890055418,0.0005543067818507552,0.9990177750587463,0.0,0.0,0.0,0.09828104823827744,6.165524959564209,0.6918883323669434,-17.789064407348633,0
1561.9439999999995,6.824602314736694e-05,-0.00013993903121445328,-0.00015615663141943514,0.0,0.0,0.0,0.0,-0.0028815530240535736,0.00395929766818881,0.0009713853942230344,0.9982857704162598,0.0,0.0,0.0,0.10644090920686722,6.176380157470703,0.6874117851257324,-19.266016006469727,0
1571.8500000000004,-2.3167354811448604e-05,-0.00014515267685055733,-0.00016195105854421854,0.0,0.0,0.0,0.0,-0.0005407640128396451,0.0033363362308591604,-0.0029061296954751015,0.9982403516769409,0.0,0.0,0.0,0.09837974607944489,6.181099891662598,0.677805483341217,-17.806928634643555,0
1581.7240000000002,-1.1489519238239154e-05,-0.000150895124534145,-0.00020416182815097272,0.0,0.0,0.0,0.0,0.0038284058682620525,-0.0008213809924200177,0.001854261732660234,0.9987439513206482,0.0,0.0,0.0,0.09794855862855911,6.176896572113037,0.6640626192092896,-17.728885650634766,0
1591.6229999999996,-4.333407923695631e-05,-0.0001582629483891651,-0.0001988243602681905,0.0,0.0,0.0,0.0,0.0008466387516818941,0.00301357451826334,-0.0024594408459961414,1.0000417232513428,0.0,0.0,0.0,0.08830268681049347,6.1728620529174805,0.6516559720039368,-15.98296070098877,0
1601.4920000000002,-7.040956552373245e-05,-0.00016947694530244917,-0.0001979189837584272,0.0,0.0,0.0,0.0,-0.0015595877775922418,-0.003981863614171743,-0.0004004832881037146,0.9982834458351135,0.0,0.0,0.0,0.0968327596783638,6.171789169311523,0.6447003483772278,-17.52692413330078,0
1611.3819999999996,-3.3793319744290784e-05,-0.00014869612641632557,-0.0001631032646400854,0.0,0.0,0.0,0.0,0.002602054737508297,0.007633544038981199,0.0016207343433052301,0.9979791641235352,0.0,0.0,0.0,0.09022927284240723,6.178130149841309,0.6656726598739624,-16.33167839050293,0
1621.2690000000002,-5.1592087402241305e-05,-0.00015986264043021947,-0.00017554062651470304,0.0,0.0,0.0,0.0,0.0017291258554905653,0.004384509287774563,-0.0013853495474904776,0.9987504482269287,0.0,0.0,0.0,0.09060689806938171,6.168745040893555,0.6500756144523621,-16.4000301361084,0
1631.1509999999998,-7.300464494619519e-05,-0.0001746646303217858,-0.0001677581312833354,0.0,0.0,0.0,0.0,-0.0005032084882259369,-0.002240992384031415,0.0010789474472403526,0.998998761177063,0.0,0.0,0.0,0.08247029781341553,6.161839008331299,0.6370572447776794,-14.927287101745605,0
1641.0329999999994,-0.00011680810712277889,-0.0001745485933497548,-0.00015000885468907654,0.0,0.0,0.0,0.0,0.00017555616796016693,-0.0046949670650064945,0.002933827228844166,0.998965859413147,0.0,0.0,0.0,0.08226940780878067,6.153712272644043,0.6569174528121948,-14.890926361083984,0
1650.9279999999999,-9.139061876339838e-05,-0.0001864051300799474,-0.00012607222015503794,0.0,0.0,0.0,0.0,-0.003981045912951231,-0.006094173062592745,3.0604507628595456e-05,0.9963386058807373,0.0,0.0,0.0,0.07496349513530731,6.159540176391602,0.6614987254142761,-13.56854248046875,0
1660.8009999999995,-0.00010132249008165672,-0.00017865294648800045,-0.00014725980872754008,0.0,0.0,0.0,0.0,0.0021780820097774267,0.004834314342588186,-0.0009703188552521169,0.9990260004997253,0.0,0.0,0.0,0.08580345660448074,6.168344020843506,0.6720610857009888,-15.530596733093262,0
1670.7039999999997,-0.0001438493636669591,-0.00020615254470612854,-0.0001450839772587642,0.0,0.0,0.0,0.0,-0.003026084741577506,-0.0006499504670500755,0.0025583531241863966,0.9984281063079834,0.0,0.0,0.0,0.08586487174034119,6.159706115722656,0.6670947670936584,-15.541712760925293,0
1680.5720000000001,-0.00013773509999737144,-0.0001817231095628813,-0.00018454180099070072,0.0,0.0,0.0,0.0,-0.0009491068194620311,-0.001633274368941784,-7.041067146928981e-05,1.0005309581756592,0.0,0.0,0.0,0.09619146585464478,6.172252178192139,0.6678102612495422,-17.410846710205078,0
1690.4669999999987,-0.00010171961184823886,-0.00018791241745930165,-0.00015332415932789445,0.0,0.0,0.0,0.0,0.0018759657396003604,0.00393562950193882,-0.0004429463588166982,1.000161051750183,0.0,0.0,0.0,0.09564457833766937,6.172833442687988,0.6692771315574646,-17.311859130859375,0
1700.3490000000002,-0.0001487766858190298,-0.00023045021225698292,-0.00014125282177701592,0.0,0.0,0.0,0.0,2.889749885071069e-05,-0.0019229338504374027,0.0006745816790498793,0.9969824552536011,0.0,0.0,0.0,0.09585550427436829,6.167984962463379,0.6688327193260193,-17.35003662109375,0
1710.2399999999998,-9.004598541650921e-05,-0.0002398598735453561,-9.845948807196692e-05,0.0,0.0,0.0,0.0,-0.0007370371604338288,0.0019253190839663148,0.0007564653060398996,1.0000149011611938,0.0,0.0,0.0,0.09554795920848846,6.159252166748047,0.6720094084739685,-17.294370651245117,0
1720.116,-0.00012171052367193624,-0.0002660805475898087,-9.597830648999661e-05,0.0,0.0,0.0,0.0,0.003926363307982683,0.006582434754818678,-0.0024160731118172407,1.000812292098999,0.0,0.0,0.0,0.09555631130933762,6.156128406524658,0.6580055952072144,-17.295881271362305,0
1730.0149999999994,-0.00011756239109672606,-0.0002288786054123193,-5.08183948113583e-05,0.0,0.0,0.0,0.0,-0.0014203361934050918,0.004735933616757393,-0.0002038655657088384,1.0016348361968994,0.0,0.0,0.0,0.09474994987249374,6.14271879196167,0.6480725407600403,-17.14992904663086,0
1739.8869999999988,-9.175195009447634e-05,-0.00019651172624435276,-9.619266347726807e-05,0.0,0.0,0.0,0.0,0.0021148233208805323,0.0043119280599057674,0.0022995693143457174,1.000883936882019,0.0,0.0,0.0,0.10396256297826767,6.1495537757873535,0.6475322842597961,-18.81743049621582,0
1749.780999999999,1.2540713214548305e-06,-0.00022742387955076993,-4.646973320632242e-05,0.0,0.0,0.0,0.0,-0.0027011644560843706,-0.0006308643496595323,-0.0025847177021205425,1.0006442070007324,0.0,0.0,0.0,0.093422532081604,6.144902229309082,0.6423612236976624,-16.909664154052734,0
1759.6579999999994,5.459885869640857e-05,-0.00015424926823470742,-0.00010331169323762879,0.0,0.0,0.0,0.0,-0.0022363513708114624,0.0004242604481987655,0.0017869946314021945,0.9996188282966614,0.0,0.0,0.0,0.09157629311084747,6.139310836791992,0.6373787522315979,-16.575490951538086,0
1769.5519999999997,2.6692474420997314e-05,-0.00021443171135615557,-0.000104619211924728,0.0,0.0,0.0,0.0,0.002096982207149267,0.0034574491437524557,0.00039609349914826453,0.9976676106452942,0.0,0.0,0.0,0.09159654378890991,6.136011600494385,0.6353883147239685,-16.57915687561035,0
1779.4359999999997,4.3540814658626914e-05,-0.00021554756676778197,-0.00014224853657651693,0.0,0.0,0.0,0.0,0.0023387386463582516,0.0037420743610709906,0.001408945769071579,1.000877022743225,0.0,0.0,0.0,0.10001976788043976,6.136142253875732,0.6389033794403076,-18.103776931762695,0
1789.3230000000003,1.771523784555029e-05,-0.0002778632624540478,-0.00014722677587997168,0.0,0.0,0.0,0.0,-0.002564837224781513,0.0014757747994735837,0.0015231980942189693,0.9991209506988525,0.0,0.0,0.0,0.09996391087770462,6.130311012268066,0.6264795064926147,-18.093666076660156,0
1799.205,3.928855585400015e-05,-0.00020486817811615765,-0.00017019151709973812,0.0,0.0,0.0,0.0,0.0018186545930802822,0.005211422219872475,0.00014657214342150837,0.9979517459869385,0.0,0.0,0.0,0.10670866072177887,6.16949987411499,0.639857292175293,-19.31447982788086,0
1809.0990000000002,1.7216401829500683e-05,-0.0002623489417601377,-0.00017792609287425876,0.0,0.0,0.0,0.0,-0.001964811934158206,0.000758868467528373,-0.005702578462660313,1.0001041889190674,0.0,0.0,0.0,0.10639166086912155,6.162672519683838,0.624566912651062,-19.257102966308594,0
1818.9830000000002,3.4458971640560776e-05,-0.0002356053446419537,-0.00020391536236274987,0.0,0.0,0.0,0.0,0.0011166848707944155,-0.00011226518108742312,0.0004976358613930643,0.999324381351471,0.0,0.0,0.0,0.10547126084566116,6.161162376403809,0.6278230547904968,-19.09050750732422,0
1828.8590000000004,-6.73928516334854e-05,-0.00016133459575939924,-0.00020153085642959923,0.0,0.0,0.0,0.0,-0.0018201556522399187,3.6124783946434036e-05,-0.000288364157313481,0.9997252821922302,0.0,0.0,0.0,0.10581345111131668,6.152407646179199,0.6307753920555115,-19.15244483947754,0
1838.7529999999988,-8.757397881709039e-05,-0.00015621403872501105,-0.0001973440230358392,0.0,0.0,0.0,0.0,-0.005000967066735029,-0.005426471121609211,0.0004274966777302325,0.9980969429016113,0.0,0.0,0.0,0.11697059869766235,6.15669584274292,0.6341730356216431,-21.171913146972656,0
1848.6319999999996,-3.0451174097834155e-05,-0.0001380222529405728,-0.00014475022908300161,0.0,0.0,0.0,0.0,-0.0007897366886027157,-0.005619027651846409,0.0014153738738968968,0.9986809492111206,0.0,0.0,0.0,0.10968850553035736,6.16753625869751,0.6490835547447205,-19.853837966918945,0
1858.5159999999996,-9.84718935796991e-05,-0.00020910220337100327,-0.0001026290119625628,0.0,0.0,0.0,0.0,0.0002659438760019839,-0.0022634100168943405,0.00037906167563050985,0.9989665746688843,0.0,0.0,0.0,0.11010914295911789,6.163084030151367,0.6516915559768677,-19.92997169494629,0
1868.405999999999,-0.00012655761383939534,-0.00025900622131302953,-0.00010565866250544786,0.0,0.0,0.0,0.0,-0.002257764572277665,-0.004735961556434631,0.0003171959542669356,1.0000245571136475,0.0,0.0,0.0,0.11041155457496643,6.155019283294678,0.6610067486763,-19.984712600708008,0
1878.2919999999995,-0.00014011483290232718,-0.00020003785903099924,-9.711574239190668e-05,0.0,0.0,0.0,0.0,-0.00022268893371801823,0.0010396084981039166,0.00012821621203329414,0.9993159174919128,0.0,0.0,0.0,0.1111445426940918,6.148041725158691,0.6661348938941956,-20.11738395690918,0
1888.173999999999,-9.004836465464905e-05,-0.0002074968215310946,-3.8746784412069246e-05,0.0,0.0,0.0,0.0,-0.0006975488504394889,-0.002591051859781146,0.005100480746477842,1.0006579160690308,0.0,0.0,0.0,0.09895790368318558,6.150103569030762,0.6741877198219299,-17.911579132080078,0
1898.065999999999,-0.00011216101120226085,-0.00022877519950270653,-3.3900720154633746e-05,0.0,0.0,0.0,0.0,-0.0018077448476105928,-0.000810040277428925,-0.0009370027692057192,1.0015630722045898,0.0,0.0,0.0,0.09955351799726486,6.1494903564453125,0.6759767532348633,-18.01938247680664,0
1907.949999999999,-0.0001688183401711285,-0.00021300255320966244,-1.1797961633419618e-05,0.0,0.0,0.0,0.0,-0.00013410144310910255,-0.006659423466771841,-0.0005184096517041326,0.9988641738891602,0.0,0.0,0.0,0.09952986985445023,6.149829864501953,0.6793819069862366,-18.01510238647461,0
1917.83,-0.00017384448437951505,-0.0002131305227521807,-2.3423024686053395e-05,0.0,0.0,0.0,0.0,3.863570236717351e-05,0.009188052266836166,0.00352287944406271,0.9992462992668152,0.0,0.0,0.0,0.09904944151639938,6.137563228607178,0.6818720102310181,-17.928146362304688,0
1927.7240000000002,-0.00011168746277689934,-0.00020528343156911433,3.429294883972034e-05,0.0,0.0,0.0,0.0,0.0005651102983392775,-1.4241635653888807e-05,-9.298673830926418e-05,0.9991471171379089,0.0,0.0,0.0,0.09976352751255035,6.134188175201416,0.6632933020591736,-18.057397842407227,0
1937.6049999999996,-6.216047040652484e-05,-0.00015439832350239158,-2.7939327992498875e-05,0.0,0.0,0.0,0.0,0.0011397727066650987,0.008792278356850147,0.002481972798705101,0.9982649683952332,0.0,0.0,0.0,0.09892944991588593,6.126079559326172,0.6647777557373047,-17.90642738342285,0
1947.4889999999996,-0.00010245753219351172,-0.00021795014617964625,-3.4866305213654414e-05,0.0,0.0,0.0,0.0,0.0006495327106676996,0.00034217644133605063,-0.0016163317486643791,1.0001192092895508,0.0,0.0,0.0,0.09901502728462219,6.1160993576049805,0.6506767868995667,-17.921916961669922,0
1957.3739999999998,-6.812157516833395e-05,-0.0001786089560482651,-8.639894804218784e-05,0.0,0.0,0.0,0.0,9.420316928299144e-05,-0.0007118730572983623,0.0019748222548514605,0.9996680617332458,0.0,0.0,0.0,0.09868404269218445,6.104986190795898,0.6527499556541443,-17.86200714111328,0
1967.262999999999,-0.00012246210826560855,-0.0002003588597290218,-8.195319242076948e-05,0.0,0.0,0.0,0.0,-0.0006735160714015365,0.006043875124305487,-0.0009649492567405105,0.9980849027633667,0.0,0.0,0.0,0.09855487197637558,6.096253395080566,0.6498687267303467,-17.8386287689209,0
1977.1459999999988,-9.72169145825319e-05,-0.00016984209651127458,-0.0001281918230233714,0.0,0.0,0.0,0.0,0.003273417940363288,0.009394068270921707,-0.0028634387999773026,0.9989423155784607,0.0,0.0,0.0,0.09811019897460938,6.088445663452148,0.6288998126983643,-17.758140563964844,0
1987.0339999999997,-0.00012219921336509287,-0.00019752183288801461,-0.00012095785496057943,0.0,0.0,0.0,0.0,-0.0012847502948716283,0.0021415078081190586,-0.0014889284502714872,0.9991146326065063,0.0,0.0,0.0,0.09773118048906326,6.0817999839782715,0.6124239563941956,-17.689538955688477,0
1996.9210000000003,-0.00011593654926400632,-0.0001838748576119542,-0.0001544300321256742,0.0,0.0,0.0,0.0,0.0011788735864683986,0.001285398262552917,-0.002507493831217289,0.9986684918403625,0.0,0.0,0.0,0.10546467453241348,6.087103366851807,0.6169098615646362,-19.08931541442871,0
2006.804,-5.5621501815039665e-05,-0.0002111320209223777,-0.00012361726840026677,0.0,0.0,0.0,0.0,-0.005305736791342497,-0.002219727262854576,-0.00027131501701660454,0.9983765482902527,0.0,0.0,0.0,0.10425844043493271,6.079650402069092,0.6169105768203735,-18.87098503112793,0
2016.6899999999987,-6.037604180164635e-06,-0.000138090894324705,-0.0001943166134878993,0.0,0.0,0.0,0.0,-0.0027845334261655807,0.003480164334177971,-0.0005369274294935167,1.000948190689087,0.0,0.0,0.0,0.10527371615171432,6.0813188552856445,0.6229564547538757,-19.054750442504883,0
2026.58,-6.163131183711812e-05,-0.0001333998516201973,-0.00018797190568875521,0.0,0.0,0.0,0.0,-0.00010053988080471754,-0.006341300904750824,0.0009119098540395498,0.9986730813980103,0.0,0.0,0.0,0.10461267828941345,6.075292587280273,0.6121792197227478,-18.935102462768555,0
2036.4689999999991,-4.50679290224798e-05,-0.0001370657846564427,-0.00024821492843329906,0.0,0.0,0.0,0.0,-0.0007663517026230693,0.0017848069546744227,-0.0028952970169484615,1.0003701448440552,0.0,0.0,0.0,0.10489016026258469,6.069658279418945,0.6249727010726929,-18.985326766967773,0
2046.351999999999,-3.727802322828211e-05,-0.00016410931129939854,-0.00023702972976025194,0.0,0.0,0.0,0.0,-0.0012187899556010962,-0.002200045855715871,0.0022206727880984545,0.9993341565132141,0.0,0.0,0.0,0.10470866411924362,6.0639119148254395,0.6234959363937378,-18.952476501464844,0
2056.2309999999998,-3.7998361221980304e-05,-0.00017802031652536243,-0.00028103674412705004,0.0,0.0,0.0,0.0,-0.0031985235400497913,-0.0019960335921496153,-0.002588022267445922,0.9993362426757812,0.0,0.0,0.0,0.1047777608036995,6.064063549041748,0.6239673495292664,-18.964982986450195,0
2066.120999999999,3.410565113881603e-05,-0.00019211371545679867,-0.0002464857534505427,0.0,0.0,0.0,0.0,0.0015184428775683045,-0.0016024339711293578,0.0015212551224976778,0.999045729637146,0.0,0.0,0.0,0.0956023707985878,6.067882061004639,0.6309880614280701,-17.304218292236328,0
2076.01,-9.838620826485567e-06,-0.0002087484608637169,-0.0002333692682441324,0.0,0.0,0.0,0.0,-0.0007119117071852088,0.0005376331973820925,-0.0020817609038203955,0.9992491006851196,0.0,0.0,0.0,0.0954555943608284,6.0621514320373535,0.6412312388420105,-17.277650833129883,0
2085.893,-2.2838545191916637e-05,-0.00024094752734526992,-0.0002255506842629984,0.0,0.0,0.0,0.0,0.001151817268691957,-0.0028799481224268675,0.001502119586803019,1.000742793083191,0.0,0.0,0.0,0.08511209487915039,6.061249256134033,0.6431540846824646,-15.405458450317383,0
2095.7829999999994,-4.0649720176588744e-05,-0.00023880992375779897,-0.0002349736460018903,0.0,0.0,0.0,0.0,0.00023579585831612349,-0.004604585934430361,-0.0010178977390751243,1.0003764629364014,0.0,0.0,0.0,0.08477715402841568,6.059444427490234,0.6494383215904236,-15.344834327697754,0
