timestamp,stateEstimate.x,stateEstimate.y,stateEstimate.z,controller.cmd_thrust,controller.cmd_roll,controller.cmd_pitch,controller.cmd_yaw,controller.r_roll,controller.r_pitch,controller.r_yaw,controller.accelz,controller.actuatorThrust,controller.roll,controller.pitch,controller.yaw,controller.rollRate,controller.pitchRate,controller.yawRate,controller.ctr_yaw
0.0,0.00831911526620388,-0.034028761088848114,0.0007016344461590052,0.0,0.0,0.0,0.0,-0.0002460319083184004,0.0027192458510398865,-0.0028411145322024822,0.9972561001777649,0.0,0.0,0.0,-50.179893493652344,10.065256118774414,-4.70013952255249,9082.66015625,0
9.884000000000015,0.008334718644618988,-0.03404520824551582,0.0006908834911882877,0.0,0.0,0.0,0.0,-0.002200402319431305,-7.668309262953699e-05,-0.0012017484987154603,0.9989076852798462,0.0,0.0,0.0,-50.13148498535156,10.057180404663086,-4.7000555992126465,9073.8994140625,0
19.76299999999901,0.008307959884405136,-0.03406761586666107,0.000683613121509552,0.0,0.0,0.0,0.0,-0.000193347834283486,-0.0029017662163823843,0.004926306661218405,1.00099515914917,0.0,0.0,0.0,-50.18429946899414,10.061277389526367,-4.694511413574219,9083.4580078125,0
29.654999999998836,0.00832482147961855,-0.03408429026603699,0.0006721188547089696,0.0,0.0,0.0,0.0,-0.0013592950999736786,0.002944652922451496,0.0012794688809663057,1.0006048679351807,0.0,0.0,0.0,-50.134830474853516,10.056346893310547,-4.675690650939941,9074.50390625,0
39.538000000000466,0.008336696773767471,-0.03409215807914734,0.0006848079501651227,0.0,0.0,0.0,0.0,-0.0005132031510584056,-0.0008555416716262698,0.001681045861914754,0.9978883862495422,0.0,0.0,0.0,-50.1851806640625,10.063037872314453,-4.673438549041748,9083.6181640625,0
49.42900000000009,0.008357062004506588,-0.03410964086651802,0.0006764113204553723,0.0,0.0,0.0,0.0,0.00020032816973980516,-0.002004611771553755,0.005905130412429571,0.998053789138794,0.0,0.0,0.0,-50.13591384887695,10.052436828613281,-4.669453144073486,9074.7001953125,0
59.30899999999929,0.008318145759403706,-0.03412137180566788,0.0006736294599249959,0.0,0.0,0.0,0.0,-0.0007047838880680501,0.0003959762689191848,-0.0008028927841223776,0.9996472597122192,0.0,0.0,0.0,-50.189353942871094,10.047391891479492,-4.667052268981934,9084.373046875,0
69.1890000000003,0.008341370150446892,-0.034142300486564636,0.0006639014463871717,0.0,0.0,0.0,0.0,0.0008916616789065301,-0.0021184345241636038,-0.002537747845053673,0.9983537197113037,0.0,0.0,0.0,-50.140777587890625,10.03757095336914,-4.655496120452881,9075.580078125,0
79.07200000000012,0.008295242674648762,-0.03413897007703781,0.0006896147970110178,0.0,0.0,0.0,0.0,-0.00017058941011782736,0.005101474467664957,0.001131026423536241,1.000084638595581,0.0,0.0,0.0,-50.17812728881836,10.033613204956055,-4.656698703765869,9082.3408203125,0
88.95999999999913,0.008319942280650139,-0.034164078533649445,0.0006822182913310826,0.0,0.0,0.0,0.0,0.002241662237793207,-0.0017477466026321054,0.001159431878477335,0.9983510375022888,0.0,0.0,0.0,-50.12928771972656,10.023655891418457,-4.65675163269043,9073.5009765625,0
98.84299999999894,0.008292039856314659,-0.03417440131306648,0.0006889568758197129,0.0,0.0,0.0,0.0,-0.00023490258899983019,0.006081902887672186,-0.0011371137807145715,0.9982907176017761,0.0,0.0,0.0,-50.1815071105957,10.013418197631836,-4.662679672241211,9082.9521484375,0
108.73899999999958,0.008316472172737122,-0.03419945016503334,0.0006816321983933449,0.0,0.0,0.0,0.0,0.003517948091030121,-0.003078249515965581,-0.0012396847596392035,1.0001416206359863,0.0,0.0,0.0,-50.133113861083984,10.007235527038574,-4.669240951538086,9074.1943359375,0
118.61299999999937,0.008289293386042118,-0.03421282395720482,0.0006801519193686545,0.0,0.0,0.0,0.0,0.00042880320688709617,-0.006779140792787075,-9.899631550069898e-05,0.9996441602706909,0.0,0.0,0.0,-50.18284606933594,10.0018310546875,-4.6589226722717285,9083.1943359375,0
128.503999999999,0.008359878323972225,-0.03397942706942558,0.0006107152439653873,0.0,0.0,0.0,0.0,0.00285751698538661,0.005287259817123413,-0.005120198242366314,0.9976706504821777,0.0,0.0,0.0,-50.171295166015625,10.039294242858887,-4.699111461639404,9081.1044921875,0
138.38999999999942,0.008325220085680485,-0.03400681912899017,0.0006306798313744366,0.0,0.0,0.0,0.0,0.001588009181432426,-0.0022760783322155476,-0.0024970185477286577,0.9993077516555786,0.0,0.0,0.0,-50.22430419921875,10.027665138244629,-4.7106547355651855,9090.69921875,0
148.27900000000045,0.008349702693521976,-0.034021977335214615,0.0006260693771764636,0.0,0.0,0.0,0.0,-0.003091973951086402,0.0031693982891738415,0.0019708590116351843,0.999628484249115,0.0,0.0,0.0,-50.175777435302734,10.017629623413086,-4.702050685882568,9081.9150390625,0
158.15300000000025,0.008314543403685093,-0.03404412418603897,0.0006214691675268114,0.0,0.0,0.0,0.0,0.0014669193187728524,0.001957855885848403,0.0002671664406079799,0.9980335235595703,0.0,0.0,0.0,-50.222171783447266,10.007333755493164,-4.7097907066345215,9090.3125,0
168.04899999999907,0.00833690632134676,-0.03406199812889099,0.0006158825708553195,0.0,0.0,0.0,0.0,-7.980234659044072e-05,0.0019121303921565413,-0.0008831505547277629,0.9984924793243408,0.0,0.0,0.0,-50.173362731933594,9.99482536315918,-4.709189414978027,9081.478515625,0
177.92299999999886,0.008290265686810017,-0.03406359627842903,0.0006378734251484275,0.0,0.0,0.0,0.0,0.0008060531690716743,0.0026150448247790337,-0.00017210743681062013,0.998196005821228,0.0,0.0,0.0,-50.22065734863281,9.988759994506836,-4.7124857902526855,9090.0390625,0
187.8109999999997,0.00831105187535286,-0.03408144786953926,0.0006322442786768079,0.0,0.0,0.0,0.0,-4.576648279908113e-05,0.0032455918844789267,-0.0013352269306778908,0.9989213943481445,0.0,0.0,0.0,-50.172210693359375,9.97617244720459,-4.707984924316406,9081.26953125,0
197.6939999999995,0.008291475474834442,-0.03408312052488327,0.000649190682452172,0.0,0.0,0.0,0.0,-1.2430410606611986e-05,0.004571971017867327,-0.001399187371134758,0.99992835521698,0.0,0.0,0.0,-50.20969009399414,9.976485252380371,-4.719244003295898,9088.0537109375,0
207.58100000000013,0.008313656784594059,-0.034100040793418884,0.0006447034538723528,0.0,0.0,0.0,0.0,0.0016975457547232509,0.0049656108021736145,0.0009016379481181502,0.999714195728302,0.0,0.0,0.0,-50.16162109375,9.969806671142578,-4.719620227813721,9079.353515625,0
217.46700000000055,0.008311298675835133,-0.03411170840263367,0.000645466847345233,0.0,0.0,0.0,0.0,0.004427049309015274,-6.798389949835837e-05,-0.0048548015765845776,0.9995608925819397,0.0,0.0,0.0,-50.21213912963867,9.964171409606934,-4.733041763305664,9088.4970703125,0
227.34900000000016,0.008335147053003311,-0.03413061797618866,0.0006420952850021422,0.0,0.0,0.0,0.0,0.0008020926616154611,0.0006852236692793667,-0.00016514396702405065,0.9991899728775024,0.0,0.0,0.0,-50.164955139160156,9.95421314239502,-4.718486309051514,9079.9560546875,0
237.23500000000058,0.008307429030537605,-0.03413418307900429,0.0006550172111019492,0.0,0.0,0.0,0.0,0.0038159536197781563,7.339371950365603e-05,0.0038605807349085808,0.9988799095153809,0.0,0.0,0.0,-50.21284484863281,9.94919204711914,-4.715296745300293,9088.625,0
247.11999999999898,0.008328717201948166,-0.03415337949991226,0.0006527452496811748,0.0,0.0,0.0,0.0,0.0018445512978360057,0.007302501238882542,0.001459611114114523,0.999740481376648,0.0,0.0,0.0,-50.16377258300781,9.9369535446167,-4.711267471313477,9079.7421875,0
257.0049999999992,0.008295602165162563,-0.034162018448114395,0.000655734387692064,0.0,0.0,0.0,0.0,-0.002973587019369006,-0.0035089775919914246,0.0013225395232439041,0.9981074929237366,0.0,0.0,0.0,-50.2136116027832,9.925652503967285,-4.7301225662231445,9088.763671875,0
266.8889999999992,0.00831487774848938,-0.03418207913637161,0.0006533453706651926,0.0,0.0,0.0,0.0,0.0011962996795773506,0.005286954343318939,-0.0014234171248972416,0.9997689127922058,0.0,0.0,0.0,-50.16539764404297,9.922301292419434,-4.7160234451293945,9080.037109375,0
276.77499999999964,0.008301720954477787,-0.03417418897151947,0.0006795353256165981,0.0,0.0,0.0,0.0,0.0006632665754295886,0.00022337696282193065,0.0004787977086380124,0.996418833732605,0.0,0.0,0.0,-50.19971466064453,9.92105770111084,-4.734613418579102,9086.248046875,0
286.66100000000006,0.00832218024879694,-0.0341942273080349,0.0006781273987144232,0.0,0.0,0.0,0.0,-0.0022801035083830357,0.0003507961519062519,-0.0003010045038536191,0.9960684776306152,0.0,0.0,0.0,-50.151554107666016,9.90892219543457,-4.7202582359313965,9077.53125,0
296.5450000000001,0.008340725675225258,-0.034216560423374176,0.0006737831863574684,0.0,0.0,0.0,0.0,0.00018013773660641164,-0.007967180572450161,-0.0028819262515753508,0.9978916645050049,0.0,0.0,0.0,-50.10317611694336,9.905624389648438,-4.703938961029053,9068.7744140625,0
306.4329999999991,0.008357695303857327,-0.03424204885959625,0.0006667645648121834,0.0,0.0,0.0,0.0,0.002529068384319544,-0.004164258483797312,0.0033083611633628607,0.9973888993263245,0.0,0.0,0.0,-50.05580139160156,9.900704383850098,-4.685497283935547,9060.2001953125,0
316.3169999999991,0.008365018293261528,-0.034232042729854584,0.0006942899199202657,0.0,0.0,0.0,0.0,0.0017212283564731479,-0.00516082439571619,-0.0023711510002613068,0.9995874166488647,0.0,0.0,0.0,-50.10405349731445,9.897536277770996,-4.688955307006836,9068.93359375,0
326.2099999999991,0.008383993990719318,-0.03426209092140198,0.0006872584344819188,0.0,0.0,0.0,0.0,-0.0021363687701523304,-0.0022157407365739346,-0.00019591166346799582,0.9982091784477234,0.0,0.0,0.0,-50.05649185180664,9.889554977416992,-4.676817417144775,9060.3251953125,0
336.08599999999933,0.008402831852436066,-0.034294191747903824,0.0006795875960960984,0.0,0.0,0.0,0.0,-0.000530824123416096,0.0021664195228368044,-0.0004799769667442888,0.9973390102386475,0.0,0.0,0.0,-50.007694244384766,9.887452125549316,-4.6614484786987305,9051.4912109375,0
345.97400000000016,0.00842089019715786,-0.034327879548072815,0.0006705195410177112,0.0,0.0,0.0,0.0,-0.001271286979317665,0.0011831176234409213,-0.0012731191236525774,0.9997156858444214,0.0,0.0,0.0,-49.95934295654297,9.884099960327148,-4.649575233459473,9042.740234375,0
355.8649999999998,0.008368617855012417,-0.03430275246500969,0.0006994139985181391,0.0,0.0,0.0,0.0,-0.00025977936456911266,-0.0023174439556896687,0.004130180459469557,0.9997107982635498,0.0,0.0,0.0,-50.02808380126953,9.874584197998047,-4.687274932861328,9055.1826171875,0
365.7549999999992,0.00838252529501915,-0.03433561325073242,0.0006932838587090373,0.0,0.0,0.0,0.0,0.0020366546232253313,0.0031418639700859785,-0.0011391023872420192,0.9993865489959717,0.0,0.0,0.0,-49.979095458984375,9.866706848144531,-4.67301082611084,9046.3154296875,0
375.6260000000002,0.008294914849102497,-0.0343119241297245,0.0007157954969443381,0.0,0.0,0.0,0.0,-0.00012101310858270153,0.0019568835850805044,0.0005872084875591099,0.9981628060340881,0.0,0.0,0.0,-50.03509521484375,9.851031303405762,-4.71122932434082,9056.4521484375,0
385.5120000000006,0.008331803604960442,-0.034034986048936844,0.000660317949950695,0.0,0.0,0.0,0.0,-0.0016715360106900334,0.0011012875474989414,-0.00167924037668854,0.9996376037597656,0.0,0.0,0.0,-50.036251068115234,9.886893272399902,-4.759815216064453,9056.6611328125,0
395.39600000000064,0.008282492868602276,-0.03406839817762375,0.0007036560564301908,0.0,0.0,0.0,0.0,-0.00216495874337852,-0.0032781839836388826,0.0008366048568859696,0.9983513355255127,0.0,0.0,0.0,-50.08192825317383,9.882657051086426,-4.763543128967285,9064.9287109375,0
405.28199999999924,0.00828756857663393,-0.03409050405025482,0.0007062749937176704,0.0,0.0,0.0,0.0,-0.0019220932153984904,0.0021959966979920864,8.293834252981469e-05,0.9977744221687317,0.0,0.0,0.0,-50.03368377685547,9.877297401428223,-4.749792575836182,9056.1953125,0
415.16699999999946,0.008283816277980804,-0.03411729633808136,0.0007393324049189687,0.0,0.0,0.0,0.0,-0.00047228028415702283,0.0009889325592666864,0.0008818320347927511,0.9959251880645752,0.0,0.0,0.0,-50.08280563354492,9.878150939941406,-4.744025230407715,9065.087890625,0
425.0540000000001,0.008288610726594925,-0.03414317965507507,0.0007404069183394313,0.0,0.0,0.0,0.0,0.002247485565021634,0.002648164052516222,0.0033786718267947435,0.9984503984451294,0.0,0.0,0.0,-50.034149169921875,9.86583423614502,-4.736297607421875,9056.2802734375,0
434.9380000000001,0.008235649205744267,-0.03415074571967125,0.0007768489303998649,0.0,0.0,0.0,0.0,0.0005229523521848023,0.0019374541006982327,-0.0005106076132506132,0.9991758465766907,0.0,0.0,0.0,-50.09215545654297,9.856959342956543,-4.747061729431152,9066.7802734375,0
444.8230000000003,0.008302910253405571,-0.03395029157400131,0.0007262104190886021,0.0,0.0,0.0,0.0,-0.0011945483274757862,0.004424315877258778,-0.0016440622275695205,0.9990618228912354,0.0,0.0,0.0,-50.091705322265625,9.890233039855957,-4.79029655456543,9066.6982421875,0
454.71500000000015,0.00829092413187027,-0.03400899097323418,0.0007315285038203001,0.0,0.0,0.0,0.0,0.0007235793163999915,0.00190876389387995,-0.0020569898188114166,1.000726342201233,0.0,0.0,0.0,-50.147743225097656,9.882366180419922,-4.787335395812988,9076.841796875,0
464.59499999999935,0.008296525105834007,-0.03402949869632721,0.0007339647854678333,0.0,0.0,0.0,0.0,0.00046947869122959673,0.005444904789328575,-8.933824574341998e-05,0.9968991875648499,0.0,0.0,0.0,-50.10038757324219,9.870414733886719,-4.789772987365723,9068.2705078125,0
504.1350000000002,0.00830266997218132,-0.034018926322460175,0.0007287521148100495,0.0,0.0,0.0,0.0,0.0018957037245854735,-0.0011978155234828591,0.0007029037224128842,1.0012426376342773,0.0,0.0,0.0,-50.1533088684082,9.866966247558594,-4.817107677459717,9077.8486328125,0
514.018,0.008304968476295471,-0.03404339775443077,0.0007263388833962381,0.0,0.0,0.0,0.0,-0.0009917825227603316,-0.000616611388977617,-0.00021778624795842916,0.9984602332115173,0.0,0.0,0.0,-50.10503387451172,9.858434677124023,-4.805335998535156,9069.1103515625,0
523.9089999999997,0.008342121727764606,-0.03391855210065842,0.0008094498771242797,0.0,0.0,0.0,0.0,-0.0027184318751096725,0.00227539730258286,-8.683685155119747e-05,0.9981681108474731,0.0,0.0,0.0,-50.09883117675781,9.881816864013672,-4.832773685455322,9067.98828125,0
533.7950000000001,0.008307489566504955,-0.034000422805547714,0.0007786396308802068,0.0,0.0,0.0,0.0,0.003179378341883421,-0.0007852771086618304,-0.0010581440292298794,0.9977411031723022,0.0,0.0,0.0,-50.15257263183594,9.87307357788086,-4.817463397979736,9077.71484375,0
543.6849999999995,0.008314068429172039,-0.034024208784103394,0.0007790653617121279,0.0,0.0,0.0,0.0,0.00012705780682154,0.0027728097047656775,-0.000852408236823976,0.9983479380607605,0.0,0.0,0.0,-50.1044807434082,9.864056587219238,-4.8048014640808105,9069.0107421875,0
553.5589999999993,0.008304649963974953,-0.03407500684261322,0.0007641763077117503,0.0,0.0,0.0,0.0,-0.0031337838154286146,-0.002320069819688797,0.000278878869721666,1.0007864236831665,0.0,0.0,0.0,-50.1590576171875,9.859957695007324,-4.795869827270508,9078.888671875,0
563.4449999999997,0.008312920108437538,-0.03410187363624573,0.000761450151912868,0.0,0.0,0.0,0.0,-0.0004135230847168714,0.006815588567405939,-0.0016657367814332247,1.0010532140731812,0.0,0.0,0.0,-50.11065673828125,9.854931831359863,-4.782522201538086,9070.12890625,0
573.3310000000001,0.00828313734382391,-0.03413362056016922,0.0007583372062072158,0.0,0.0,0.0,0.0,-0.0005278385942801833,0.0013867644593119621,0.0011561047285795212,0.998823344707489,0.0,0.0,0.0,-50.16779708862305,9.844356536865234,-4.789234161376953,9080.470703125,0
583.2189999999991,0.008289655670523643,-0.034164246171712875,0.0007573116454295814,0.0,0.0,0.0,0.0,0.0002855887287296355,-0.0009128343663178384,-1.7169208149425685e-05,0.9990005493164062,0.0,0.0,0.0,-50.11863327026367,9.837210655212402,-4.779208660125732,9071.5732421875,0
593.101999999999,0.008294307626783848,-0.034196704626083374,0.0007557912031188607,0.0,0.0,0.0,0.0,0.0015073498943820596,0.001337906694971025,-0.0004195744404569268,0.998350203037262,0.0,0.0,0.0,-50.06977844238281,9.82620620727539,-4.765225887298584,9062.73046875,0
602.9840000000004,0.008296364918351173,-0.03423072025179863,0.0007532824529334903,0.0,0.0,0.0,0.0,-0.00042445099097676575,-0.0010162376565858722,0.0013370115775614977,0.9998102188110352,0.0,0.0,0.0,-50.022212982177734,9.81445598602295,-4.763865947723389,9054.119140625,0
612.8690000000006,0.008250522427260876,-0.03423621132969856,0.0007943747914396226,0.0,0.0,0.0,0.0,-0.0032110519241541624,0.0004972650785930455,-0.0007463805959559977,0.998368501663208,0.0,0.0,0.0,-50.081764221191406,9.815384864807129,-4.771129131317139,9064.8994140625,0
622.7600000000002,0.008329438976943493,-0.03398246690630913,0.0007488879491575062,0.0,0.0,0.0,0.0,-0.0004538202774710953,0.005347261670976877,0.001534643699415028,0.9950450658798218,0.0,0.0,0.0,-50.08000183105469,9.873377799987793,-4.820112228393555,9064.5810546875,0
632.6399999999994,0.008259858004748821,-0.03400227054953575,0.0007745154434815049,0.0,0.0,0.0,0.0,0.00230768951587379,0.0004334838013164699,0.001926233060657978,0.9960094690322876,0.0,0.0,0.0,-50.13407897949219,9.863248825073242,-4.822870254516602,9074.369140625,0
642.5329999999994,0.00830644927918911,-0.03388208895921707,0.000799377856310457,0.0,0.0,0.0,0.0,-0.002076745266094804,-0.0041626738384366035,0.002475895220413804,0.99840247631073,0.0,0.0,0.0,-50.124488830566406,9.883634567260742,-4.855688571929932,9072.6328125,0
652.4089999999997,0.008278768509626389,-0.0339389368891716,0.000795588071923703,0.0,0.0,0.0,0.0,-0.002004508161917329,0.0009284203988499939,0.00037841536686755717,0.9988314509391785,0.0,0.0,0.0,-50.173583984375,9.877388954162598,-4.831170082092285,9081.5185546875,0
662.3150000000005,0.008283261209726334,-0.03395397588610649,0.0007919672643765807,0.0,0.0,0.0,0.0,0.0011456395732238889,-0.0017456883797422051,0.0020760996267199516,0.997684895992279,0.0,0.0,0.0,-50.12498474121094,9.8722505569458,-4.822329998016357,9072.7216796875,0
672.1810000000005,0.00828288309276104,-0.03400202468037605,0.000769312959164381,0.0,0.0,0.0,0.0,0.0026733607519418,0.002959637204185128,-0.0031944841612130404,0.9996550679206848,0.0,0.0,0.0,-50.17456817626953,9.864145278930664,-4.81102991104126,9081.697265625,0
682.0779999999995,0.008288580924272537,-0.034020379185676575,0.0007620902615599334,0.0,0.0,0.0,0.0,-0.0008047613082453609,0.005379228387027979,0.0005532525246962905,0.9993586540222168,0.0,0.0,0.0,-50.12657165527344,9.854601860046387,-4.811069488525391,9073.009765625,0
691.9509999999991,0.008288375101983547,-0.03404569253325462,0.0007535250624641776,0.0,0.0,0.0,0.0,-0.0028381014708429575,0.008097526617348194,-0.005345113575458527,0.9989268183708191,0.0,0.0,0.0,-50.183345794677734,9.850021362304688,-4.820797920227051,9083.28515625,0
701.8420000000006,0.008327033370733261,-0.033936962485313416,0.0007757495623081923,0.0,0.0,0.0,0.0,0.002072299597784877,-0.0009349727770313621,0.00199268851429224,0.9984397888183594,0.0,0.0,0.0,-50.176692962646484,9.870914459228516,-4.863780975341797,9082.08203125,0
711.7260000000006,0.008353933691978455,-0.03399438038468361,0.0007860420155338943,0.0,0.0,0.0,0.0,0.0008303410722874105,-0.0026977534871548414,-0.0019817363936454058,0.9987505078315735,0.0,0.0,0.0,-50.22216033935547,9.866379737854004,-4.843169212341309,9090.310546875,0
721.6129999999994,0.008362357504665852,-0.034010834991931915,0.0007810848765075207,0.0,0.0,0.0,0.0,0.0009128018282353878,0.006394463125616312,-0.00043252381146885455,0.9976670145988464,0.0,0.0,0.0,-50.17306137084961,9.859514236450195,-4.819329261779785,9081.423828125,0
731.4940000000006,0.008354878053069115,-0.034044068306684494,0.0007701127324253321,0.0,0.0,0.0,0.0,0.00039526866748929024,0.004212228115648031,-0.000944590603467077,0.9973776936531067,0.0,0.0,0.0,-50.21969985961914,9.851086616516113,-4.82908821105957,9089.8662109375,0
741.3870000000006,0.008395746350288391,-0.03393946960568428,0.0008056520600803196,0.0,0.0,0.0,0.0,-0.0030545529443770647,-0.0031497532036155462,0.0026316132862120867,0.9977303147315979,0.0,0.0,0.0,-50.208438873291016,9.868203163146973,-4.868175506591797,9087.828125,0
751.2620000000006,0.008340280503034592,-0.0339827686548233,0.0007894621812738478,0.0,0.0,0.0,0.0,-0.0012447622139006853,0.00045660167234018445,0.002299010520800948,0.9965490102767944,0.0,0.0,0.0,-50.235260009765625,9.85908317565918,-4.855223655700684,9092.681640625,0
761.1530000000002,0.008351966738700867,-0.03400004655122757,0.0007815806311555207,0.0,0.0,0.0,0.0,-0.0007918120245449245,0.0059075383469462395,0.003191587282344699,0.9977308511734009,0.0,0.0,0.0,-50.18642044067383,9.851679801940918,-4.845828533172607,9083.841796875,0
771.0299999999988,0.008327552117407322,-0.034031908959150314,0.0007680626004002988,0.0,0.0,0.0,0.0,-0.0009472171077504754,-0.0029597857501357794,0.0023386674001812935,0.9988002181053162,0.0,0.0,0.0,-50.21815872192383,9.84641170501709,-4.839202880859375,9089.5859375,0
780.9269999999997,0.008377209305763245,-0.033917929977178574,0.0007916772156022489,0.0,0.0,0.0,0.0,0.003341621020808816,0.00014061985712032765,0.0005515526863746345,0.9981102347373962,0.0,0.0,0.0,-50.204471588134766,9.866872787475586,-4.863575458526611,9087.109375,0
790.8009999999995,0.008331355638802052,-0.03397706151008606,0.0007599844830110669,0.0,0.0,0.0,0.0,-0.0021230666898190975,2.6406169126858003e-05,-0.002879583276808262,0.9995348453521729,0.0,0.0,0.0,-50.249271392822266,9.852461814880371,-4.853360652923584,9095.21875,0
800.7019999999993,0.00834500789642334,-0.03399547562003136,0.0007494294550269842,0.0,0.0,0.0,0.0,0.0038764665368944407,0.0015498468419536948,0.0022781621664762497,0.9995843172073364,0.0,0.0,0.0,-50.201263427734375,9.854218482971191,-4.849643707275391,9086.529296875,0
810.5709999999999,0.008359500207006931,-0.034014906734228134,0.0007388896774500608,0.0,0.0,0.0,0.0,-7.995432679308578e-05,0.0010415185242891312,-0.0010568950092419982,1.0004539489746094,0.0,0.0,0.0,-50.15188217163086,9.83819580078125,-4.84765100479126,9077.5908203125,0
820.473,0.008399857208132744,-0.033905789256095886,0.0008132957154884934,0.0,0.0,0.0,0.0,-0.0001693501544650644,0.002052898984402418,0.0023537869565188885,0.9988847970962524,0.0,0.0,0.0,-50.1421012878418,9.860352516174316,-4.868684768676758,9075.8203125,0
830.3420000000006,0.008326113224029541,-0.03394889831542969,0.0007844465435482562,0.0,0.0,0.0,0.0,-0.0009500401793047786,-0.003407142125070095,0.002625980880111456,0.9973552227020264,0.0,0.0,0.0,-50.175987243652344,9.84632682800293,-4.869122505187988,9081.953125,0
840.2350000000006,0.00833971332758665,-0.03396529331803322,0.0007792008109390736,0.0,0.0,0.0,0.0,0.0028713124338537455,0.005306051578372717,-0.002233680570498109,0.9971298575401306,0.0,0.0,0.0,-50.126991271972656,9.840376853942871,-4.862944602966309,9073.0849609375,0
850.110999999999,0.008310073055326939,-0.03399841859936714,0.0007644112920388579,0.0,0.0,0.0,0.0,-0.0035929258447140455,-0.006586271803826094,0.0013090389547869563,0.9986023306846619,0.0,0.0,0.0,-50.16431427001953,9.826776504516602,-4.866679668426514,9079.841796875,0
860.0110000000004,0.008323196321725845,-0.034018851816654205,0.0007546821725554764,0.0,0.0,0.0,0.0,-0.001542813377454877,-0.0019366886699572206,-0.0012510139495134354,0.9989543557167053,0.0,0.0,0.0,-50.1154670715332,9.827016830444336,-4.84943962097168,9070.9990234375,0
869.884,0.008291288278996944,-0.034039031714200974,0.0007517706253565848,0.0,0.0,0.0,0.0,0.0007475554011762142,-0.0017574751982465386,-0.004911792930215597,0.9986859560012817,0.0,0.0,0.0,-50.15325164794922,9.826132774353027,-4.837436199188232,9077.8388671875,0
879.7839999999997,0.00829524826258421,-0.034001488238573074,0.000848609022796154,0.0,0.0,0.0,0.0,1.800426616682671e-05,0.0005446071154437959,-0.00028099463088437915,0.9982760548591614,0.0,0.0,0.0,-50.1458625793457,9.820646286010742,-4.849946975708008,9076.5009765625,0
889.6530000000002,0.008284336887300014,-0.0340707041323185,0.0008318228647112846,0.0,0.0,0.0,0.0,-0.000427683989983052,-0.0022378854919224977,-0.0009454975952394307,0.9985563158988953,0.0,0.0,0.0,-50.1895751953125,9.80777359008789,-4.8392438888549805,9084.4140625,0
899.5540000000001,0.008297192864120007,-0.03409470617771149,0.0008262580377049744,0.0,0.0,0.0,0.0,-0.0012709448346868157,0.00027466597384773195,-0.00013814923295285553,0.9985819458961487,0.0,0.0,0.0,-50.14122009277344,9.800049781799316,-4.832303524017334,9075.6611328125,0
909.4220000000005,0.008282441645860672,-0.034123219549655914,0.0008302763453684747,0.0,0.0,0.0,0.0,0.0007601143443025649,-0.00011405368422856554,-0.0005041482509113848,0.998447597026825,0.0,0.0,0.0,-50.1751823425293,9.80001449584961,-4.826963901519775,9081.8076171875,0
919.3230000000003,0.008296072483062744,-0.034150127321481705,0.0008234392153099179,0.0,0.0,0.0,0.0,0.001027280930429697,-0.006636167876422405,0.002417020732536912,0.9985378980636597,0.0,0.0,0.0,-50.12626266479492,9.791203498840332,-4.814175605773926,9072.9541015625,0
929.1999999999989,0.008247312158346176,-0.03415840491652489,0.0008425398264080286,0.0,0.0,0.0,0.0,0.0005200695595704019,0.0035782665945589542,0.00535696092993021,0.9984171390533447,0.0,0.0,0.0,-50.175071716308594,9.788392066955566,-4.810853004455566,9081.7880859375,0
939.1029999999992,0.008328882046043873,-0.03397689014673233,0.0008020583190955222,0.0,0.0,0.0,0.0,-0.0020927730947732925,0.002982420613989234,-0.00022632768377661705,0.9988629817962646,0.0,0.0,0.0,-50.16508483886719,9.827323913574219,-4.861908912658691,9079.98046875,0
948.9629999999997,0.008260163478553295,-0.03399829566478729,0.0008022877154871821,0.0,0.0,0.0,0.0,0.0006129338871687651,-0.003118327585980296,-0.0013460821937769651,0.998234212398529,0.0,0.0,0.0,-50.20948791503906,9.821709632873535,-4.8664984703063965,9088.0166015625,0
958.8590000000004,0.00831249263137579,-0.03387921676039696,0.0008254472049884498,0.0,0.0,0.0,0.0,0.001345835393294692,0.005912531167268753,-0.0010604573180899024,0.996931254863739,0.0,0.0,0.0,-50.19544219970703,9.844622611999512,-4.8756632804870605,9085.4755859375,0
968.7330000000002,0.008310124278068542,-0.033960312604904175,0.0007903979276306927,0.0,0.0,0.0,0.0,0.003888510400429368,-0.0031437003053724766,0.003088380442932248,0.9971529841423035,0.0,0.0,0.0,-50.239219665527344,9.830486297607422,-4.868919849395752,9093.3994140625,0
978.634,0.008329134434461594,-0.03397407382726669,0.0007803523330949247,0.0,0.0,0.0,0.0,0.0028269109316170216,-0.00033044174779206514,0.0034594773314893246,0.9991441965103149,0.0,0.0,0.0,-50.18934631347656,9.817219734191895,-4.860367298126221,9084.37109375,0
988.5059999999994,0.008400708436965942,-0.03400536999106407,0.0007822908810339868,0.0,0.0,0.0,0.0,0.002467087469995022,0.0015822239220142365,-0.0011581368744373322,0.9999498128890991,0.0,0.0,0.0,-50.220829010009766,9.815034866333008,-4.838111877441406,9090.0703125,0
998.3989999999994,0.00842679850757122,-0.034022316336631775,0.0007717270054854453,0.0,0.0,0.0,0.0,-0.0010412466945126653,0.003777408506721258,-0.0014032061444595456,0.9987906217575073,0.0,0.0,0.0,-50.17177963256836,9.80858325958252,-4.818427562713623,9081.19140625,0
1008.2739999999994,0.00839568953961134,-0.03404351696372032,0.0007582149119116366,0.0,0.0,0.0,0.0,-0.0005623649340122938,9.123809286393225e-05,4.4562070797837805e-06,0.9986875057220459,0.0,0.0,0.0,-50.21943664550781,9.803605079650879,-4.820272922515869,9089.8173828125,0
1018.1669999999995,0.008418216370046139,-0.033994160592556,0.0008472069166600704,0.0,0.0,0.0,0.0,0.0025275154039263725,0.002803405048325658,-0.0022398647852241993,0.9984962344169617,0.0,0.0,0.0,-50.20798873901367,9.812244415283203,-4.83435583114624,9087.74609375,0
1028.0439999999999,0.008371648378670216,-0.03404798358678818,0.0008175769471563399,0.0,0.0,0.0,0.0,0.0022317408584058285,-0.0013590693706646562,0.0027375940699130297,0.9986951351165771,0.0,0.0,0.0,-50.251068115234375,9.79187297821045,-4.83447790145874,9095.5439453125,0
1037.937,0.008397337980568409,-0.03406534716486931,0.0008099854458123446,0.0,0.0,0.0,0.0,-0.0012454655952751637,0.00021628758986480534,-0.0031186738051474094,0.9988925457000732,0.0,0.0,0.0,-50.20269775390625,9.787186622619629,-4.817626476287842,9086.7880859375,0
1047.8140000000003,0.008347632363438606,-0.03408556431531906,0.0008006340940482914,0.0,0.0,0.0,0.0,-6.0878286603838205e-05,-0.0029977664817124605,0.0018469352507963777,0.998054027557373,0.0,0.0,0.0,-50.22926712036133,9.7747802734375,-4.823347091674805,9091.59765625,0
1057.714,0.008386410772800446,-0.03399140015244484,0.0008715210133232176,0.0,0.0,0.0,0.0,0.000811923120636493,0.001559186028316617,0.0014606369659304619,0.9989686608314514,0.0,0.0,0.0,-50.21573257446289,9.784472465515137,-4.850706577301025,9089.1474609375,0
1067.583999999999,0.008344002068042755,-0.034033965319395065,0.0008530110935680568,0.0,0.0,0.0,0.0,0.001955909887328744,0.00019653858907986432,-0.002234289888292551,0.9978675842285156,0.0,0.0,0.0,-50.24345397949219,9.769762992858887,-4.845363140106201,9094.166015625,0
1077.476999999999,0.008366882801055908,-0.03404875844717026,0.0008472140762023628,0.0,0.0,0.0,0.0,0.003107950324192643,-0.0012584237847477198,-0.0012928653741255403,0.9977939128875732,0.0,0.0,0.0,-50.195613861083984,9.762394905090332,-4.837957859039307,9085.5068359375,0
1087.3590000000004,0.008338573388755322,-0.034077949821949005,0.0008300056215375662,0.0,0.0,0.0,0.0,-0.0006170514388941228,0.004673757124692202,0.0014736843295395374,0.997676432132721,0.0,0.0,0.0,-50.22499465942383,9.745387077331543,-4.83862829208374,9090.8232421875,0
1097.2469999999994,0.008383042179048061,-0.03396482765674591,0.0008921624976210296,0.0,0.0,0.0,0.0,0.0006442933809012175,-0.004471123684197664,0.00042227248195558786,0.9998884797096252,0.0,0.0,0.0,-50.21089553833008,9.76158618927002,-4.864598274230957,9088.2724609375,0
1107.125,0.008350427262485027,-0.034021902829408646,0.0008595125982537866,0.0,0.0,0.0,0.0,-0.0004384281928651035,0.0014997146790847182,-0.00041628273902460933,0.9997961521148682,0.0,0.0,0.0,-50.25287628173828,9.749001502990723,-4.841460704803467,9095.87109375,0
1117.0290000000005,0.008406180888414383,-0.033900585025548935,0.0008898656815290451,0.0,0.0,0.0,0.0,0.0012109411181882024,0.0018152686534449458,-0.0008142261067405343,0.9980376362800598,0.0,0.0,0.0,-50.23772048950195,9.76544189453125,-4.8601274490356445,9093.1279296875,0
1126.8950000000004,0.008348900824785233,-0.033943500369787216,0.0008593109669163823,0.0,0.0,0.0,0.0,0.0014373247977346182,0.00244925357401371,-0.002300754887983203,0.996073305606842,0.0,0.0,0.0,-50.26445388793945,9.747468948364258,-4.86646032333374,9097.966796875,0
1136.789999999999,0.008366174064576626,-0.03394729271531105,0.000851875520311296,0.0,0.0,0.0,0.0,-0.0008361106738448143,-0.003259803634136915,-0.000267148541752249,0.9971061944961548,0.0,0.0,0.0,-50.21635437011719,9.739964485168457,-4.864723205566406,9089.259765625,0
1146.664999999999,0.008329872041940689,-0.033983584493398666,0.000810877128969878,0.0,0.0,0.0,0.0,-0.0007041338831186295,0.0019789470825344324,0.002270250581204891,0.9964725971221924,0.0,0.0,0.0,-50.24724578857422,9.727987289428711,-4.848331451416016,9094.8515625,0
1156.5609999999997,0.008345753885805607,-0.03399013355374336,0.0007951731095090508,0.0,0.0,0.0,0.0,5.70107986277435e-05,-0.003116483800113201,-0.00264020380564034,0.999514102935791,0.0,0.0,0.0,-50.19811248779297,9.719940185546875,-4.837408065795898,9085.9580078125,0
1166.4359999999997,0.00834441464394331,-0.034023698419332504,0.0007478296756744385,0.0,0.0,0.0,0.0,-0.0023332638666033745,0.0018474484095349908,-0.00019102191436104476,1.0003502368927002,0.0,0.0,0.0,-50.24617385864258,9.712458610534668,-4.8208489418029785,9094.6572265625,0
1176.3320000000003,0.008360310457646847,-0.03403426706790924,0.0007291783695109189,0.0,0.0,0.0,0.0,0.0008817438501864672,-0.005061791744083166,0.0004280690336599946,0.9981033205986023,0.0,0.0,0.0,-50.19801330566406,9.70773983001709,-4.806954860687256,9085.94140625,0
1186.205,0.008376010693609715,-0.03404643386602402,0.0007101324736140668,0.0,0.0,0.0,0.0,0.0019881664775311947,0.007499334868043661,0.0013043306535109878,0.997864842414856,0.0,0.0,0.0,-50.149662017822266,9.695693016052246,-4.792995929718018,9077.189453125,0
1196.1049999999996,0.008391064591705799,-0.034060243517160416,0.0006898569408804178,0.0,0.0,0.0,0.0,-0.00019399786833673716,-0.004939381033182144,0.0010660766856744885,0.9993320107460022,0.0,0.0,0.0,-50.10074996948242,9.683761596679688,-4.793965816497803,9068.3359375,0
1205.9760000000006,0.008354101330041885,-0.034086935222148895,0.0006449499633163214,0.0,0.0,0.0,0.0,0.0018932513194158673,0.0013474207371473312,0.0007642779964953661,1.0002915859222412,0.0,0.0,0.0,-50.1562614440918,9.676908493041992,-4.783137798309326,9078.3828125,0
1215.8719999999994,0.00839903298765421,-0.03391167148947716,0.000709917105268687,0.0,0.0,0.0,0.0,0.002593113575130701,-0.004390865098685026,0.0029621263965964317,0.998465895652771,0.0,0.0,0.0,-50.15017318725586,9.707785606384277,-4.823401927947998,9077.2822265625,0
1225.7469999999994,0.008351236581802368,-0.0339590385556221,0.0006577786989510059,0.0,0.0,0.0,0.0,-0.0024780600797384977,-0.0010382363107055426,0.000519236025866121,0.99936842918396,0.0,0.0,0.0,-50.20096969604492,9.690918922424316,-4.802430152893066,9086.4755859375,0
1235.6440000000002,0.008367229253053665,-0.03396819531917572,0.0006404153537005186,0.0,0.0,0.0,0.0,0.00037268223240971565,0.0024375421926379204,-0.0008693282143212855,1.0001386404037476,0.0,0.0,0.0,-50.15262222290039,9.6885404586792,-4.7942304611206055,9077.7255859375,0
1245.5210000000006,0.008352876640856266,-0.03398609533905983,0.0006266576237976551,0.0,0.0,0.0,0.0,0.0007634442299604416,-0.0017558318795636296,0.0005868602311238647,0.9987631440162659,0.0,0.0,0.0,-50.19142532348633,9.680233001708984,-4.795485496520996,9084.748046875,0
1255.4229999999989,0.008369078859686852,-0.033997002989053726,0.0006096167489886284,0.0,0.0,0.0,0.0,-0.0014227546053007245,0.0041173105128109455,-0.001867210492491722,0.9979648590087891,0.0,0.0,0.0,-50.14226531982422,9.673674583435059,-4.79058313369751,9075.849609375,0
1265.2870000000003,0.008351842872798443,-0.03400517627596855,0.0006036333506926894,0.0,0.0,0.0,0.0,0.0004062860971316695,-0.0015157408779487014,0.0019457177259027958,0.997530460357666,0.0,0.0,0.0,-50.1788330078125,9.674371719360352,-4.800398349761963,9082.4697265625,0
1275.182999999999,0.00836548674851656,-0.034020666033029556,0.0005849258741363883,0.0,0.0,0.0,0.0,-0.0008663876797072589,0.001218730234540999,0.0006166162202134728,0.9996165037155151,0.0,0.0,0.0,-50.12992858886719,9.668703079223633,-4.7940778732299805,9073.6171875,0
1285.057999999999,0.008333764038980007,-0.034033872187137604,0.0005702594644390047,0.0,0.0,0.0,0.0,-0.00018261061632074416,-0.006153750699013472,-0.0011967573082074523,0.9985686540603638,0.0,0.0,0.0,-50.18767547607422,9.666446685791016,-4.794974327087402,9084.0693359375,0
1294.9490000000005,0.008346142247319221,-0.034054454416036606,0.0005505286389961839,0.0,0.0,0.0,0.0,-0.001804588595405221,0.0033702373038977385,-0.0012501608580350876,0.9972377419471741,0.0,0.0,0.0,-50.13843536376953,9.661102294921875,-4.787652492523193,9075.1572265625,0
1304.8279999999995,0.008338991552591324,-0.03405306860804558,0.0005619198782369494,0.0,0.0,0.0,0.0,-0.003232059068977833,0.0010929525597020984,-0.0012084817280992866,0.9979711771011353,0.0,0.0,0.0,-50.178890228271484,9.66362476348877,-4.7963547706604,9082.478515625,0
1314.723,0.0083388090133667,-0.03397514298558235,0.0006977806915529072,0.0,0.0,0.0,0.0,-0.00023095768119674176,0.004603772424161434,-0.004277050960808992,0.9974991679191589,0.0,0.0,0.0,-50.17054748535156,9.67668342590332,-4.825121879577637,9080.9697265625,0
1324.5969999999998,0.008318878710269928,-0.034023940563201904,0.0006909106741659343,0.0,0.0,0.0,0.0,0.00209074467420578,0.005935729946941137,0.000698232906870544,0.9994078874588013,0.0,0.0,0.0,-50.22410202026367,9.668863296508789,-4.827230930328369,9090.6630859375,0
1334.4920000000002,0.008327224291861057,-0.0340409055352211,0.000679478922393173,0.0,0.0,0.0,0.0,-0.0005347717087715864,-0.0003829441557172686,-0.000548407610040158,0.9984607100486755,0.0,0.0,0.0,-50.17542266845703,9.655688285827637,-4.836521148681641,9081.8515625,0
1344.3680000000004,0.008228708989918232,-0.03405464440584183,0.0006711162277497351,0.0,0.0,0.0,0.0,-0.00041252074879594147,-0.0013775023398920894,0.0020411855075508356,0.9969669580459595,0.0,0.0,0.0,-50.21125411987305,9.644852638244629,-4.835076332092285,9088.3369140625,0
1354.2610000000004,0.008233238011598587,-0.03407619893550873,0.0006572862039320171,0.0,0.0,0.0,0.0,-0.00038472554297186434,0.004378153942525387,-0.0015016954857856035,1.0000771284103394,0.0,0.0,0.0,-50.161231994628906,9.639769554138184,-4.8144097328186035,9079.283203125,0
1364.1389999999992,0.008244148455560207,-0.03409016877412796,0.0006689034635201097,0.0,0.0,0.0,0.0,-0.000244970346102491,0.0025387892965227365,-0.0003723600530065596,0.9993665814399719,0.0,0.0,0.0,-50.212745666503906,9.644561767578125,-4.818550109863281,9088.6064453125,0
1374.036,0.008293075487017632,-0.03392520174384117,0.0006737036164849997,0.0,0.0,0.0,0.0,-5.4771102441009134e-05,-0.0037379919085651636,7.675494998693466e-05,0.9994358420372009,0.0,0.0,0.0,-50.20197677612305,9.67236328125,-4.86168098449707,9086.6572265625,0
1383.9079999999994,0.008263987489044666,-0.03394937887787819,0.0007000417681410909,0.0,0.0,0.0,0.0,0.0019286165479570627,0.0011480229441076517,0.0002553451049607247,0.9982609748840332,0.0,0.0,0.0,-50.23546600341797,9.668816566467285,-4.845107078552246,9092.7197265625,0
1393.8009999999995,0.008291659876704216,-0.03385151922702789,0.0007539780344814062,0.0,0.0,0.0,0.0,-0.00023900331871118397,0.0010587704600766301,-0.0008120490238070488,0.998477578163147,0.0,0.0,0.0,-50.223419189453125,9.681413650512695,-4.866870880126953,9090.5390625,0
1403.6779999999999,0.008282354101538658,-0.03390834107995033,0.0007532106246799231,0.0,0.0,0.0,0.0,-0.0010688994079828262,-0.0021837367676198483,-0.0018022321164608002,0.9996278882026672,0.0,0.0,0.0,-50.26353454589844,9.676445007324219,-4.854173183441162,9097.7998046875,0
1413.574999999999,0.008286412805318832,-0.03392020985484123,0.0007506910478696227,0.0,0.0,0.0,0.0,-0.0008755394374020398,0.0011542616412043571,0.0021651056595146656,0.9984212517738342,0.0,0.0,0.0,-50.21516036987305,9.669407844543457,-4.843261241912842,9089.0439453125,0
1423.4490000000005,0.008317597210407257,-0.03396329656243324,0.0007370652165263891,0.0,0.0,0.0,0.0,-0.0014950480544939637,-0.0011388134444132447,-0.00035086707794107497,0.9988541007041931,0.0,0.0,0.0,-50.246612548828125,9.667340278625488,-4.824506759643555,9094.736328125,0
1433.348,0.00832262821495533,-0.033977482467889786,0.0007323790341615677,0.0,0.0,0.0,0.0,0.005234680138528347,0.0008667045040056109,0.0014144547749310732,1.0008049011230469,0.0,0.0,0.0,-50.199153900146484,9.657770156860352,-4.829228401184082,9086.1474609375,0
1443.2189999999991,0.008313174359500408,-0.034008655697107315,0.0007090835715644062,0.0,0.0,0.0,0.0,0.0009947946527972817,0.0015921808080747724,0.0010201249970123172,1.0010275840759277,0.0,0.0,0.0,-50.250213623046875,9.639406204223633,-4.831360816955566,9095.388671875,0
1453.1239999999998,0.008317946456372738,-0.03402534872293472,0.0007046530954539776,0.0,0.0,0.0,0.0,0.00010302708687959239,-0.0018361841794103384,-0.0005188793293200433,1.000249981880188,0.0,0.0,0.0,-50.20160675048828,9.637422561645508,-4.824914932250977,9086.591796875,0
1462.9889999999996,0.008312752470374107,-0.0340505875647068,0.0006871041841804981,0.0,0.0,0.0,0.0,0.002564431866630912,-0.00140465481672436,0.0016455160221084952,0.9988936185836792,0.0,0.0,0.0,-50.25088119506836,9.632787704467773,-4.811149597167969,9095.5087890625,0
1472.8950000000004,0.008344290778040886,-0.03393000736832619,0.0007360588642768562,0.0,0.0,0.0,0.0,0.00339645822532475,0.0009164207731373608,0.0019281151471659541,0.9999793171882629,0.0,0.0,0.0,-50.24082565307617,9.64776611328125,-4.826103687286377,9093.6904296875,0
1482.7610000000004,0.008325936272740364,-0.03398601710796356,0.0007213826756924391,0.0,0.0,0.0,0.0,-0.0013743540039286017,-7.62729105190374e-05,0.000570326519664377,0.9975283741950989,0.0,0.0,0.0,-50.2871208190918,9.635750770568848,-4.820768356323242,9102.068359375,0
1492.6630000000005,0.008357069455087185,-0.03388390317559242,0.0007867771782912314,0.0,0.0,0.0,0.0,-0.0010062229121103883,-0.00518817687407136,-0.00022195269411895424,0.9982172846794128,0.0,0.0,0.0,-50.275001525878906,9.650193214416504,-4.842259407043457,9099.8759765625,0
1502.5299999999988,0.008378020487725735,-0.03397589549422264,0.0007613975321874022,0.0,0.0,0.0,0.0,0.0036866944283246994,-0.0008460427052341402,0.0030438017565757036,0.9986420273780823,0.0,0.0,0.0,-50.30329132080078,9.644302368164062,-4.802200794219971,9104.9951171875,0
1512.4220000000005,0.008403360843658447,-0.033883824944496155,0.0008357613696716726,0.0,0.0,0.0,0.0,-0.002797813154757023,0.00343042123131454,0.002390388399362564,0.9981247782707214,0.0,0.0,0.0,-50.2877311706543,9.64385986328125,-4.809098720550537,9102.1796875,0
1522.304,0.008444956503808498,-0.03397499769926071,0.0008309593540616333,0.0,0.0,0.0,0.0,0.0026980803813785315,0.0030877655372023582,0.0010976134799420834,1.0005686283111572,0.0,0.0,0.0,-50.31358337402344,9.6469144821167,-4.795506954193115,9106.859375,0
1532.200999999999,0.008457117713987827,-0.03399739786982536,0.0008350707939825952,0.0,0.0,0.0,0.0,-0.0006119650788605213,-0.0010991102317348123,0.00292600248940289,0.9996814131736755,0.0,0.0,0.0,-50.26530075073242,9.636913299560547,-4.787914752960205,9098.119140625,0
1542.0699999999997,0.008364837616682053,-0.03403753042221069,0.0008179580327123404,0.0,0.0,0.0,0.0,0.0025568490382283926,-0.004149747546762228,0.0010697628604248166,0.9981778860092163,0.0,0.0,0.0,-50.29338836669922,9.621581077575684,-4.789684295654297,9103.2041015625,0
1551.967999999999,0.008371997624635696,-0.03406580165028572,0.000820030109025538,0.0,0.0,0.0,0.0,0.0009499139268882573,-0.004868953488767147,-0.0017085510771721601,0.9976450204849243,0.0,0.0,0.0,-50.244991302490234,9.614532470703125,-4.771172046661377,9094.443359375,0
1561.8449999999993,0.008287309668958187,-0.03409026563167572,0.0008254155400209129,0.0,0.0,0.0,0.0,-0.0015752274775877595,0.006290061865001917,-0.0028059575706720352,0.9977109432220459,0.0,0.0,0.0,-50.28756332397461,9.598997116088867,-4.771695137023926,9102.1494140625,0
1571.7369999999992,0.008316276594996452,-0.03398141637444496,0.0009035923867486417,0.0,0.0,0.0,0.0,-0.002427354222163558,0.0016251360066235065,-0.0015312156174331903,0.9977759718894958,0.0,0.0,0.0,-50.27499771118164,9.617579460144043,-4.817104339599609,9099.875,0
1581.6129999999994,0.008274381048977375,-0.0340438075363636,0.0008937416132539511,0.0,0.0,0.0,0.0,-0.000876246893312782,-0.0002310413256054744,0.0009486643830314279,0.9988648295402527,0.0,0.0,0.0,-50.31884002685547,9.607483863830566,-4.817505359649658,9107.8095703125,0
1591.503999999999,0.0082737747579813,-0.03407065570354462,0.0008966000750660896,0.0,0.0,0.0,0.0,0.0015195119194686413,0.0006800409173592925,0.0026035262271761894,0.9984767436981201,0.0,0.0,0.0,-50.270423889160156,9.606219291687012,-4.814999580383301,9099.0458984375,0
1601.3850000000002,0.008248662576079369,-0.034117043018341064,0.0008852488244883716,0.0,0.0,0.0,0.0,0.0012660135980695486,-0.0003184202068950981,-0.003325876547023654,0.998540997505188,0.0,0.0,0.0,-50.30995559692383,9.597957611083984,-4.805243492126465,9106.201171875,0
1611.2799999999988,0.008245916105806828,-0.034146539866924286,0.0008849206496961415,0.0,0.0,0.0,0.0,0.0012217614566907287,0.0005797322955913842,0.0011499625397846103,0.9984387159347534,0.0,0.0,0.0,-50.26165008544922,9.589231491088867,-4.797895431518555,9097.458984375,0
1621.1509999999998,0.00824050698429346,-0.03417612239718437,0.0008909772150218487,0.0,0.0,0.0,0.0,-0.0005296524614095688,-0.004051231313496828,0.003005359089002013,0.9987556338310242,0.0,0.0,0.0,-50.305538177490234,9.580550193786621,-4.797459125518799,9105.40234375,0
1631.045,0.00832455512136221,-0.03395877778530121,0.0008396533667109907,0.0,0.0,0.0,0.0,-0.0006778835668228567,-0.0012114045675843954,0.00024376058718189597,0.9978391528129578,0.0,0.0,0.0,-50.29142761230469,9.632467269897461,-4.8283233642578125,9102.8486328125,0
1640.9220000000005,0.008299553766846657,-0.03401515632867813,0.0008256972068920732,0.0,0.0,0.0,0.0,-0.0015245180111378431,-0.0021605761721730232,-0.002389193745329976,0.9996010661125183,0.0,0.0,0.0,-50.32268142700195,9.625357627868652,-4.815631866455078,9108.505859375,0
1650.816999999999,0.008372324518859386,-0.033835653215646744,0.0008166326442733407,0.0,0.0,0.0,0.0,0.0007306980551220477,-0.0014871306484565139,-0.0009741686517372727,0.9986245632171631,0.0,0.0,0.0,-50.312015533447266,9.667414665222168,-4.843820571899414,9106.57421875,0
1660.691999999999,0.00834011659026146,-0.03391197323799133,0.0007754826219752431,0.0,0.0,0.0,0.0,-9.333970228908584e-05,-0.00035840627970173955,0.0017319420585408807,0.9989774227142334,0.0,0.0,0.0,-50.357398986816406,9.647212982177734,-4.831069469451904,9114.7900390625,0
1670.5900000000001,0.008340664207935333,-0.03392745554447174,0.0007685159216634929,0.0,0.0,0.0,0.0,-0.0015336956130340695,0.0005474203499034047,-0.0008816971676424146,0.9988093376159668,0.0,0.0,0.0,-50.3088264465332,9.642497062683105,-4.821718692779541,9105.9970703125,0
1680.4629999999997,0.008328882977366447,-0.0339730866253376,0.000743096461519599,0.0,0.0,0.0,0.0,0.0015155145665630698,0.0008396732737310231,0.0011249041417613626,0.9979910850524902,0.0,0.0,0.0,-50.335174560546875,9.640020370483398,-4.813832759857178,9110.7666015625,0
1690.3629999999994,0.008329463191330433,-0.03399331867694855,0.0007328024366870522,0.0,0.0,0.0,0.0,0.0010024543153122067,0.001223372295498848,-0.0027112984098494053,0.9973378777503967,0.0,0.0,0.0,-50.28549575805664,9.628751754760742,-4.797030448913574,9101.7744140625,0
1700.2330000000002,0.008329750970005989,-0.03401443362236023,0.0007207823218777776,0.0,0.0,0.0,0.0,-0.002470117062330246,0.008391591720283031,0.0035004769451916218,0.9990774989128113,0.0,0.0,0.0,-50.238319396972656,9.617586135864258,-4.787086486816406,9093.2353515625,0
1710.1370000000006,0.008328977040946484,-0.03403612971305847,0.000707547296769917,0.0,0.0,0.0,0.0,-0.0008511236519552767,-0.0021371752955019474,0.001325227553024888,0.9984802007675171,0.0,0.0,0.0,-50.18877410888672,9.618703842163086,-4.793063163757324,9084.2685546875,0
1720.0069999999996,0.008326984010636806,-0.03405898064374924,0.0006933247786946595,0.0,0.0,0.0,0.0,0.0013495939783751965,0.005513783544301987,0.001047131372615695,0.9967924952507019,0.0,0.0,0.0,-50.14012145996094,9.61668586730957,-4.7800726890563965,9075.4619140625,0
1729.8979999999992,0.008371700532734394,-0.03385675698518753,0.000816903542727232,0.0,0.0,0.0,0.0,-0.0010140850208699703,-0.00493692047894001,-0.0024242857471108437,0.9982095956802368,0.0,0.0,0.0,-50.1380500793457,9.652510643005371,-4.838005065917969,9075.0869140625,0
1739.7739999999994,0.008369656279683113,-0.03386996313929558,0.0008108447073027492,0.0,0.0,0.0,0.0,0.001440088963136077,-0.001570595195516944,-0.0009465881157666445,0.9985239505767822,0.0,0.0,0.0,-50.08927536010742,9.649373054504395,-4.817804336547852,9066.2587890625,0
1749.6710000000003,0.008366649970412254,-0.03388523682951927,0.0008034860366024077,0.0,0.0,0.0,0.0,-0.0021586224902421236,0.00043714456842280924,0.0012954584090039134,0.9965479373931885,0.0,0.0,0.0,-50.04072952270508,9.641393661499023,-4.80452299118042,9057.470703125,0
1759.5429999999997,0.008362147957086563,-0.03390232101082802,0.0007943578530102968,0.0,0.0,0.0,0.0,0.0006475697737187147,0.0016621919348835945,0.0006487631471827626,0.9990941882133484,0.0,0.0,0.0,-49.99151611328125,9.637621879577637,-4.803569316864014,9048.5634765625,0
1769.4359999999997,0.00835651159286499,-0.033920880407094955,0.0007840966572985053,0.0,0.0,0.0,0.0,-0.001029341365210712,0.0035911132581532,-0.0003619958588387817,0.9989262819290161,0.0,0.0,0.0,-49.94282531738281,9.62027359008789,-4.798481464385986,9039.7509765625,0
1779.313,0.008350611664354801,-0.03394068777561188,0.0007733776583336294,0.0,0.0,0.0,0.0,0.0008968945476226509,0.0006605371017940342,0.004021679516881704,0.9988728761672974,0.0,0.0,0.0,-49.89420700073242,9.613606452941895,-4.793544769287109,9030.9501953125,0
1789.208999999999,0.008344952948391438,-0.03396053612232208,0.0007616487564519048,0.0,0.0,0.0,0.0,-0.0017102051060646772,-0.0029948188457638025,0.0026014186441898346,0.9960991144180298,0.0,0.0,0.0,-49.844932556152344,9.602628707885742,-4.7838358879089355,9022.03125,0
1799.083999999999,0.008338778279721737,-0.03398057445883751,0.0007476879982277751,0.0,0.0,0.0,0.0,0.00028446075157262385,0.003476470708847046,0.0007013425347395241,0.9981338977813721,0.0,0.0,0.0,-49.79648208618164,9.600422859191895,-4.7646403312683105,9013.2626953125,0
1808.9830000000002,0.008348067291080952,-0.033747851848602295,0.0010085953399538994,0.0,0.0,0.0,0.0,0.000563625420909375,-0.00011287524830549955,-0.0024365035351365805,0.9995505213737488,0.0,0.0,0.0,-49.819942474365234,9.635889053344727,-4.831692218780518,9017.5087890625,0
1818.8559999999998,0.008338005281984806,-0.033755578100681305,0.0010087103582918644,0.0,0.0,0.0,0.0,0.0008952881908044219,-0.0008815457695163786,-0.002450596308335662,0.9996472597122192,0.0,0.0,0.0,-49.77286148071289,9.627857208251953,-4.824263095855713,9008.986328125,0
1828.7469999999994,0.008324566297233105,-0.03376500681042671,0.0010087804403156042,0.0,0.0,0.0,0.0,0.000931986200157553,0.0032974774949252605,-0.0005412246682681143,0.998293399810791,0.0,0.0,0.0,-49.72428512573242,9.617100715637207,-4.818843841552734,9000.1943359375,0
1838.6299999999992,0.008307695388793945,-0.03377538546919823,0.0010082082590088248,0.0,0.0,0.0,0.0,-0.0032697466667741537,0.00249374657869339,-7.376883149845526e-05,0.9982410669326782,0.0,0.0,0.0,-49.67627716064453,9.605012893676758,-4.810358047485352,8991.5048828125,0
1848.518,0.008288411423563957,-0.03378657251596451,0.0010065659880638123,0.0,0.0,0.0,0.0,0.0015555663267150521,0.002855513244867325,-0.004366508685052395,0.9980525970458984,0.0,0.0,0.0,-49.62813186645508,9.601247787475586,-4.804760456085205,8982.791015625,0
1858.3989999999994,0.008267532102763653,-0.03379952535033226,0.0010035824961960316,0.0,0.0,0.0,0.0,-0.0021678206976503134,0.004407025407999754,0.0013577680801972747,0.9978334307670593,0.0,0.0,0.0,-49.58147430419922,9.591282844543457,-4.801416397094727,8974.3466796875,0
1868.2919999999995,0.008245259523391724,-0.03381430730223656,0.0009994343854486942,0.0,0.0,0.0,0.0,-0.0012594567378982902,0.002116953721269965,-0.0011931643821299076,1.0000028610229492,0.0,0.0,0.0,-49.53312301635742,9.589607238769531,-4.795754432678223,8965.5927734375,0
1878.164999999999,0.008221805095672607,-0.03383125364780426,0.000994950532913208,0.0,0.0,0.0,0.0,-0.0008102580904960632,-0.0008176696137525141,0.0025110605638474226,0.9980220198631287,0.0,0.0,0.0,-49.485618591308594,9.581459999084473,-4.789651870727539,8956.9951171875,0
1888.0589999999993,0.008197469636797905,-0.03385050222277641,0.0009897442068904638,0.0,0.0,0.0,0.0,-0.0012503310572355986,-0.002709203166887164,-6.277571083046496e-05,0.9979853630065918,0.0,0.0,0.0,-49.437435150146484,9.574565887451172,-4.784820556640625,8948.2744140625,0
1897.940999999999,0.00817197933793068,-0.03387247771024704,0.0009828098118305206,0.0,0.0,0.0,0.0,0.0006535364082083106,0.0032714270055294037,0.0001134540798375383,0.9970470666885376,0.0,0.0,0.0,-49.38955307006836,9.567224502563477,-4.780195713043213,8939.6064453125,0
1907.8220000000001,0.008225986734032631,-0.03364676237106323,0.0011431880993768573,0.0,0.0,0.0,0.0,0.0004038458864670247,0.004598365630954504,-0.0010351986857131124,0.9991649389266968,0.0,0.0,0.0,-49.450111389160156,9.604132652282715,-4.8201189041137695,8950.5673828125,0
1917.714,0.008201349526643753,-0.03365955874323845,0.0011402885429561138,0.0,0.0,0.0,0.0,-0.002594249090179801,-0.005391439888626337,-0.001248142565600574,0.9971968531608582,0.0,0.0,0.0,-49.40149688720703,9.59588623046875,-4.812638282775879,8941.76953125,0
1927.6049999999996,0.008176326751708984,-0.033673569560050964,0.0011357904877513647,0.0,0.0,0.0,0.0,0.00037504773354157805,0.0022427786607295275,-0.00015506058116443455,0.9973127245903015,0.0,0.0,0.0,-49.35477066040039,9.594194412231445,-4.791439056396484,8933.3125,0
1937.4830000000002,0.0081509193405509,-0.03369010239839554,0.001129328040406108,0.0,0.0,0.0,0.0,0.0021319647785276175,0.002105675172060728,-0.0030066207982599735,0.9977837204933167,0.0,0.0,0.0,-49.307491302490234,9.58989143371582,-4.789435386657715,8924.75390625,0
1947.3760000000002,0.008123624138534069,-0.03371044620871544,0.0011213666293770075,0.0,0.0,0.0,0.0,-0.0019479881739243865,-0.0010544386459514499,-0.0011647781357169151,0.998561680316925,0.0,0.0,0.0,-49.26091384887695,9.582015991210938,-4.784728050231934,8916.3232421875,0
1957.2600000000002,0.00809414777904749,-0.033734697848558426,0.001112535479478538,0.0,0.0,0.0,0.0,-0.002483402844518423,-0.0006009482312947512,-0.0012321429094299674,0.9990668892860413,0.0,0.0,0.0,-49.2133674621582,9.575675010681152,-4.774999141693115,8907.7177734375,0
1967.143,0.008063171058893204,-0.03376160189509392,0.0011031024623662233,0.0,0.0,0.0,0.0,-0.000759056129027158,0.0013149087317287922,0.0008551279315724969,0.9976075887680054,0.0,0.0,0.0,-49.165889739990234,9.569058418273926,-4.772019863128662,8899.1240234375,0
1977.0229999999992,0.008349360898137093,-0.034109000116586685,0.0009793676435947418,0.0,0.0,0.0,0.0,0.0015427075559273362,0.0027445899322628975,-0.0030064566526561975,0.9967354536056519,0.0,0.0,0.0,-49.342533111572266,9.547624588012695,-4.71623420715332,8931.0966796875,0
1986.914999999999,0.00832587294280529,-0.034152839332818985,0.0009578287717886269,0.0,0.0,0.0,0.0,0.0033570078667253256,-0.004149782471358776,0.00691662821918726,0.9979225397109985,0.0,0.0,0.0,-49.29514694213867,9.536811828613281,-4.713197708129883,8922.51953125,0
1996.8029999999999,0.00830054935067892,-0.03419942781329155,0.0009342246921733022,0.0,0.0,0.0,0.0,-0.0009864919120445848,-0.0005269506364129484,-0.002515661995857954,0.9984961152076721,0.0,0.0,0.0,-49.245723724365234,9.523469924926758,-4.695815086364746,8913.57421875,0
2006.6929999999993,0.008273509331047535,-0.034248821437358856,0.0009095179848372936,0.0,0.0,0.0,0.0,-0.0007389497477561235,-0.005399002693593502,0.0023247329518198967,0.999606728553772,0.0,0.0,0.0,-49.19960021972656,9.514391899108887,-4.6851677894592285,8905.2255859375,0
2016.571,0.008245144039392471,-0.03430083394050598,0.0008846678538247943,0.0,0.0,0.0,0.0,0.0006591813871636987,0.0033593361731618643,0.0007123734685592353,1.0010231733322144,0.0,0.0,0.0,-49.15107345581055,9.508469581604004,-4.6647844314575195,8896.4423828125,0
2026.4580000000005,0.00821578036993742,-0.03435523435473442,0.0008608353091403842,0.0,0.0,0.0,0.0,-0.0027597486041486263,-0.003757840720936656,-0.002046169713139534,0.9987711906433105,0.0,0.0,0.0,-49.103057861328125,9.50194263458252,-4.665676593780518,8887.7509765625,0
2036.339,0.008185396902263165,-0.03441217541694641,0.0008373383898288012,0.0,0.0,0.0,0.0,0.0020108958706259727,0.0010936754988506436,-9.254291217075661e-05,0.9978048205375671,0.0,0.0,0.0,-49.056453704833984,9.498826026916504,-4.653871059417725,8879.3154296875,0
2046.2219999999998,0.008153649978339672,-0.034472327679395676,0.0008128443732857704,0.0,0.0,0.0,0.0,-5.74854711885564e-05,0.001508362707681954,-0.0010354272089898586,1.000335454940796,0.0,0.0,0.0,-49.00843048095703,9.488945007324219,-4.643507957458496,8870.623046875,0
2056.1049999999996,0.00812009908258915,-0.034536294639110565,0.0007882177596911788,0.0,0.0,0.0,0.0,0.000657611817587167,0.0011896886862814426,0.0006535821012221277,0.9992004036903381,0.0,0.0,0.0,-48.961151123046875,9.47755241394043,-4.641000270843506,8862.0654296875,0
2065.9930000000004,0.008084970526397228,-0.03460457921028137,0.0007636499358341098,0.0,0.0,0.0,0.0,0.0020140723790973425,0.0032245684415102005,5.856835559825413e-05,0.9990488290786743,0.0,0.0,0.0,-48.91368865966797,9.469560623168945,-4.630703449249268,8853.4755859375,0
2075.888999999999,0.008049066178500652,-0.034676577895879745,0.0007384541677311063,0.0,0.0,0.0,0.0,-0.0010781051823869348,0.0026128569152206182,0.0012438306584954262,0.997372031211853,0.0,0.0,0.0,-48.86715316772461,9.454891204833984,-4.630090713500977,8845.052734375,0
2085.7649999999994,0.008012612350285053,-0.03475113585591316,0.0007119242800399661,0.0,0.0,0.0,0.0,0.002425370505079627,0.0009924601763486862,0.001972750062122941,0.9975976347923279,0.0,0.0,0.0,-48.81970977783203,9.445059776306152,-4.63139009475708,8836.4638671875,0
2095.6540000000005,0.007975302636623383,-0.03482824191451073,0.0006831717910245061,0.0,0.0,0.0,0.0,-0.0007060908828862011,-0.005909542553126812,0.001887752441689372,0.9958661198616028,0.0,0.0,0.0,-48.772308349609375,9.432195663452148,-4.629253387451172,8827.884765625,0
2105.5329999999994,0.007936973124742508,-0.034907419234514236,0.0006514625274576247,0.0,0.0,0.0,0.0,-0.00132452801335603,-0.003573342226445675,-0.00026754382997751236,0.9971950650215149,0.0,0.0,0.0,-48.72545623779297,9.426981925964355,-4.613156795501709,8819.404296875,0
2115.42,0.007898112758994102,-0.03498786315321922,0.0006169552216306329,0.0,0.0,0.0,0.0,-0.0006353333592414856,-0.003415798069909215,-0.0002873821940738708,0.9991022944450378,0.0,0.0,0.0,-48.67857360839844,9.421399116516113,-4.597830772399902,8810.9189453125,0
2125.298999999999,0.007858539000153542,-0.035070452839136124,0.0005811540177091956,0.0,0.0,0.0,0.0,0.0008110138587653637,-0.006694408133625984,0.003539244644343853,0.997887134552002,0.0,0.0,0.0,-48.63181686401367,9.41353702545166,-4.576791286468506,8802.4560546875,0
2135.1900000000005,0.007817389443516731,-0.03515612334012985,0.0005443539703264832,0.0,0.0,0.0,0.0,-0.0004998394870199263,0.0027305823750793934,-0.0019313327502459288,0.9991064667701721,0.0,0.0,0.0,-48.58367919921875,9.406147003173828,-4.5479631423950195,8793.7421875,0
2145.065999999999,0.007773642428219318,-0.03524449095129967,0.0005065203877165914,0.0,0.0,0.0,0.0,-0.0009976931614801288,-0.0011785036185756326,-0.00026368911494500935,0.9986918568611145,0.0,0.0,0.0,-48.53639221191406,9.396952629089355,-4.540530681610107,8785.18359375,0
2154.967999999999,0.008182588033378124,-0.034867458045482635,0.0012855682289227843,0.0,0.0,0.0,0.0,-0.0013212024932727218,-0.0016230882611125708,0.001077914726920426,0.9985458254814148,0.0,0.0,0.0,-48.792083740234375,9.505565643310547,-4.568178653717041,8831.46484375,0
2164.84,0.008152442052960396,-0.03494210168719292,0.0012814684305340052,0.0,0.0,0.0,0.0,2.016924372583162e-05,-0.0007774048717692494,0.0002933531941380352,0.9985150694847107,0.0,0.0,0.0,-48.745906829833984,9.499258995056152,-4.551116466522217,8823.1064453125,0
2174.7350000000006,0.008135379292070866,-0.034920092672109604,0.0013592529576271772,0.0,0.0,0.0,0.0,-0.00205085426568985,-0.0026046396233141422,-0.001824753824621439,0.9992631077766418,0.0,0.0,0.0,-48.99919891357422,9.504563331604004,-4.576878070831299,8868.9521484375,0
2184.608,0.008105691522359848,-0.034996502101421356,0.0013583627296611667,0.0,0.0,0.0,0.0,-0.0006168425898067653,-0.0027634012512862682,0.0010039083426818252,0.9996835589408875,0.0,0.0,0.0,-48.952003479003906,9.504202842712402,-4.560882091522217,8860.4091796875,0
2194.5030000000006,0.008148168213665485,-0.034997839480638504,0.0013660397380590439,0.0,0.0,0.0,0.0,0.002015685196965933,0.0016903083305805922,0.002654565265402198,0.9994787573814392,0.0,0.0,0.0,-49.14691925048828,9.518074989318848,-4.554901123046875,8895.69140625,0
2204.3780000000006,0.008120688609778881,-0.03507507964968681,0.0013668137835338712,0.0,0.0,0.0,0.0,-1.69488357641967e-05,0.005935401655733585,0.0014736049342900515,0.9987091422080994,0.0,0.0,0.0,-49.09889221191406,9.511756896972656,-4.550300598144531,8886.998046875,0
2214.2700000000004,0.008121299557387829,-0.03503289818763733,0.0014120535925030708,0.0,0.0,0.0,0.0,-0.00035450104041956365,-0.005099518224596977,0.0018454588716849685,1.0003163814544678,0.0,0.0,0.0,-49.27497100830078,9.52086353302002,-4.5894246101379395,8918.8671875,0
