timestamp,stateEstimate.x,stateEstimate.y,stateEstimate.z,controller.cmd_thrust,controller.cmd_roll,controller.cmd_pitch,controller.cmd_yaw,controller.r_roll,controller.r_pitch,controller.r_yaw,controller.accelz,controller.actuatorThrust,controller.roll,controller.pitch,controller.yaw,controller.rollRate,controller.pitchRate,controller.yawRate,controller.ctr_yaw
0.0,-0.00013510987628251314,0.006325915921479464,-0.00022039849136490375,0.0,0.0,0.0,0.0,0.002298670820891857,0.0004084998508915305,-0.00027922599110752344,1.0002859830856323,0.0,0.0,0.0,14.168095588684082,1.0581711530685425,4.976469039916992,-2564.453369140625,0
9.916999999999462,-7.182720582932234e-05,0.006286011543124914,-0.00021538406144827604,0.0,0.0,0.0,0.0,-0.0010368275688961148,0.0014687982620671391,-0.001345644355751574,1.00075101852417,0.0,0.0,0.0,14.174535751342773,1.0415675640106201,4.977676868438721,-2565.619140625,0
19.83299999999872,-9.207391121890396e-05,0.006311445962637663,-0.00023008327116258442,0.0,0.0,0.0,0.0,-0.00039009485044516623,0.0057997857220470905,0.0008721614722162485,1.0009729862213135,0.0,0.0,0.0,14.171279907226562,1.0508620738983154,4.971622467041016,-2565.02978515625,0
29.725000000000364,-5.201894964557141e-05,0.00631312420591712,-0.00019570729637052864,0.0,0.0,0.0,0.0,-0.0008793054148554802,-0.005067388527095318,0.0004174494242761284,0.9990259408950806,0.0,0.0,0.0,14.182353019714355,1.0488379001617432,4.968066692352295,-2567.0341796875,0
39.63799999999901,-8.325005182996392e-05,0.0063244556076824665,-0.0001913832384161651,0.0,0.0,0.0,0.0,0.0007637921953573823,0.0011871412862092257,-0.0023081994149833918,0.9988515377044678,0.0,0.0,0.0,14.167896270751953,1.044119954109192,4.969126224517822,-2564.417236328125,0
49.54699999999866,-3.322861448395997e-05,0.006277038715779781,-0.00019536828040145338,0.0,0.0,0.0,0.0,-0.002909362083300948,-8.358866034541279e-05,0.001137554063461721,0.999722957611084,0.0,0.0,0.0,14.174783706665039,1.0342750549316406,4.972409725189209,-2565.6640625,0
59.48199999999997,-5.9162790421396494e-05,0.006301744841039181,-0.00019454921130090952,0.0,0.0,0.0,0.0,0.0010075803147628903,-0.004548350814729929,0.0004143360711168498,0.9999372363090515,0.0,0.0,0.0,14.170536994934082,1.0407075881958008,4.963374137878418,-2564.895263671875,0
69.3739999999998,-0.00010194267088081688,0.006296566687524319,-0.00020418343774508685,0.0,0.0,0.0,0.0,-0.0006562155904248357,0.0006348566967062652,0.0029088901355862617,0.9991288185119629,0.0,0.0,0.0,14.173495292663574,1.039939045906067,4.963287353515625,-2565.4306640625,0
79.30199999999968,-0.00014073788770474494,0.006286442279815674,-0.00020652335660997778,0.0,0.0,0.0,0.0,0.00047709772479720414,0.0011062318226322532,-0.003482602769508958,1.0007208585739136,0.0,0.0,0.0,14.159855842590332,1.0417397022247314,4.955881595611572,-2562.962158203125,0
89.20700000000033,-7.91919301263988e-05,0.006280709058046341,-0.00018932242528535426,0.0,0.0,0.0,0.0,-0.0007198770763352513,0.005247796420007944,0.001213201554492116,0.9998401403427124,0.0,0.0,0.0,14.169341087341309,1.0421693325042725,4.96837854385376,-2564.678955078125,0
99.12799999999879,-0.00011605388135649264,0.006261219270527363,-0.0001957371860044077,0.0,0.0,0.0,0.0,-0.00015728676225990057,0.0023057456128299236,0.0010802571196109056,0.9983503818511963,0.0,0.0,0.0,14.160078048706055,1.0403404235839844,4.958771228790283,-2563.002197265625,0
109.02599999999984,-0.00014956599625293165,0.006275679916143417,-0.0001763919717632234,0.0,0.0,0.0,0.0,-0.0002284653455717489,-0.0007600798853673041,0.0012070268858224154,0.9991709589958191,0.0,0.0,0.0,14.164081573486328,1.0465984344482422,4.949729919433594,-2563.726806640625,0
118.95299999999952,-0.00015653431182727218,0.006314313970506191,-0.0002066850574919954,0.0,0.0,0.0,0.0,0.0029531545005738735,0.0007746160845272243,-0.004266591742634773,0.998659074306488,0.0,0.0,0.0,14.158371925354004,1.0535229444503784,4.955009937286377,-2562.693359375,0
128.84799999999996,-0.0001507310662418604,0.006325975991785526,-0.00018064459436573088,0.0,0.0,0.0,0.0,0.0009062923491001129,-0.002494783839210868,0.00045304346713237464,0.9992995858192444,0.0,0.0,0.0,14.166468620300293,1.0505454540252686,4.951035976409912,-2564.158935546875,0
138.76999999999862,-0.0002109017368638888,0.006300527602434158,-0.00015902829181868583,0.0,0.0,0.0,0.0,-0.0004819686582777649,-0.004688451532274485,6.243952157092281e-06,0.9993409514427185,0.0,0.0,0.0,14.162325859069824,1.0436865091323853,4.937923908233643,-2563.4091796875,0
148.67599999999948,-0.00012582159251905978,0.006272123660892248,-0.00012787224841304123,0.0,0.0,0.0,0.0,0.0005121972062624991,6.431205838453025e-05,-0.0022714303340762854,0.9981983304023743,0.0,0.0,0.0,14.16740608215332,1.0372023582458496,4.962552070617676,-2564.32861328125,0
158.59499999999935,-0.00017617852427065372,0.006258171517401934,-0.00011057755182264373,0.0,0.0,0.0,0.0,0.0012793400092050433,-0.0028583775274455547,0.0006045830086804926,0.9990835189819336,0.0,0.0,0.0,14.164947509765625,1.0296334028244019,4.961385726928711,-2563.8837890625,0
168.5019999999986,-0.00010144840052817017,0.006242680829018354,-7.053033186821267e-05,0.0,0.0,0.0,0.0,-0.00011595463729463518,-0.0004278176056686789,-0.0002628456859383732,1.0003678798675537,0.0,0.0,0.0,14.168317794799805,1.0231808423995972,4.966794967651367,-2564.493896484375,0
178.41599999999926,-9.012637019623071e-05,0.006293011829257011,-0.00010749385546660051,0.0,0.0,0.0,0.0,0.0009253718890249729,0.0013117927592247725,0.001474224147386849,1.001367211341858,0.0,0.0,0.0,14.160795211791992,1.0313098430633545,4.970697402954102,-2563.13232421875,0
188.3259999999991,-6.652340380242094e-05,0.006277210544794798,-8.791970321908593e-05,0.0,0.0,0.0,0.0,-0.0010116633493453264,0.003181404434144497,0.0009118139860220253,0.9997162222862244,0.0,0.0,0.0,14.164752960205078,1.0225038528442383,4.966264724731445,-2563.848388671875,0
198.23999999999978,-2.1207153622526675e-05,0.006358176935464144,-0.0001559312513563782,0.0,0.0,0.0,0.0,0.0012558269081637263,-0.0017854783218353987,-0.0034975495655089617,1.0020172595977783,0.0,0.0,0.0,14.161576271057129,1.0334936380386353,4.982433795928955,-2563.2734375,0
208.14999999999964,-5.680085450876504e-05,0.00633968086913228,-0.00015825635637156665,0.0,0.0,0.0,0.0,0.00036349118454381824,0.0014852877939119935,0.0020046664867550135,1.0008801221847534,0.0,0.0,0.0,14.147232055664062,1.0274401903152466,4.978998184204102,-2560.677001953125,0
218.0640000000003,-4.4005872041452676e-05,0.006354271434247494,-0.0002075910015264526,0.0,0.0,0.0,0.0,-0.0030189789831638336,0.0031573413871228695,0.0009647718979977071,1.0000473260879517,0.0,0.0,0.0,14.145325660705566,1.0268810987472534,4.991164684295654,-2560.332275390625,0
227.97699999999895,-9.117648005485535e-05,0.0063501643016934395,-0.00022980113863013685,0.0,0.0,0.0,0.0,0.00206120521761477,-0.006189822684973478,0.004035922233015299,1.0001622438430786,0.0,0.0,0.0,14.156564712524414,1.0317796468734741,4.97150993347168,-2562.366455078125,0
237.88999999999942,-5.26691583218053e-05,0.006388813257217407,-0.00031512504210695624,0.0,0.0,0.0,0.0,-0.001396375591866672,0.0023530744947493076,-0.0028741955757141113,1.0006215572357178,0.0,0.0,0.0,14.161879539489746,1.0359289646148682,4.995837688446045,-2563.328369140625,0
247.8089999999993,-0.00010984869004460052,0.006401627324521542,-0.0003237218188587576,0.0,0.0,0.0,0.0,0.00123651884496212,-0.0040284390561282635,0.003642390016466379,0.9999673366546631,0.0,0.0,0.0,14.164021492004395,1.0465861558914185,4.984258651733398,-2563.716064453125,0
257.72799999999916,-0.00014657372958026826,0.006388039793819189,-0.0003328177554067224,0.0,0.0,0.0,0.0,0.0020141841378062963,0.007564069237560034,-0.0047500948421657085,1.0004246234893799,0.0,0.0,0.0,14.150629043579102,1.039829969406128,4.981345176696777,-2561.2919921875,0
267.6419999999998,-9.264258551411331e-05,0.006359950173646212,-0.00033820923999883235,0.0,0.0,0.0,0.0,0.0008130103815346956,0.0014076087391003966,0.0029981753323227167,1.0010361671447754,0.0,0.0,0.0,14.156679153442383,1.02650785446167,4.9843854904174805,-2562.38720703125,0
277.5460000000003,-0.00012916313426103443,0.00634575542062521,-0.00034603371750563383,0.0,0.0,0.0,0.0,-0.003331311047077179,-0.0022064978256821632,0.0012259515933692455,1.0010099411010742,0.0,0.0,0.0,14.141403198242188,1.0213384628295898,4.969132900238037,-2559.6220703125,0
287.46199999999953,-0.00014472378825303167,0.006367753259837627,-0.00031689301249571145,0.0,0.0,0.0,0.0,-0.002339846221730113,0.0027426164597272873,0.004500714596360922,1.0004651546478271,0.0,0.0,0.0,14.158170700073242,1.0403797626495361,4.975834846496582,-2562.656982421875,0
297.3769999999986,-0.00018608223763294518,0.006352381315082312,-0.00031320445123128593,0.0,0.0,0.0,0.0,0.001462090527638793,-0.002379348035901785,-0.003048136131837964,1.0027128458023071,0.0,0.0,0.0,14.157344818115234,1.041612982749939,4.973516941070557,-2562.507568359375,0
307.29199999999946,-0.00017490738537162542,0.006367657333612442,-0.00027493329253047705,0.0,0.0,0.0,0.0,0.0013516171602532268,0.0001945427356986329,5.006608989788219e-05,1.0021761655807495,0.0,0.0,0.0,14.167287826538086,1.0408025979995728,4.981097221374512,-2564.30712890625,0
317.1989999999987,-0.00020249876251909882,0.0063643502071499825,-0.0002882154076360166,0.0,0.0,0.0,0.0,-0.000889975402969867,0.0016818371368572116,0.002544261049479246,0.9995143413543701,0.0,0.0,0.0,14.169255256652832,1.0360287427902222,4.971571922302246,-2564.66357421875,0
327.1170000000002,-0.00016599238733761013,0.006352772004902363,-0.0002471714687999338,0.0,0.0,0.0,0.0,0.0014246359933167696,5.96787067479454e-05,3.053898035432212e-05,1.0003546476364136,0.0,0.0,0.0,14.188859939575195,1.0307661294937134,4.979356288909912,-2568.211669921875,0
337.01800000000003,-0.00020609867351595312,0.006338872946798801,-0.00023984801373444498,0.0,0.0,0.0,0.0,7.21528849680908e-05,0.0032298858277499676,0.0010573712643235922,1.0029659271240234,0.0,0.0,0.0,14.174599647521973,1.033497929573059,4.972475051879883,-2565.630615234375,0
346.9329999999991,-0.00011616782285273075,0.006301952991634607,-0.0002097255055559799,0.0,0.0,0.0,0.0,-5.1471165534167085e-06,-0.000692770816385746,0.001100124092772603,1.0012871026992798,0.0,0.0,0.0,14.190868377685547,1.019831657409668,4.974820613861084,-2568.575439453125,0
356.84699999999975,-0.00015576090663671494,0.006283699069172144,-0.00019833432452287525,0.0,0.0,0.0,0.0,-0.0016525175888091326,0.0001383136259391904,-0.00013262509310152382,0.9998548030853271,0.0,0.0,0.0,14.177727699279785,1.0223824977874756,4.973860263824463,-2566.19677734375,0
366.7569999999996,-6.337088416330516e-05,0.006296580657362938,-0.00015751246246509254,0.0,0.0,0.0,0.0,-0.0032074754126369953,0.0022999783977866173,0.0016073660226538777,1.00079345703125,0.0,0.0,0.0,14.199494361877441,1.0293645858764648,4.987737655639648,-2570.13671875,0
376.67199999999866,-0.00010099101928062737,0.006276735570281744,-0.0001422128698322922,0.0,0.0,0.0,0.0,-0.004716228228062391,-0.0015807877061888576,0.0006916035781614482,1.0002624988555908,0.0,0.0,0.0,14.186128616333008,1.0352603197097778,4.984997272491455,-2567.71728515625,0
386.5839999999989,-4.533516403171234e-05,0.0062164063565433025,-0.00012940209126099944,0.0,0.0,0.0,0.0,-0.0010982333915308118,0.0025983615778386593,-0.0007805562345311046,1.000294804573059,0.0,0.0,0.0,14.18984603881836,1.030705451965332,4.98651647567749,-2568.390380859375,0
396.4979999999996,-8.253687701653689e-05,0.006191423162817955,-0.00011347385589033365,0.0,0.0,0.0,0.0,-9.753346603247337e-06,-0.00029816676396876574,-0.0021623088978230953,1.0003247261047363,0.0,0.0,0.0,14.177468299865723,1.0331825017929077,4.988935470581055,-2566.14990234375,0
406.4210000000003,-7.740357250440866e-05,0.006186586804687977,-7.44112694519572e-05,0.0,0.0,0.0,0.0,-0.002248912351205945,-0.001584468875080347,0.0019441199256107211,1.0003018379211426,0.0,0.0,0.0,14.183292388916016,1.0358927249908447,4.992106914520264,-2567.204345703125,0
416.3289999999997,-0.0001136483988375403,0.006160636432468891,-5.6053213484119624e-05,0.0,0.0,0.0,0.0,-0.00039436545921489596,-0.002840787172317505,0.0028645540587604046,0.9981651306152344,0.0,0.0,0.0,14.169952392578125,1.0370570421218872,4.9841508865356445,-2564.789794921875,0
426.2420000000002,1.721437365631573e-05,0.006278129294514656,-0.00015983573393896222,0.0,0.0,0.0,0.0,0.0012603907380253077,0.001565184909850359,-0.0028750584460794926,0.9999846816062927,0.0,0.0,0.0,14.187655448913574,1.0727990865707397,5.0185136795043945,-2567.99365234375,0
436.15099999999984,-1.5677909686928615e-05,0.0062614125199615955,-0.0001507268170826137,0.0,0.0,0.0,0.0,0.002631883602589369,0.0008341529755853117,0.0002074805524898693,0.999358057975769,0.0,0.0,0.0,14.173819541931152,1.0670604705810547,5.018190383911133,-2565.48974609375,0
446.0619999999999,-0.00011926867591682822,0.0062895044684410095,-0.00014420038496609777,0.0,0.0,0.0,0.0,-0.0017444698605686426,0.0037337744142860174,0.005125542636960745,0.9997419118881226,0.0,0.0,0.0,14.184125900268555,1.0799322128295898,5.008163928985596,-2567.35498046875,0
455.97400000000016,-0.00015755156346131116,0.0062735178507864475,-0.00013565119297709316,0.0,0.0,0.0,0.0,0.0019561280496418476,-0.0008511973428539932,-0.00010115231270901859,1.0002669095993042,0.0,0.0,0.0,14.171287536621094,1.0801068544387817,5.005587577819824,-2565.03125,0
465.8889999999992,-0.00013360641605686396,0.00632878253236413,-0.00016159166989382356,0.0,0.0,0.0,0.0,-0.00454874150454998,-0.0035855474416166544,0.003547660307958722,0.9980036616325378,0.0,0.0,0.0,14.196836471557617,1.0935728549957275,5.011289119720459,-2569.655517578125,0
505.54299999999967,-0.0001432134595233947,0.006403273902833462,-0.0001802881306502968,0.0,0.0,0.0,0.0,0.0002145365288015455,-0.001256154733709991,-0.0015957443974912167,1.000684142112732,0.0,0.0,0.0,14.202016830444336,1.108013391494751,5.003326416015625,-2570.59326171875,0
515.4509999999991,-0.00017623641178943217,0.006396666169166565,-0.000179908616701141,0.0,0.0,0.0,0.0,-0.001174711505882442,0.0009905309416353703,0.0011806084075942636,0.9981459379196167,0.0,0.0,0.0,14.18757152557373,1.1097689867019653,4.999920845031738,-2567.978759765625,0
525.3670000000002,-0.00013118100469000638,0.006387058645486832,-0.00018735429330263287,0.0,0.0,0.0,0.0,-0.0001290827349293977,0.0012854173546656966,0.0016106104012578726,0.9981420040130615,0.0,0.0,0.0,14.213616371154785,1.1032227277755737,5.007421493530273,-2572.692626953125,0
535.2819999999992,-8.230922685470432e-05,0.006366194225847721,-0.00017579943232703954,0.0,0.0,0.0,0.0,0.00042105879401788116,-0.0031241592951118946,0.0007757655112072825,0.9998120665550232,0.0,0.0,0.0,14.22064208984375,1.098097324371338,4.996894359588623,-2573.96435546875,0
545.1909999999989,-0.00011435993656050414,0.006358390208333731,-0.0001775212149368599,0.0,0.0,0.0,0.0,-0.002209847792983055,0.0004857519525103271,-0.003664707997813821,0.9988539218902588,0.0,0.0,0.0,14.205964088439941,1.0959893465042114,4.997495651245117,-2571.307861328125,0
555.1049999999996,-3.970972102251835e-05,0.006301835644990206,-0.0001942505914485082,0.0,0.0,0.0,0.0,-0.0006566019728779793,-0.0044829100370407104,0.0015254467725753784,0.9990264773368835,0.0,0.0,0.0,14.198115348815918,1.0933284759521484,5.011370658874512,-2569.886962890625,0
565.0169999999998,-2.950623820652254e-05,0.006322270259261131,-0.00020217255223542452,0.0,0.0,0.0,0.0,0.0020958655513823032,0.0064774504862725735,-0.003100783098489046,0.9996917843818665,0.0,0.0,0.0,14.209656715393066,1.0973474979400635,5.0145134925842285,-2571.97607421875,0
574.9319999999989,-8.32914884085767e-06,0.006271049380302429,-0.00021639569604303688,0.0,0.0,0.0,0.0,0.00010031023703049868,-0.002606877824291587,0.006470652297139168,1.0004503726959229,0.0,0.0,0.0,14.200576782226562,1.0897494554519653,5.007029056549072,-2570.33251953125,0
584.8449999999993,-1.8470205759513192e-05,0.006255811545997858,-0.00020792000577785075,0.0,0.0,0.0,0.0,-0.0019541317597031593,0.0033274295274168253,-0.0052270432934165,1.000509262084961,0.0,0.0,0.0,14.209485054016113,1.0864351987838745,5.004976272583008,-2571.94482421875,0
594.7569999999996,-1.0589898010948673e-05,0.006214066408574581,-0.00021137212752364576,0.0,0.0,0.0,0.0,0.0017006226116791368,0.0006978468154557049,0.0023846018593758345,1.0001161098480225,0.0,0.0,0.0,14.199361801147461,1.0769644975662231,4.995337009429932,-2570.11279296875,0
604.6729999999989,2.8789086172764655e-06,0.006261013448238373,-0.0002100045676343143,0.0,0.0,0.0,0.0,-0.0028173322789371014,8.482941484544426e-05,0.0003040182054974139,0.9995392560958862,0.0,0.0,0.0,14.206482887268066,1.0860964059829712,4.999786853790283,-2571.401611328125,0
614.5839999999989,-3.255130286561325e-05,0.006267549004405737,-0.00018671962607186288,0.0,0.0,0.0,0.0,-0.002518433379009366,-0.0005848600412718952,-0.0016401184257119894,1.0013742446899414,0.0,0.0,0.0,14.196791648864746,1.0859391689300537,4.990315914154053,-2569.6474609375,0
624.4939999999988,-2.2135418475954793e-05,0.006295531056821346,-0.00018904072931036353,0.0,0.0,0.0,0.0,0.0004671132774092257,-0.002652200171723962,-0.0018235489260405302,1.0006093978881836,0.0,0.0,0.0,14.196791648864746,1.0859391689300537,4.990315914154053,-2569.6474609375,0
634.4089999999997,-0.0001351871178485453,0.006322624161839485,-0.00017926652799360454,0.0,0.0,0.0,0.0,-0.0031773517839610577,0.00271208630874753,-0.00017767117242328823,1.0015485286712646,0.0,0.0,0.0,14.191871643066406,1.1013211011886597,4.973508834838867,-2568.7568359375,0
644.3199999999997,-0.00011910380999324843,0.006334650795906782,-0.00019560146029107273,0.0,0.0,0.0,0.0,0.0008715263684280217,-0.0011818293714895844,0.0004976443597115576,1.0025581121444702,0.0,0.0,0.0,14.205814361572266,1.1018741130828857,4.976795673370361,-2571.280517578125,0
654.2340000000004,-0.00016815849812701344,0.006343694869428873,-0.00016479201440233737,0.0,0.0,0.0,0.0,-0.0006508964579552412,0.002423526719212532,-0.0008311592391692102,0.999758780002594,0.0,0.0,0.0,14.199066162109375,1.1057530641555786,4.9495344161987305,-2570.05908203125,0
664.1579999999994,-0.0001433783327229321,0.006354992277920246,-0.00019325650646351278,0.0,0.0,0.0,0.0,0.0010478139156475663,-0.001311765518039465,2.1231961000012234e-05,0.9996805787086487,0.0,0.0,0.0,14.213664054870605,1.105729341506958,4.954291820526123,-2572.701416015625,0
674.0630000000001,-0.0001662963768467307,0.006353690754622221,-0.00015548933879472315,0.0,0.0,0.0,0.0,-0.001395332277752459,7.820954488124698e-05,0.0023031854070723057,1.0005031824111938,0.0,0.0,0.0,14.209996223449707,1.108651041984558,4.939602375030518,-2572.037353515625,0
683.9719999999998,-0.00013385627244133502,0.006387684959918261,-0.00018402328714728355,0.0,0.0,0.0,0.0,0.002515760250389576,0.0027033023070544004,0.00030818875529803336,1.0021916627883911,0.0,0.0,0.0,14.218300819396973,1.1136397123336792,4.946544170379639,-2573.54052734375,0
693.8889999999992,-8.399502985412255e-05,0.006345514208078384,-0.0001449084811611101,0.0,0.0,0.0,0.0,-0.00348705449141562,-0.0030316459015011787,0.0007264992455020547,0.9996066093444824,0.0,0.0,0.0,14.208166122436523,1.1089013814926147,4.93419885635376,-2571.706298828125,0
703.7979999999989,-2.57447172771208e-05,0.006393341813236475,-0.00020196737023070455,0.0,0.0,0.0,0.0,0.0017610377399250865,0.004856426734477282,-0.00039526019827462733,1.0003604888916016,0.0,0.0,0.0,14.215890884399414,1.1157300472259521,4.94603967666626,-2573.1044921875,0
713.7109999999993,-9.52411865000613e-05,0.006414754316210747,-0.00019769401114899665,0.0,0.0,0.0,0.0,-0.0006781895644962788,-0.003739843377843499,0.00044952056487090886,1.000616192817688,0.0,0.0,0.0,14.22579574584961,1.1233919858932495,4.93307638168335,-2574.8974609375,0
723.6309999999994,-7.485724199796095e-05,0.0064799911342561245,-0.0002429197629680857,0.0,0.0,0.0,0.0,-0.0003777667006943375,0.0008018179796636105,0.00346863130107522,1.0004081726074219,0.0,0.0,0.0,14.2204008102417,1.1335774660110474,4.939942836761475,-2573.9208984375,0
733.5479999999989,-9.551103721605614e-05,0.006482826545834541,-0.00024180214677471668,0.0,0.0,0.0,0.0,0.00018079992150887847,-0.002164041856303811,-0.0010122101521119475,1.0009690523147583,0.0,0.0,0.0,14.227938652038574,1.1332361698150635,4.929602146148682,-2575.28515625,0
743.4529999999995,-0.00013388649676926434,0.00647845258936286,-0.00024009049229789525,0.0,0.0,0.0,0.0,-0.0002556574181653559,-0.0013145190896466374,0.0019450790714472532,0.9990684390068054,0.0,0.0,0.0,14.214324951171875,1.1355133056640625,4.934823513031006,-2572.82080078125,0
753.3719999999994,-0.00011732128768926486,0.006451633293181658,-0.0002478323003742844,0.0,0.0,0.0,0.0,0.0004532360180746764,0.005183219909667969,-0.0033291748259216547,0.9993986487388611,0.0,0.0,0.0,14.220309257507324,1.125666856765747,4.926575183868408,-2573.904052734375,0
763.2829999999994,-0.00017449469305574894,0.006399167235940695,-0.00023991950729396194,0.0,0.0,0.0,0.0,0.0004931177827529609,0.0021829481702297926,0.0015102977631613612,0.9990975856781006,0.0,0.0,0.0,14.216765403747559,1.1147701740264893,4.9144768714904785,-2573.2626953125,0
773.1899999999987,-0.00014491169713437557,0.006403882522135973,-0.00020719064923468977,0.0,0.0,0.0,0.0,0.0020444574765861034,0.002007104689255357,0.003040081122890115,1.0004043579101562,0.0,0.0,0.0,14.22542953491211,1.1129752397537231,4.9062604904174805,-2574.8310546875,0
783.110999999999,-0.00017175260290969163,0.0063973888754844666,-0.00022951638675294816,0.0,0.0,0.0,0.0,-0.0009314118069596589,0.0031741848215460777,-0.0018863563891500235,1.0003576278686523,0.0,0.0,0.0,14.227725982666016,1.1130475997924805,4.90716028213501,-2575.2470703125,0
793.0149999999994,-0.0001353730185655877,0.006375118158757687,-0.00021296502382028848,0.0,0.0,0.0,0.0,0.0016152013558894396,0.002295713173225522,-0.00239242403768003,1.0005258321762085,0.0,0.0,0.0,14.231590270996094,1.1092246770858765,4.9156060218811035,-2575.9462890625,0
802.9380000000001,-0.0002069773618131876,0.006339987274259329,-0.0001799274905351922,0.0,0.0,0.0,0.0,0.0013336270349100232,0.0007514531607739627,-0.0006510341190733016,1.00116765499115,0.0,0.0,0.0,14.216553688049316,1.1043504476547241,4.909038066864014,-2573.224365234375,0
812.8439999999991,-0.0002528584445826709,0.006328003015369177,-0.00017452779866289347,0.0,0.0,0.0,0.0,0.002852965146303177,0.0035520580131560564,0.0014688678784295917,0.9996290802955627,0.0,0.0,0.0,14.20120620727539,1.1056329011917114,4.894052028656006,-2570.446533203125,0
822.771999999999,-0.00028019127785228193,0.006368704605847597,-0.00017141665739472955,0.0,0.0,0.0,0.0,-0.0005884599522687495,0.0002818617213051766,-0.0009300505626015365,1.0002589225769043,0.0,0.0,0.0,14.202195167541504,1.116127610206604,4.902360439300537,-2570.62548828125,0
832.6729999999989,-0.00013297378609422594,0.0063101910054683685,-9.246738045476377e-05,0.0,0.0,0.0,0.0,0.00411072326824069,0.001010772306472063,0.0017465733690187335,1.0009636878967285,0.0,0.0,0.0,14.209277153015137,1.0860955715179443,4.920296669006348,-2571.9072265625,0
842.5910000000003,-0.00016337260603904724,0.006310406606644392,-8.352979784831405e-05,0.0,0.0,0.0,0.0,-0.0011810591677203774,-0.001712653087452054,0.0008374687749892473,0.9990749359130859,0.0,0.0,0.0,14.205526351928711,1.0886001586914062,4.915228366851807,-2571.228271484375,0
852.4929999999986,-5.489550676429644e-05,0.006239411886781454,-6.171062705107033e-05,0.0,0.0,0.0,0.0,-0.0007467521354556084,-0.0026936857029795647,-0.0010707166511565447,1.0000683069229126,0.0,0.0,0.0,14.209538459777832,1.0681180953979492,4.915278434753418,-2571.954833984375,0
862.4159999999993,-4.7224653826560825e-05,0.0062570408917963505,-9.1388268629089e-05,0.0,0.0,0.0,0.0,0.005072333849966526,0.005499104969203472,-0.0005314358277246356,0.9983107447624207,0.0,0.0,0.0,14.2110595703125,1.068913221359253,4.925355434417725,-2572.22998046875,0
872.3199999999997,-6.118772580521181e-05,0.006241828203201294,-8.280899783130735e-05,0.0,0.0,0.0,0.0,-0.002259541768580675,-0.00242554466240108,0.0009223147644661367,0.9986456632614136,0.0,0.0,0.0,14.217496871948242,1.0660350322723389,4.927192211151123,-2573.39501953125,0
882.2489999999998,-9.681591473054141e-05,0.006222662981599569,-7.420328620355576e-05,0.0,0.0,0.0,0.0,-0.0005110237398184836,-0.0010300620924681425,-0.000790889491327107,0.9998124241828918,0.0,0.0,0.0,14.202939987182617,1.0646928548812866,4.917319297790527,-2570.76025390625,0
892.152,-9.288711589761078e-05,0.006215300876647234,-5.330809290171601e-05,0.0,0.0,0.0,0.0,0.0005397970671765506,0.0038889050483703613,-0.001134640770033002,1.0006694793701172,0.0,0.0,0.0,14.21087646484375,1.0648027658462524,4.915597438812256,-2572.19677734375,0
902.0699999999997,-6.774194480385631e-05,0.006282002665102482,-0.000109274493297562,0.0,0.0,0.0,0.0,-0.004791336599737406,0.0008420396479777992,-0.0005409009172581136,1.0011405944824219,0.0,0.0,0.0,14.202620506286621,1.079525113105774,4.919489860534668,-2570.70263671875,0
911.9719999999998,-0.00010810561798280105,0.006280887871980667,-0.00010495747847016901,0.0,0.0,0.0,0.0,0.0009111242252402008,-0.0003856586117763072,0.0019884805660694838,1.0003551244735718,0.0,0.0,0.0,14.208624839782715,1.07669198513031,4.904079437255859,-2571.789306640625,0
921.8940000000002,-6.0944985307287425e-05,0.006354771554470062,-0.0001894973829621449,0.0,0.0,0.0,0.0,0.0008084446308203042,0.0008647770155221224,-0.0009490850497968495,0.9981694221496582,0.0,0.0,0.0,14.202475547790527,1.0975186824798584,4.917131423950195,-2570.67626953125,0
931.7960000000003,-7.983075192896649e-05,0.006346703972667456,-0.00019020495528820902,0.0,0.0,0.0,0.0,0.0001523837709100917,-0.0022773484233766794,-0.00178509671241045,0.9981226325035095,0.0,0.0,0.0,14.207904815673828,1.0874871015548706,4.90657901763916,-2571.658935546875,0
941.7189999999991,-5.9321515436749905e-05,0.0063887606374919415,-0.0002516295062378049,0.0,0.0,0.0,0.0,-0.0011127106845378876,0.003915702924132347,0.0002531649370212108,0.9994242191314697,0.0,0.0,0.0,14.205344200134277,1.0920672416687012,4.915297508239746,-2571.195556640625,0
951.6239999999998,-3.429966818657704e-05,0.006371798925101757,-0.0002529035846237093,0.0,0.0,0.0,0.0,-0.0002493091451469809,-0.0002832782920449972,0.0005828741705045104,0.998831033706665,0.0,0.0,0.0,14.209009170532227,1.0818424224853516,4.911369323730469,-2571.85888671875,0
961.5489999999991,-3.949564779759385e-05,0.006386609748005867,-0.00029434202588163316,0.0,0.0,0.0,0.0,0.0007609971798956394,-0.0030371348839253187,0.0001231648348039016,0.9995946288108826,0.0,0.0,0.0,14.204002380371094,1.0799862146377563,4.901233196258545,-2570.95263671875,0
971.4560000000001,-3.0214208891266026e-05,0.006373310927301645,-0.0003021995653398335,0.0,0.0,0.0,0.0,-0.003152186283841729,-0.005412527825683355,-0.0014334919396787882,0.9995291233062744,0.0,0.0,0.0,14.213845252990723,1.0792438983917236,4.902223587036133,-2572.734130859375,0
981.369999999999,-6.874364044051617e-05,0.0063640945591032505,-0.0003139957843814045,0.0,0.0,0.0,0.0,0.0015281850937753916,0.0017471160972490907,-0.002131636720150709,0.9997921586036682,0.0,0.0,0.0,14.200672149658203,1.082903504371643,4.899298191070557,-2570.349853515625,0
991.2749999999996,-4.933220407110639e-05,0.006361809093505144,-0.0003076904104091227,0.0,0.0,0.0,0.0,0.0001492838782723993,-0.0032059303484857082,-0.0005753323785029352,1.0003105401992798,0.0,0.0,0.0,14.196434020996094,1.0865072011947632,4.908041477203369,-2569.582763671875,0
1001.1989999999987,-4.933220407110639e-05,0.006361809093505144,-0.0003076904104091227,0.0,0.0,0.0,0.0,-0.0006711859023198485,-0.0024930976796895266,-0.00098219676874578,1.00101900100708,0.0,0.0,0.0,14.196434020996094,1.0865072011947632,4.908041477203369,-2569.582763671875,0
1011.1099999999988,-5.257600423647091e-05,0.006353504024446011,-0.0003038338909391314,0.0,0.0,0.0,0.0,0.003709570039063692,0.00198706635273993,-0.0008729262044653296,0.9998865127563477,0.0,0.0,0.0,14.189740180969238,1.0758366584777832,4.918023109436035,-2568.37109375,0
1021.0209999999988,-7.04916164977476e-05,0.006330198608338833,-0.0002768936683423817,0.0,0.0,0.0,0.0,0.0008597690030001104,0.001206076005473733,-0.0024881307035684586,0.998207688331604,0.0,0.0,0.0,14.206703186035156,1.0695194005966187,4.9139404296875,-2571.44140625,0
1030.9259999999995,-8.340182830579579e-05,0.0063524749130010605,-0.00023709028027951717,0.0,0.0,0.0,0.0,0.0017124592559412122,-0.0031787415500730276,0.0006516227731481194,0.999430239200592,0.0,0.0,0.0,14.210016250610352,1.0790534019470215,4.910419940948486,-2572.041015625,0
1040.851999999999,-0.00011884715786436573,0.00635061739012599,-0.0002510210615582764,0.0,0.0,0.0,0.0,-0.0014748144894838333,-0.006393152754753828,-0.0013949244748800993,0.9985432624816895,0.0,0.0,0.0,14.21227741241455,1.0799744129180908,4.896422863006592,-2572.450439453125,0
1050.759,-0.00011894662020495161,0.006346450187265873,-0.0002335553290322423,0.0,0.0,0.0,0.0,-0.0008681348990648985,-0.003337654983624816,-0.0016242280835285783,0.9976358413696289,0.0,0.0,0.0,14.21806526184082,1.0766313076019287,4.905379772186279,-2573.497802734375,0
1060.6800000000003,-0.0001492225710535422,0.0063489885069429874,-0.0002572214580141008,0.0,0.0,0.0,0.0,-0.0007818438461981714,-6.236172339413315e-05,0.002275310456752777,0.997717559337616,0.0,0.0,0.0,14.218719482421875,1.08012056350708,4.906472682952881,-2573.6162109375,0
1070.5829999999987,-0.000131178559968248,0.006365009117871523,-0.00021636008750647306,0.0,0.0,0.0,0.0,-0.00207068701274693,-0.00465540261939168,0.003539642319083214,0.9997925162315369,0.0,0.0,0.0,14.223870277404785,1.0869438648223877,4.915084362030029,-2574.548828125,0
1080.5019999999986,-0.0001597680093254894,0.006381485145539045,-0.00023614791280124336,0.0,0.0,0.0,0.0,0.0017890090821310878,-0.003658925648778677,0.0006326932343654335,1.000008463859558,0.0,0.0,0.0,14.222161293029785,1.083455204963684,4.913304805755615,-2574.239501953125,0
1090.4039999999986,-0.00012493302347138524,0.006375923752784729,-0.0002045548753812909,0.0,0.0,0.0,0.0,0.0008456671494059265,0.0009332365007139742,0.0013677143724635243,0.9995390772819519,0.0,0.0,0.0,14.2232027053833,1.0905431509017944,4.923864841461182,-2574.427978515625,0
1100.3239999999987,-0.00014577123511116952,0.0064054494723677635,-0.00022957117471378297,0.0,0.0,0.0,0.0,0.00443862471729517,-0.004304439295083284,0.0015041902661323547,0.999402642250061,0.0,0.0,0.0,14.224064826965332,1.0889694690704346,4.923948764801025,-2574.584228515625,0
1110.235999999999,-0.00013551523443311453,0.006403015926480293,-0.00021081040904391557,0.0,0.0,0.0,0.0,-0.0026105211582034826,0.005791245028376579,-0.0029482946265488863,0.9986646175384521,0.0,0.0,0.0,14.233926773071289,1.0837466716766357,4.938994407653809,-2576.369140625,0
1120.155999999999,-0.0001830092805903405,0.006370197515934706,-0.0002273044956382364,0.0,0.0,0.0,0.0,-0.00028742116410285234,0.0015906129265204072,-0.002006362657994032,0.9994460940361023,0.0,0.0,0.0,14.227293014526367,1.0756194591522217,4.927404880523682,-2575.16845703125,0
1130.0569999999989,-0.00014578424452338368,0.006364484783262014,-0.00019942436483688653,0.0,0.0,0.0,0.0,-0.002198551082983613,-0.00022793636890128255,-0.0029360775370150805,0.9985784888267517,0.0,0.0,0.0,14.232890129089355,1.081405758857727,4.931401252746582,-2576.181396484375,0
1139.982,-0.00017465592827647924,0.00638175755739212,-0.00022036705922801048,0.0,0.0,0.0,0.0,0.001739144092425704,-0.0037054528947919607,0.0005779205821454525,0.9987472295761108,0.0,0.0,0.0,14.226258277893066,1.0854144096374512,4.927785396575928,-2574.981201171875,0
1149.8829999999998,-0.0001555318449391052,0.006354466546326876,-0.00021110958186909556,0.0,0.0,0.0,0.0,-0.0012304035481065512,0.0010559145594015718,-0.0005046190926805139,0.9986725449562073,0.0,0.0,0.0,14.229640007019043,1.0863429307937622,4.930449962615967,-2575.593505859375,0
1159.8069999999989,-0.00021010043565183878,0.006335736718028784,-0.0002165190235245973,0.0,0.0,0.0,0.0,0.0005819316138513386,-0.001366630312986672,-0.000574391451664269,1.0008814334869385,0.0,0.0,0.0,14.21500301361084,1.0814484357833862,4.92239236831665,-2572.943603515625,0
1169.7119999999995,-0.0002794414758682251,0.0063047562725842,-0.00021726710838265717,0.0,0.0,0.0,0.0,0.0004309147479943931,-0.0025663720443844795,0.003464109729975462,1.0019739866256714,0.0,0.0,0.0,14.208555221557617,1.0792293548583984,4.909691333770752,-2571.776611328125,0
1179.6239999999998,-0.00033646405790932477,0.0062858485616743565,-0.00022220835671760142,0.0,0.0,0.0,0.0,-0.001972419209778309,0.0016995060723274946,-0.003839043900370598,1.0001500844955444,0.0,0.0,0.0,14.196176528930664,1.079352855682373,4.9060282707214355,-2569.5361328125,0
1189.536,-0.0003929041267838329,0.006266039330512285,-0.0002270031691296026,0.0,0.0,0.0,0.0,0.0014852830208837986,-0.003609606996178627,0.0015919255092740059,1.0008432865142822,0.0,0.0,0.0,14.194439888000488,1.0807600021362305,4.914979934692383,-2569.221923828125,0
1199.4519999999993,-0.0004530905280262232,0.006244168616831303,-0.0002295457961736247,0.0,0.0,0.0,0.0,-0.0028091385029256344,0.003726264461874962,0.0013925886014476418,1.0007776021957397,0.0,0.0,0.0,14.181877136230469,1.0747597217559814,4.914438247680664,-2566.947998046875,0
1209.3599999999988,-0.00043708199518732727,0.00629813876003027,-0.00029558673850260675,0.0,0.0,0.0,0.0,-0.0001570744498167187,0.0007697675027884543,-0.003243011888116598,1.0000724792480469,0.0,0.0,0.0,14.180192947387695,1.0923975706100464,4.944821357727051,-2566.64306640625,0
1219.2839999999997,-0.0004936368204653263,0.006281350273638964,-0.00030138311558403075,0.0,0.0,0.0,0.0,-0.0025240606628358364,0.005535610485821962,0.0019955227617174387,0.9998098611831665,0.0,0.0,0.0,14.16670036315918,1.0953322649002075,4.941066741943359,-2564.200927734375,0
1229.1859999999997,-0.0005514876102097332,0.00626435037702322,-0.00030683944351039827,0.0,0.0,0.0,0.0,0.002710919827222824,-0.0016565379919484258,-0.002296681283041835,0.9999099969863892,0.0,0.0,0.0,14.151494026184082,1.0965520143508911,4.923806667327881,-2561.448486328125,0
1239.1029999999992,-0.0006101520266383886,0.006247144192457199,-0.0003125801158603281,0.0,0.0,0.0,0.0,0.00038270035292953253,0.0024065356701612473,0.0034102322533726692,1.0008193254470825,0.0,0.0,0.0,14.137884140014648,1.0874989032745361,4.910987377166748,-2558.9853515625,0
1249.0119999999988,-0.0006694506155326962,0.006230839528143406,-0.0003183510561939329,0.0,0.0,0.0,0.0,0.0008385077235288918,-0.0021601745393127203,0.002566597191616893,1.0003353357315063,0.0,0.0,0.0,14.124122619628906,1.083003282546997,4.90400505065918,-2556.494384765625,0
1258.923999999999,-0.0007296500261873007,0.00621637562289834,-0.00032374783768318594,0.0,0.0,0.0,0.0,-0.0001665924210101366,-0.004277584608644247,-0.0017922837287187576,1.0006903409957886,0.0,0.0,0.0,14.109549522399902,1.0821263790130615,4.902198314666748,-2553.8564453125,0
1268.8369999999995,-0.0005744722438976169,0.006330183241516352,-0.00045141149894334376,0.0,0.0,0.0,0.0,0.0011189868673682213,0.004283381626009941,-0.003461288521066308,0.9994653463363647,0.0,0.0,0.0,14.108152389526367,1.1064807176589966,4.991252422332764,-2553.603759765625,0
1278.7529999999988,-0.0006154670845717192,0.006326093804091215,-0.00046474733971990645,0.0,0.0,0.0,0.0,-0.0041539366357028484,-0.00028484317590482533,-0.0010516357142478228,0.9990683197975159,0.0,0.0,0.0,14.093973159790039,1.1007884740829468,4.9858078956604,-2551.036865234375,0
1288.6629999999986,-0.0006567874224856496,0.006321861408650875,-0.00047844270011410117,0.0,0.0,0.0,0.0,-0.0022582027595490217,-0.0016984503017738461,0.0005915266228839755,0.9992358088493347,0.0,0.0,0.0,14.079545974731445,1.1028428077697754,4.974521160125732,-2548.42578125,0
1298.5769999999993,-0.0006981462938711047,0.00631742225959897,-0.0004929192364215851,0.0,0.0,0.0,0.0,0.003078953828662634,0.0025778543204069138,-0.0005266188527457416,1.0006660223007202,0.0,0.0,0.0,14.065329551696777,1.107275366783142,4.977153778076172,-2545.852783203125,0
1308.4889999999996,-0.0007404862553812563,0.006312325596809387,-0.0005079057300463319,0.0,0.0,0.0,0.0,0.0004835547006223351,0.0021379683166742325,0.0014389739371836185,1.0008695125579834,0.0,0.0,0.0,14.051782608032227,1.1034029722213745,4.9671831130981445,-2543.400634765625,0
1318.402,-0.0007837586454115808,0.006306258030235767,-0.0005224649212323129,0.0,0.0,0.0,0.0,-0.00030464009614661336,0.0033691213466227055,-0.0042861285619437695,1.000386118888855,0.0,0.0,0.0,14.037693977355957,1.0967029333114624,4.95910120010376,-2540.850341796875,0
1328.3189999999995,-0.0008271259721368551,0.006300349719822407,-0.0005362583906389773,0.0,0.0,0.0,0.0,0.002306946786120534,0.0017783449729904532,0.0016156742349267006,0.9991269707679749,0.0,0.0,0.0,14.02364730834961,1.095741629600525,4.9379472732543945,-2538.30810546875,0
1338.2299999999996,-0.0008715699659660459,0.006295447237789631,-0.0005497968522831798,0.0,0.0,0.0,0.0,-0.0017615765100345016,-0.00166599010117352,-0.0049970513209700584,0.9998781681060791,0.0,0.0,0.0,14.009765625,1.0946063995361328,4.934474468231201,-2535.79541015625,0
1348.1409999999996,-0.0006426386535167694,0.006507222540676594,-0.0006185583770275116,0.0,0.0,0.0,0.0,-0.001845699385739863,-0.005508062895387411,0.0001560939708724618,1.0001978874206543,0.0,0.0,0.0,14.015791893005371,1.1375727653503418,5.0248894691467285,-2536.88623046875,0
1358.0569999999989,-0.0006702684331685305,0.006514089647680521,-0.0006367425667122006,0.0,0.0,0.0,0.0,-0.002295553917065263,-0.0024967628996819258,0.0016794210532680154,0.999003529548645,0.0,0.0,0.0,14.0000638961792,1.1419295072555542,5.017397403717041,-2534.03955078125,0
1367.9689999999991,-0.000697852112352848,0.00652017118409276,-0.0006547121447511017,0.0,0.0,0.0,0.0,-0.0002847817086149007,0.0004042220825795084,0.0024540075100958347,1.0006438493728638,0.0,0.0,0.0,13.986549377441406,1.1384860277175903,5.019029140472412,-2531.59326171875,0
1377.8819999999996,-0.0007254217634908855,0.006526753772050142,-0.0006730880704708397,0.0,0.0,0.0,0.0,9.576234151609242e-05,0.0025174724869430065,0.0008365921676158905,0.999210774898529,0.0,0.0,0.0,13.973313331604004,1.1416590213775635,5.018279075622559,-2529.197265625,0
1387.8009999999995,-0.00011944617290282622,0.006336740218102932,-0.00010198169911745936,0.0,0.0,0.0,0.0,-0.003584912745282054,0.0019769715145230293,-0.000655356387142092,0.9987353682518005,0.0,0.0,0.0,13.997920036315918,1.0925089120864868,5.119624614715576,-2533.6513671875,0
1397.708999999999,-0.00011790446296799928,0.006337606813758612,-9.668323036748916e-05,0.0,0.0,0.0,0.0,-0.0025239998940378428,-0.001513466238975525,-8.402560342801735e-05,0.9987220764160156,0.0,0.0,0.0,13.984078407287598,1.0945045948028564,5.115530490875244,-2531.146240234375,0
1407.6189999999988,-0.00011623139289440587,0.006338213570415974,-9.208948176819831e-05,0.0,0.0,0.0,0.0,0.00028185450355522335,0.001122582470998168,-0.00022804024047218263,1.0005072355270386,0.0,0.0,0.0,13.970712661743164,1.0975290536880493,5.116322994232178,-2528.7265625,0
1417.5319999999992,-0.00011403640382923186,0.0063389199785888195,-8.81494052009657e-05,0.0,0.0,0.0,0.0,-0.00017314655997324735,-0.004882023669779301,0.0015647803666070104,1.0018658638000488,0.0,0.0,0.0,13.956686973571777,1.0963969230651855,5.104788303375244,-2526.188232421875,0
1427.4449999999997,-0.00011226363858440891,0.006339547224342823,-8.372923184651881e-05,0.0,0.0,0.0,0.0,-0.0014246064238250256,0.003967510536313057,-0.0006586071685887873,1.0011457204818726,0.0,0.0,0.0,13.943408012390137,1.1033902168273926,5.102069854736328,-2523.784423828125,0
1437.360999999999,-0.00011119532427983359,0.0063400655053555965,-7.758838182780892e-05,0.0,0.0,0.0,0.0,-0.0013853214913979173,-0.0029717562720179558,0.0006496103014796972,0.9994140863418579,0.0,0.0,0.0,13.930147171020508,1.1014984846115112,5.106142997741699,-2521.38427734375,0
1447.2709999999988,-0.00010991698218276724,0.006340822670608759,-7.035683665890247e-05,0.0,0.0,0.0,0.0,-0.0006718604126945138,0.007859667763113976,-0.0015243509551510215,0.9994656443595886,0.0,0.0,0.0,13.916394233703613,1.102127194404602,5.106649398803711,-2518.89501953125,0
1457.1849999999995,-0.00010943014785880223,0.006342049688100815,-6.327639857772738e-05,0.0,0.0,0.0,0.0,0.0010883994400501251,0.0010890160920098424,0.002901224186643958,1.0000691413879395,0.0,0.0,0.0,13.90316390991211,1.0925873517990112,5.097868919372559,-2516.500244140625,0
1467.1090000000004,-8.800829527899623e-05,0.006288451608270407,-0.0001021438292809762,0.0,0.0,0.0,0.0,0.0016215824289247394,0.0011987966718152165,-0.00045868329470977187,1.0012164115905762,0.0,0.0,0.0,13.9430570602417,1.0700795650482178,5.091762542724609,-2523.72119140625,0
1477.0100000000002,-8.929830801207572e-05,0.006285896059125662,-9.768017480382696e-05,0.0,0.0,0.0,0.0,-0.0013397189322859049,0.0014430179726332426,-0.0020697121508419514,1.0000567436218262,0.0,0.0,0.0,13.92950439453125,1.0686661005020142,5.07931661605835,-2521.26806640625,0
1486.9300000000003,-6.996317097218707e-05,0.006257939618080854,-0.00010861964256037027,0.0,0.0,0.0,0.0,0.0017624120227992535,0.00030614249408245087,-0.00017447301070205867,1.0002548694610596,0.0,0.0,0.0,13.957969665527344,1.05458402633667,5.070612907409668,-2526.420166015625,0
1496.8469999999998,-7.351375825237483e-05,0.006252906285226345,-0.00010332420060876757,0.0,0.0,0.0,0.0,-0.0031160314101725817,-0.0023739966563880444,0.0015452352818101645,1.0000386238098145,0.0,0.0,0.0,13.943782806396484,1.0476619005203247,5.050668716430664,-2523.852294921875,0
1506.7579999999998,-7.824373460607603e-05,0.006248364690691233,-9.793457866180688e-05,0.0,0.0,0.0,0.0,0.0021017903927713633,0.0003285213024355471,0.0021740731317549944,1.000951886177063,0.0,0.0,0.0,13.930014610290527,1.0437124967575073,5.046755790710449,-2521.3603515625,0
1516.6679999999997,-8.44622845761478e-05,0.00624476233497262,-9.212266013491899e-05,0.0,0.0,0.0,0.0,0.00018106984498444945,0.0018838715041056275,-0.0013608855661004782,1.0008584260940552,0.0,0.0,0.0,13.916756629943848,1.0461920499801636,5.036561012268066,-2518.96044921875,0
1526.5820000000003,-5.2473184041446075e-05,0.006271595135331154,-3.995379665866494e-05,0.0,0.0,0.0,0.0,0.0018366952426731586,-0.0012606001691892743,-0.0039891586638987064,0.999161958694458,0.0,0.0,0.0,13.953653335571289,1.0478111505508423,5.028509140014648,-2525.638916015625,0
1536.4899999999998,-6.21937433606945e-05,0.006269298959523439,-2.9834220185875893e-05,0.0,0.0,0.0,0.0,-0.000750721141230315,-0.005991269368678331,0.002012227661907673,0.9999293684959412,0.0,0.0,0.0,13.93945026397705,1.0473663806915283,5.029613494873047,-2523.068115234375,0
1546.4159999999993,-9.935053822118789e-05,0.006259860936552286,-8.744236765778624e-06,0.0,0.0,0.0,0.0,0.002057758392766118,0.00013848899106960744,0.0034295148216187954,0.9995971322059631,0.0,0.0,0.0,13.965558052062988,1.0473090410232544,5.025809288024902,-2527.7939453125,0
1556.3189999999995,-0.00011384810204617679,0.006256031338125467,1.4223132893675938e-06,0.0,0.0,0.0,0.0,-0.0004904343513771892,-0.0023978797253221273,0.002973031485453248,1.000912070274353,0.0,0.0,0.0,13.95161247253418,1.0408989191055298,5.025967121124268,-2525.26953125,0
1566.2399999999998,-0.00012900344154331833,0.006251554936170578,1.1625592378550209e-05,0.0,0.0,0.0,0.0,0.0003532355185598135,-0.00017074786592274904,0.006655071396380663,1.0000864267349243,0.0,0.0,0.0,13.938578605651855,1.0348197221755981,5.016973495483398,-2522.91064453125,0
1576.1389999999992,-0.00010303370072506368,0.006394993979483843,-0.00016203174891415983,0.0,0.0,0.0,0.0,-0.003181114327162504,-0.0037823605816811323,-0.0038971644826233387,0.9985854625701904,0.0,0.0,0.0,13.950057029724121,1.053100347518921,5.030817031860352,-2524.988037109375,0
1586.0640000000003,-6.314225902315229e-05,0.006374071352183819,-0.00015217998588923365,0.0,0.0,0.0,0.0,0.0004474845190998167,0.002029821276664734,0.002413339912891388,0.9992312788963318,0.0,0.0,0.0,13.9802827835083,1.0407865047454834,5.034165859222412,-2530.458984375,0
1595.976999999999,-6.54458999633789e-05,0.006396758835762739,-0.00016346361371688545,0.0,0.0,0.0,0.0,-0.0015502495225518942,0.00328293745405972,0.004453455563634634,1.0008690357208252,0.0,0.0,0.0,13.994762420654297,1.0445866584777832,5.043411731719971,-2533.079833984375,0
1605.8859999999986,-9.741655958350748e-05,0.006399970967322588,-0.00017812872829381377,0.0,0.0,0.0,0.0,0.00447703804820776,-0.00155171612277627,0.004660871345549822,0.9995535016059875,0.0,0.0,0.0,14.0180082321167,1.0422263145446777,5.033568382263184,-2537.28759765625,0
1615.7909999999993,-0.0001019467890728265,0.0064102523028850555,-0.00019443273777142167,0.0,0.0,0.0,0.0,-0.00010436059528728947,0.0015567527152597904,-0.00010832466068677604,0.9981955289840698,0.0,0.0,0.0,14.02683162689209,1.043215274810791,5.024675369262695,-2538.88427734375,0
1625.7169999999987,-5.52670426259283e-05,0.006366380024701357,-0.0001941125956363976,0.0,0.0,0.0,0.0,-0.0013072702568024397,0.0015983458142727613,-0.001627630670554936,0.9998100399971008,0.0,0.0,0.0,14.03565788269043,1.0164668560028076,5.022838592529297,-2540.48193359375,0
1635.6170000000002,-5.4007199651096016e-05,0.006380289327353239,-0.000189040249097161,0.0,0.0,0.0,0.0,0.0008943978464230895,0.0011487111914902925,0.0007935385219752789,0.9995321035385132,0.0,0.0,0.0,14.052767753601074,1.0178656578063965,5.023634910583496,-2543.578857421875,0
1645.5379999999986,-2.977690746774897e-05,0.006362000480294228,-0.00017597453552298248,0.0,0.0,0.0,0.0,0.0005696580628864467,-0.0027757484931498766,0.003553166054189205,0.9996299743652344,0.0,0.0,0.0,14.05776309967041,1.006122350692749,5.023831367492676,-2544.483154296875,0
1655.4439999999995,-2.977690746774897e-05,0.006362000480294228,-0.00017597453552298248,0.0,0.0,0.0,0.0,0.0007177580846473575,-0.0006021162262186408,0.0004998086369596422,0.9995449185371399,0.0,0.0,0.0,14.05776309967041,1.006122350692749,5.023831367492676,-2544.483154296875,0
1665.378999999999,-2.1115318304509856e-05,0.006347533781081438,-0.00016600737581029534,0.0,0.0,0.0,0.0,0.0005197931313887239,-0.0025274818763136864,0.001657178858295083,0.999768078327179,0.0,0.0,0.0,14.058527946472168,1.0110501050949097,5.011645317077637,-2544.621337890625,0
1675.2690000000002,-1.7671705791144632e-05,0.006362139247357845,-0.0001636402157600969,0.0,0.0,0.0,0.0,-0.0019602191168814898,-0.002392849884927273,0.0023779342882335186,1.000211238861084,0.0,0.0,0.0,14.07575511932373,1.0128353834152222,5.012778282165527,-2547.73974609375,0
1685.1949999999997,-2.3471660824725404e-05,0.006337332539260387,-0.00017879939696285874,0.0,0.0,0.0,0.0,0.0031685044523328543,0.001976853469386697,0.0005156666738912463,0.9979394674301147,0.0,0.0,0.0,14.099007606506348,1.0074952840805054,5.014088153839111,-2551.9482421875,0
1695.0969999999998,-3.995246879640035e-05,0.006344492547214031,-0.00018094063852913678,0.0,0.0,0.0,0.0,0.0029614700470119715,0.0011657830327749252,0.0005419994704425335,1.0023690462112427,0.0,0.0,0.0,14.09903621673584,1.0090091228485107,5.003425598144531,-2551.953369140625,0
1705.0209999999988,-2.1425283193821087e-05,0.006318328902125359,-0.00018677800835575908,0.0,0.0,0.0,0.0,0.0013003329513594508,-0.0006529763923026621,0.0011590404901653528,0.9996253848075867,0.0,0.0,0.0,14.117445945739746,0.9966771006584167,4.997570991516113,-2555.285888671875,0
1714.9219999999987,-4.608288872987032e-05,0.006305544637143612,-0.00018765874847304076,0.0,0.0,0.0,0.0,0.0002617859572637826,0.00022707150492351502,0.00010020252375397831,0.999269425868988,0.0,0.0,0.0,14.104238510131836,0.9989064931869507,4.9955854415893555,-2552.8955078125,0
1724.842999999999,-4.9680358642945066e-05,0.006283183116465807,-0.00019228094606660306,0.0,0.0,0.0,0.0,0.005064059980213642,-0.004239634145051241,0.0016670331824570894,1.000841736793518,0.0,0.0,0.0,14.114745140075684,0.9917240142822266,4.993997573852539,-2554.796875,0
1734.7510000000002,-7.576328061986715e-05,0.006266965065151453,-0.00019382222671993077,0.0,0.0,0.0,0.0,-0.0001722638262435794,0.0037563247606158257,0.0003839820565190166,1.0004403591156006,0.0,0.0,0.0,14.100029945373535,0.9934523701667786,4.982950210571289,-2552.133544921875,0
1744.6710000000003,-2.657577715581283e-05,0.006242774892598391,-0.0001949851430254057,0.0,0.0,0.0,0.0,0.0030889902263879776,0.0039954339154064655,-0.0013528821291401982,1.001535415649414,0.0,0.0,0.0,14.114946365356445,0.982130229473114,4.993678092956543,-2554.83349609375,0
1754.5730000000003,-5.372485247789882e-05,0.006226403638720512,-0.00019477815658319741,0.0,0.0,0.0,0.0,-0.0032985100988298655,0.006780908443033695,-0.0013272821670398116,0.998074471950531,0.0,0.0,0.0,14.100630760192871,0.9758409261703491,4.975955486297607,-2552.2421875,0
1764.4979999999996,-2.4033348381635733e-05,0.006238214205950499,-0.0001523669488960877,0.0,0.0,0.0,0.0,0.0010226212907582521,0.0009144486975856125,0.0007395652355626225,1.0002678632736206,0.0,0.0,0.0,14.109665870666504,0.9831514954566956,4.967493534088135,-2553.877685546875,0
1774.3989999999994,-5.18896194989793e-05,0.006221636664122343,-0.00014814747555647045,0.0,0.0,0.0,0.0,0.0012477557174861431,-0.004181709606200457,-0.00036700055352412164,1.0016868114471436,0.0,0.0,0.0,14.0960693359375,0.9846910238265991,4.961436748504639,-2551.41650390625,0
1784.324999999999,-6.359218241414055e-05,0.00621039466932416,-0.0001284120517084375,0.0,0.0,0.0,0.0,-0.0010709015186876059,0.002945416606962681,-0.0009542853222228587,1.0012532472610474,0.0,0.0,0.0,14.115697860717773,0.9861567616462708,4.96582555770874,-2554.969482421875,0
1794.2259999999987,-9.550851245876402e-05,0.006191564258188009,-0.00012121805048082024,0.0,0.0,0.0,0.0,0.0016325510805472732,0.00028536244644783437,0.0009344576974399388,1.0016201734542847,0.0,0.0,0.0,14.100339889526367,0.9857454895973206,4.959804058074951,-2552.189697265625,0
1804.1459999999988,-8.984947635326535e-05,0.0061890739016234875,-7.906959217507392e-05,0.0,0.0,0.0,0.0,-0.0010288318153470755,-0.00046071538235992193,0.0014209498185664415,0.998353123664856,0.0,0.0,0.0,14.115686416625977,0.9919792413711548,4.953062057495117,-2554.96728515625,0
1814.0509999999995,-0.0001251822686754167,0.006168285384774208,-6.708178261760622e-05,0.0,0.0,0.0,0.0,-0.0015469922218471766,-0.003373940708115697,0.0021212873980402946,0.9991751313209534,0.0,0.0,0.0,14.10239315032959,0.9902539253234863,4.954030990600586,-2552.561279296875,0
1823.973,-0.0001455277088098228,0.006154324393719435,-3.607459075283259e-05,0.0,0.0,0.0,0.0,-0.001108685159124434,0.001105495379306376,7.619336247444153e-05,0.9991955161094666,0.0,0.0,0.0,14.1150484085083,0.9959182739257812,4.954953193664551,-2554.851806640625,0
1833.8779999999988,-0.00011342210200382397,0.006303887348622084,-0.00022781093139201403,0.0,0.0,0.0,0.0,0.0004327528295107186,0.002046058187261224,0.0013746579643338919,0.9988368153572083,0.0,0.0,0.0,14.115178108215332,1.0355908870697021,4.979238510131836,-2554.87548828125,0
1843.7979999999989,-0.00011688834638334811,0.006294731982052326,-0.00020136639068368822,0.0,0.0,0.0,0.0,0.0019076128955930471,-0.0021026490721851587,-0.0020353866275399923,1.0009688138961792,0.0,0.0,0.0,14.127264022827148,1.0436029434204102,4.970935821533203,-2557.06298828125,0
1853.7079999999987,-0.00012977453297935426,0.006315253209322691,-0.0002425777493044734,0.0,0.0,0.0,0.0,0.0002872888871934265,0.0036934504751116037,-0.0009706659475341439,1.000779151916504,0.0,0.0,0.0,14.129447937011719,1.0562694072723389,4.9707441329956055,-2557.458251953125,0
1863.6319999999996,-0.00012711425370071083,0.006324884481728077,-0.00020574250083882362,0.0,0.0,0.0,0.0,-0.0008529288461431861,-0.0009950360981747508,-0.0016223459970206022,0.9989370703697205,0.0,0.0,0.0,14.145240783691406,1.0571982860565186,4.949767112731934,-2560.316650390625,0
1873.5289999999986,-0.00014831205771770328,0.006321989465504885,-0.00022924362565390766,0.0,0.0,0.0,0.0,-0.00015706972044426948,0.0010031868005171418,-0.002189234597608447,0.9982874989509583,0.0,0.0,0.0,14.141107559204102,1.0545986890792847,4.9447526931762695,-2559.568603515625,0
1883.4489999999987,-8.63791792653501e-05,0.006305965129286051,-0.00019044888904318213,0.0,0.0,0.0,0.0,-0.00036371045280247927,-0.0008003658731468022,-0.0006416239775717258,0.9995425939559937,0.0,0.0,0.0,14.152962684631348,1.051994800567627,4.953471660614014,-2561.71435546875,0
1893.3590000000004,-0.00011112420179415494,0.006305235903710127,-0.00020242697792127728,0.0,0.0,0.0,0.0,0.0012698291102424264,0.001377859734930098,-0.00034723166027106345,0.9995319247245789,0.0,0.0,0.0,14.148991584777832,1.0550739765167236,4.947644233703613,-2560.995849609375,0
1903.2839999999997,-0.00010918356565525755,0.006292534992098808,-0.0001896806206787005,0.0,0.0,0.0,0.0,0.00011734975851140916,0.004560984671115875,-0.001226679072715342,0.9994614124298096,0.0,0.0,0.0,14.15967845916748,1.0490446090698242,4.9531402587890625,-2562.929931640625,0
1913.1809999999987,-0.0001730066433083266,0.006244029849767685,-0.00016615436470601708,0.0,0.0,0.0,0.0,-0.0017319837352260947,-0.005290658678859472,0.0008661877363920212,0.9975837469100952,0.0,0.0,0.0,14.163300514221191,1.0443058013916016,4.933639049530029,-2563.58544921875,0
1923.1029999999992,-8.610068471170962e-05,0.006210753694176674,-0.0001352996041532606,0.0,0.0,0.0,0.0,-0.0009241680381819606,0.0006658477359451354,0.0004933830932714045,1.001171350479126,0.0,0.0,0.0,14.176468849182129,1.0367071628570557,4.9484686851501465,-2565.968994140625,0
1933.0109999999986,-8.52012526593171e-05,0.006232065614312887,-0.00016280135605484247,0.0,0.0,0.0,0.0,0.00013234389189165086,0.0005140953580848873,-0.0026162934955209494,1.0004643201828003,0.0,0.0,0.0,14.177936553955078,1.0426602363586426,4.9616923332214355,-2566.234619140625,0
1942.937,-8.6922591435723e-05,0.006207404658198357,-0.00013272518117446452,0.0,0.0,0.0,0.0,-0.0023023958783596754,0.0023567609023302794,-9.05668712221086e-05,1.0021051168441772,0.0,0.0,0.0,14.173988342285156,1.0417160987854004,4.944451808929443,-2565.52001953125,0
1952.8359999999993,-9.732572652865201e-05,0.00621446780860424,-0.00011694669228745624,0.0,0.0,0.0,0.0,0.0029467453714460135,0.0007623588317073882,0.0009700274677015841,1.0026400089263916,0.0,0.0,0.0,14.180726051330566,1.042928695678711,4.943280220031738,-2566.73974609375,0
1962.7569999999996,-0.00011566543253138661,0.006174939684569836,-9.194884478347376e-05,0.0,0.0,0.0,0.0,0.0014459800440818071,-0.0021130123641341925,-0.002764760982245207,0.9999417066574097,0.0,0.0,0.0,14.170674324035645,1.032971978187561,4.935426235198975,-2564.92041015625,0
1972.6579999999994,-8.507234451826662e-05,0.006186285521835089,-0.00012607694952748716,0.0,0.0,0.0,0.0,-2.2774400349589996e-05,3.984773502452299e-05,-0.002374710515141487,0.9982505440711975,0.0,0.0,0.0,14.185625076293945,1.0326741933822632,4.940751552581787,-2567.626220703125,0
1982.589,-0.00011823961540358141,0.006161039229482412,-9.778066305443645e-05,0.0,0.0,0.0,0.0,0.0021658821497112513,0.002222809474915266,-0.0015506877098232508,0.9987441301345825,0.0,0.0,0.0,14.173885345458984,1.0330060720443726,4.943431377410889,-2565.501220703125,0
1992.485999999999,-7.078467024257407e-05,0.00622399989515543,-0.00013216081424616277,0.0,0.0,0.0,0.0,0.0009166546515189111,0.004414399154484272,0.0003886544145643711,0.9988287687301636,0.0,0.0,0.0,14.188652992248535,1.040792465209961,4.953172206878662,-2568.17431640625,0
2002.4069999999992,-4.373079718789086e-05,0.0062238904647529125,-9.721081733005121e-05,0.0,0.0,0.0,0.0,-0.002933490090072155,0.0027801680844277143,2.5189958250848576e-05,1.0010095834732056,0.0,0.0,0.0,14.191636085510254,1.0346084833145142,4.948282718658447,-2568.71435546875,0
2012.312,-3.4757900721160695e-05,0.006270496640354395,-0.00012149083340773359,0.0,0.0,0.0,0.0,0.00071598996873945,-0.0011973156360909343,-0.001784285414032638,1.0020534992218018,0.0,0.0,0.0,14.18574047088623,1.037583827972412,4.952630043029785,-2567.647216796875,0
2022.235999999999,-1.801752659957856e-05,0.00626622699201107,-9.94882284430787e-05,0.0,0.0,0.0,0.0,0.00297689251601696,-0.0008150101057253778,0.0022292069625109434,0.999875009059906,0.0,0.0,0.0,14.190462112426758,1.0394201278686523,4.948226451873779,-2568.501953125,0
2032.1399999999994,-4.991379319108091e-05,0.006253907456994057,-9.246949048247188e-05,0.0,0.0,0.0,0.0,0.0012594022555276752,0.005613663233816624,0.0024572748225182295,1.0006000995635986,0.0,0.0,0.0,14.176704406738281,1.0332914590835571,4.944439888000488,-2566.01171875,0
2042.062,-5.0938240747200325e-05,0.006244951859116554,-8.026027353480458e-05,0.0,0.0,0.0,0.0,0.0001552863686811179,-0.004576112609356642,0.0038872011937201023,0.9997240900993347,0.0,0.0,0.0,14.18321418762207,1.0240309238433838,4.937252044677734,-2567.190185546875,0
2051.9619999999995,-3.3840700780274346e-05,0.006302493624389172,-0.0001206755405291915,0.0,0.0,0.0,0.0,4.281932433514157e-06,-0.004905367735773325,0.004168303683400154,0.9991934299468994,0.0,0.0,0.0,14.178977012634277,1.0381386280059814,4.938003063201904,-2566.423095703125,0
2061.896999999999,-0.00011056975199608132,0.006319537293165922,-0.00012107042857678607,0.0,0.0,0.0,0.0,-0.00013335724361240864,0.0011251859832555056,-0.00047447116230614483,1.0000557899475098,0.0,0.0,0.0,14.179312705993652,1.047613501548767,4.9403204917907715,-2566.48388671875,0
2071.789999999999,-9.696382039692253e-05,0.006369780283421278,-0.00015866762259975076,0.0,0.0,0.0,0.0,-0.0007581394747830927,0.0005472234333865345,0.00171791878528893,0.9992820024490356,0.0,0.0,0.0,14.173462867736816,1.0602754354476929,4.943833351135254,-2565.4248046875,0
2081.708999999999,-0.00012515012349467725,0.006387362722307444,-0.00015092073590494692,0.0,0.0,0.0,0.0,-0.0008313634898513556,-0.0018432257929816842,-0.003658377332612872,1.0014888048171997,0.0,0.0,0.0,14.185302734375,1.069289207458496,4.944542407989502,-2567.56787109375,0
2091.6139999999996,-0.00012684300600085407,0.006409609690308571,-0.00017955392831936479,0.0,0.0,0.0,0.0,0.0015227491967380047,-0.0010869910474866629,-0.0008232910768128932,0.9990743398666382,0.0,0.0,0.0,14.177556037902832,1.0745019912719727,4.940437316894531,-2566.166015625,0
2101.5379999999986,-0.00012154756404925138,0.006393461022526026,-0.00018233743321616203,0.0,0.0,0.0,0.0,0.00035732006654143333,-0.0013843870256096125,0.0030258786864578724,1.0006532669067383,0.0,0.0,0.0,14.181191444396973,1.0620064735412598,4.94209098815918,-2566.82373046875,0
2111.4399999999987,-0.00013192251208238304,0.006413038354367018,-0.00020005540864076465,0.0,0.0,0.0,0.0,0.00035975314676761627,0.003214440541341901,-0.0008353456505574286,1.001478910446167,0.0,0.0,0.0,14.1774320602417,1.0664149522781372,4.937503337860107,-2566.1435546875,0
2121.3599999999988,-0.00011597050615819171,0.006406653206795454,-0.00019187197904102504,0.0,0.0,0.0,0.0,0.0003776115190703422,-0.0009394875960424542,0.0014988462207838893,0.99867844581604,0.0,0.0,0.0,14.179712295532227,1.0624196529388428,4.933962345123291,-2566.55615234375,0
2131.2659999999996,-0.00013459482579492033,0.006417103577405214,-0.00020254762785043567,0.0,0.0,0.0,0.0,-0.0014368544798344374,-0.004609748721122742,0.002381215337663889,0.9998154640197754,0.0,0.0,0.0,14.172135353088379,1.0626788139343262,4.925698280334473,-2565.1845703125,0
2141.188,-0.00012973806587979198,0.006420292891561985,-0.0001918143971124664,0.0,0.0,0.0,0.0,0.0014226756757125258,-0.0013620381942018867,-0.001594080706126988,0.9995431303977966,0.0,0.0,0.0,14.173413276672363,1.0621578693389893,4.927338600158691,-2565.416015625,0
2151.0919999999987,-0.00011196587729500607,0.006447054911404848,-0.0002460696850903332,0.0,0.0,0.0,0.0,-0.0024952387902885675,-0.0025789467617869377,-0.003016242291778326,0.9992597699165344,0.0,0.0,0.0,14.171101570129395,1.071793794631958,4.932354927062988,-2564.99755859375,0
2161.012999999999,-4.7710229409858584e-05,0.006406963802874088,-0.00024937599664554,0.0,0.0,0.0,0.0,-0.0013005658984184265,-0.0019044122891500592,-0.002913892501965165,0.9982725381851196,0.0,0.0,0.0,14.180598258972168,1.056878924369812,4.935655117034912,-2566.71630859375,0
