timestamp,stateEstimate.x,stateEstimate.y,stateEstimate.z,controller.cmd_thrust,controller.cmd_roll,controller.cmd_pitch,controller.cmd_yaw,controller.r_roll,controller.r_pitch,controller.r_yaw,controller.accelz,controller.actuatorThrust,controller.roll,controller.pitch,controller.yaw,controller.rollRate,controller.pitchRate,controller.yawRate,controller.ctr_yaw
0.0,-0.00025170479784719646,0.012638538144528866,-0.0002262556809000671,0.0,0.0,0.0,0.0,-0.001326901139691472,-0.004044084344059229,-0.000406309642130509,0.9988510012626648,0.0,0.0,0.0,1.2672600746154785,1.51443612575531,3.6646406650543213,-229.3765869140625,0
9.912999999998647,-0.0002843039110302925,0.012630571611225605,-0.00022811326198279858,0.0,0.0,0.0,0.0,0.002349718939512968,-7.906362588983029e-05,0.0007334364927373827,0.9965324401855469,0.0,0.0,0.0,1.2651044130325317,1.5160531997680664,3.6618587970733643,-228.98641967773438,0
19.82799999999952,-0.00024107066565193236,0.01264138799160719,-0.0001577204529894516,0.0,0.0,0.0,0.0,0.0022761691361665726,0.0028957989998161793,-0.003143029985949397,0.9977064728736877,0.0,0.0,0.0,1.2700003385543823,1.5166728496551514,3.673521041870117,-229.87257385253906,0
29.738999999999578,-0.0002744470548350364,0.0126327620819211,-0.00015874944801907986,0.0,0.0,0.0,0.0,0.0007660448318347335,0.0014587686164304614,-0.003111239755526185,0.9993351697921753,0.0,0.0,0.0,1.2687312364578247,1.5133031606674194,3.6664326190948486,-229.6428680419922,0
39.65399999999863,-0.000221841866732575,0.012642746791243553,-0.00012121595500502735,0.0,0.0,0.0,0.0,-0.0011943362187594175,-0.00186966045293957,0.0015881875297054648,0.9995664954185486,0.0,0.0,0.0,1.2671561241149902,1.508072853088379,3.6603429317474365,-229.35777282714844,0
49.56499999999869,-0.0002569853386376053,0.01263359747827053,-0.0001221043203258887,0.0,0.0,0.0,0.0,0.0030346489511430264,0.003577031195163727,0.0006854442181065679,0.9987541437149048,0.0,0.0,0.0,1.266404628753662,1.5067416429519653,3.6606829166412354,-229.2217559814453,0
59.477999999999156,-0.0002929285110440105,0.012623215094208717,-0.00012385887384880334,0.0,0.0,0.0,0.0,-0.0024328799918293953,-0.00221789488568902,0.001826574094593525,0.9988747835159302,0.0,0.0,0.0,1.266600489616394,1.500372052192688,3.655337333679199,-229.25721740722656,0
69.39099999999962,-0.000329216243699193,0.012612627819180489,-0.00012696853082161397,0.0,0.0,0.0,0.0,0.00201088166795671,0.0008781981305219233,0.001885578385554254,0.9985997676849365,0.0,0.0,0.0,1.2656197547912598,1.5051180124282837,3.658092737197876,-229.0797119140625,0
79.3109999999997,-0.00036519631976261735,0.012602590955793858,-0.0001311691739829257,0.0,0.0,0.0,0.0,-0.0006366242887452245,0.002553518395870924,0.0008382266969420016,0.9968994855880737,0.0,0.0,0.0,1.2642334699630737,1.502779245376587,3.6520090103149414,-228.8287811279297,0
89.22599999999875,-0.00040151498978957534,0.012592996470630169,-0.00013719616981688887,0.0,0.0,0.0,0.0,0.00546910660341382,0.0058153546415269375,0.0028544985689222813,0.9997696876525879,0.0,0.0,0.0,1.263551115989685,1.4980192184448242,3.6558151245117188,-228.70526123046875,0
99.1309999999994,-0.00022296170936897397,0.01263339165598154,-0.0002214651321992278,0.0,0.0,0.0,0.0,-0.00015314979827962816,0.0015489705838263035,0.0006592946592718363,1.0003182888031006,0.0,0.0,0.0,1.2687517404556274,1.4949302673339844,3.6852545738220215,-229.64657592773438,0
109.04399999999987,-0.0002509389887563884,0.012627375312149525,-0.0002344160748180002,0.0,0.0,0.0,0.0,-0.0006929590599611402,-0.0038647570181638002,-0.001706210314296186,0.9996844530105591,0.0,0.0,0.0,1.2678967714309692,1.4873777627944946,3.6713039875030518,-229.49183654785156,0
118.95700000000033,-0.00020764944201800972,0.012607371434569359,-0.00020955404033884406,0.0,0.0,0.0,0.0,0.003068918129429221,-0.0014100989792495966,-0.0030663693323731422,1.0004810094833374,0.0,0.0,0.0,1.2677674293518066,1.486785888671875,3.682004690170288,-229.46841430664062,0
128.86999999999898,-0.00023804156808182597,0.01260030921548605,-0.00021996564464643598,0.0,0.0,0.0,0.0,-0.0003493697731755674,-0.0013379090232774615,-0.0025203344412148,0.9997503161430359,0.0,0.0,0.0,1.2657819986343384,1.4837117195129395,3.6716673374176025,-229.10906982421875,0
138.78299999999945,-0.00021711848967242986,0.012597928754985332,-0.00020496478828135878,0.0,0.0,0.0,0.0,0.0006520916940644383,-0.0011471480829641223,-0.0022139335051178932,0.998848021030426,0.0,0.0,0.0,1.2741870880126953,1.4905678033828735,3.6740288734436035,-230.63040161132812,0
148.6959999999999,-0.00024950734223239124,0.012589449062943459,-0.00021387588640209287,0.0,0.0,0.0,0.0,0.0028325875755399466,0.0008600104483775795,-0.0014726961962878704,0.9981566071510315,0.0,0.0,0.0,1.2725460529327393,1.4873863458633423,3.6647770404815674,-230.3333740234375,0
158.60900000000038,-0.00026838204939849675,0.012575441040098667,-0.000253536447416991,0.0,0.0,0.0,0.0,0.0010617102961987257,0.0066219898872077465,-0.002311150310561061,0.9969980120658875,0.0,0.0,0.0,1.2712286710739136,1.4842561483383179,3.654388189315796,-230.0949249267578,0
168.52599999999984,-0.0003031477390322834,0.012565869837999344,-0.0002677950542420149,0.0,0.0,0.0,0.0,0.0027793580666184425,0.004103760235011578,0.0033539878204464912,0.9976863861083984,0.0,0.0,0.0,1.2698627710342407,1.4801664352416992,3.6434648036956787,-229.84767150878906,0
178.4359999999997,-0.0003393857041373849,0.012555823661386967,-0.0002843996335286647,0.0,0.0,0.0,0.0,-0.0018619898473843932,-0.0023548691533505917,0.0025913447607308626,0.9966123700141907,0.0,0.0,0.0,1.269202709197998,1.4738919734954834,3.6376447677612305,-229.72821044921875,0
188.35399999999936,-0.00037779833655804396,0.012546214275062084,-0.0003037913702428341,0.0,0.0,0.0,0.0,0.0015097466530278325,0.0011173259699717164,-0.000457249756436795,0.9991028308868408,0.0,0.0,0.0,1.2680401802062988,1.4670705795288086,3.630362033843994,-229.51780700683594,0
198.2619999999988,-0.0003867546911351383,0.012562958523631096,-0.00037199293728917837,0.0,0.0,0.0,0.0,3.803733125096187e-05,0.001415088539943099,-0.0002366750268265605,1.0002888441085815,0.0,0.0,0.0,1.267404317855835,1.4666125774383545,3.631418466567993,-229.4027099609375,0
208.17499999999927,-0.0004260965215507895,0.012555418536067009,-0.00039829136221669614,0.0,0.0,0.0,0.0,-0.0013509097043424845,0.00047111714957281947,-0.0002201934257755056,0.9997800588607788,0.0,0.0,0.0,1.2668544054031372,1.4623433351516724,3.6210036277770996,-229.30316162109375,0
218.08799999999974,-0.00044045044342055917,0.012571404688060284,-0.0004553612961899489,0.0,0.0,0.0,0.0,-0.0017077079974114895,-0.002653723582625389,-0.006562414113432169,0.9986314177513123,0.0,0.0,0.0,1.2653597593307495,1.462735891342163,3.6221296787261963,-229.03265380859375,0
228.003999999999,-0.0002407270367257297,0.012539994902908802,-0.00022091035498306155,0.0,0.0,0.0,0.0,0.0014645338524132967,0.0016596460482105613,-0.002893427386879921,1.0007288455963135,0.0,0.0,0.0,1.2669326066970825,1.4700385332107544,3.686401844024658,-229.3173065185547,0
237.92399999999907,-0.0002540968416724354,0.012536654248833656,-0.00025932167773135006,0.0,0.0,0.0,0.0,-0.0009191487333737314,-0.0031383647583425045,-0.0017410218715667725,0.9970715045928955,0.0,0.0,0.0,1.2645583152770996,1.4707072973251343,3.674596071243286,-228.8875732421875,0
247.83299999999872,-0.0001937871566042304,0.012555376626551151,-0.00019426140352152288,0.0,0.0,0.0,0.0,0.00017467884754296392,-0.004245852120220661,0.004266261123120785,0.9986279606819153,0.0,0.0,0.0,1.2637327909469604,1.4707335233688354,3.673161745071411,-228.7381591796875,0
257.7489999999998,-0.00021916271361988038,0.012544377706944942,-0.0002062006387859583,0.0,0.0,0.0,0.0,0.0011999038979411125,0.001486727618612349,0.0002885803987737745,0.9998708963394165,0.0,0.0,0.0,1.2635579109191895,1.4684650897979736,3.673105001449585,-228.7064971923828,0
267.65599999999904,-0.00019393442198634148,0.012583807110786438,-0.00015943075413815677,0.0,0.0,0.0,0.0,-0.0012789652682840824,0.0010544913820922375,0.002886927919462323,0.9991370439529419,0.0,0.0,0.0,1.2622616291046143,1.4629826545715332,3.6760456562042236,-228.47186279296875,0
277.5669999999991,-0.0002215149434050545,0.012572536244988441,-0.00016821915050968528,0.0,0.0,0.0,0.0,0.004806181415915489,-0.0010677158134058118,0.002148004248738289,0.9981161952018738,0.0,0.0,0.0,1.2603565454483032,1.4706804752349854,3.674370288848877,-228.1270294189453,0
287.47999999999956,-0.00025150796864181757,0.012559054419398308,-0.0001779489975888282,0.0,0.0,0.0,0.0,-0.0005662867915816605,-0.0018331871833652258,-0.004147988278418779,1.0008972883224487,0.0,0.0,0.0,1.260830044746399,1.4693788290023804,3.673469066619873,-228.21273803710938,0
297.40499999999884,-0.0002210929524153471,0.012582671828567982,-0.00031323052826337516,0.0,0.0,0.0,0.0,-0.00020896639034617692,0.003103711875155568,-0.0057140435092151165,1.0000723600387573,0.0,0.0,0.0,1.2492810487747192,1.4765199422836304,3.6862740516662598,-226.1223602294922,0
307.3069999999989,-0.0001891722931759432,0.012611588463187218,-0.00024702431983314455,0.0,0.0,0.0,0.0,-9.655373287387192e-05,-0.0015005799941718578,-0.0008461005054414272,0.9984021782875061,0.0,0.0,0.0,1.255423903465271,1.4908236265182495,3.6876137256622314,-227.23423767089844,0
317.21999999999935,-0.0002214206469943747,0.012579930946230888,-0.00026909541338682175,0.0,0.0,0.0,0.0,-0.0006927846698090434,0.0006622913060709834,-0.0010546972043812275,0.9998572468757629,0.0,0.0,0.0,1.2448740005493164,1.4875354766845703,3.685781955718994,-225.3246612548828,0
327.134,-0.00025474189897067845,0.01256538275629282,-0.00028339828713797033,0.0,0.0,0.0,0.0,-0.0026189456693828106,0.0016184673877432942,-0.001301950542256236,0.9983004331588745,0.0,0.0,0.0,1.2442128658294678,1.4894132614135742,3.6789238452911377,-225.20498657226562,0
337.0499999999993,-0.0002795213367789984,0.0125579247251153,-0.0003193508309777826,0.0,0.0,0.0,0.0,0.003707043593749404,0.00423088576644659,0.00043045400525443256,0.9995658993721008,0.0,0.0,0.0,1.2368663549423218,1.4899861812591553,3.685743570327759,-223.87527465820312,0
346.96600000000035,-0.0002168951032217592,0.012583536095917225,-0.00021813329658471048,0.0,0.0,0.0,0.0,0.0015751183964312077,-0.0003297726216260344,0.001169203664176166,1.0017834901809692,0.0,0.0,0.0,1.2465919256210327,1.4955549240112305,3.6948609352111816,-225.6356201171875,0
356.8719999999994,-0.00023812154540792108,0.012570030987262726,-0.0002567348419688642,0.0,0.0,0.0,0.0,0.00016845815116539598,-0.0019240949768573046,0.002871308010071516,1.000970482826233,0.0,0.0,0.0,1.2458703517913818,1.4919747114181519,3.6939241886138916,-225.50498962402344,0
366.78600000000006,-0.0002518785186111927,0.012585405260324478,-0.00023448135470971465,0.0,0.0,0.0,0.0,0.0004753780085593462,0.00030616202275268734,0.0008524179575033486,1.0009368658065796,0.0,0.0,0.0,1.2530367374420166,1.4906076192855835,3.7000787258148193,-226.8021240234375,0
376.6980000000003,-0.00028968811966478825,0.012573769316077232,-0.00024082529125735164,0.0,0.0,0.0,0.0,-0.0028290897607803345,-0.0006904881447553635,-0.0008529784390702844,0.9997081160545349,0.0,0.0,0.0,1.2519762516021729,1.4912546873092651,3.6994497776031494,-226.6101837158203,0
386.61199999999917,-0.00029209000058472157,0.012607468292117119,-0.00019981183868367225,0.0,0.0,0.0,0.0,-0.00034238171065226197,-0.004069293849170208,-1.934541251102928e-05,0.9985472559928894,0.0,0.0,0.0,1.2614089250564575,1.5062637329101562,3.697458267211914,-228.3175048828125,0
396.52399999999943,-0.00033362756948918104,0.0125977648422122,-0.00020189724455121905,0.0,0.0,0.0,0.0,-0.0006270040175877512,0.002225165255367756,-0.0007689543999731541,0.9994293451309204,0.0,0.0,0.0,1.2585960626602173,1.506714105606079,3.6908068656921387,-227.80838012695312,0
406.4449999999997,-0.00037713898927904665,0.012586998753249645,-0.00020499479433055967,0.0,0.0,0.0,0.0,0.001412457786500454,-0.001402244670316577,0.001206147950142622,0.9997463822364807,0.0,0.0,0.0,1.2577275037765503,1.5091769695281982,3.69657826423645,-227.65118408203125,0
416.35199999999895,-0.00042205399950034916,0.012574712745845318,-0.00020852616580668837,0.0,0.0,0.0,0.0,-0.0020116332452744246,0.002057405887171626,0.002141212113201618,0.9993802309036255,0.0,0.0,0.0,1.2577921152114868,1.5019972324371338,3.6949708461761475,-227.6628875732422,0
426.2639999999992,-0.0004684216110035777,0.012561463750898838,-0.0002123871963704005,0.0,0.0,0.0,0.0,-0.0003729560994543135,-0.001705283299088478,-0.002262486144900322,0.9983943104743958,0.0,0.0,0.0,1.2570908069610596,1.5074372291564941,3.6921801567077637,-227.5359344482422,0
436.1829999999991,-0.00041744482587091625,0.012683510780334473,-0.000356742792064324,0.0,0.0,0.0,0.0,-0.0023405083920806646,-0.0001688999036559835,0.0022317192051559687,0.9970117211341858,0.0,0.0,0.0,1.2483750581741333,1.547189474105835,3.726135015487671,-225.9583740234375,0
446.09000000000015,-0.00046126352390274405,0.012678250670433044,-0.0003714687190949917,0.0,0.0,0.0,0.0,-0.0018921697046607733,0.0017518701497465372,0.0010416405275464058,0.9994939565658569,0.0,0.0,0.0,1.2473403215408325,1.5493215322494507,3.7185263633728027,-225.77105712890625,0
456.0139999999992,-0.0005063142743892968,0.012673250399529934,-0.000388164771720767,0.0,0.0,0.0,0.0,-0.0011956192320212722,-0.0016134805046021938,0.002262756461277604,1.00011146068573,0.0,0.0,0.0,1.245854139328003,1.5518549680709839,3.715258836746216,-225.50209045410156,0
465.92399999999907,-0.00027714480529539287,0.012622922658920288,-0.0002297976316185668,0.0,0.0,0.0,0.0,0.0021652590949088335,0.0038695968687534332,0.00038978035445325077,0.9986703991889954,0.0,0.0,0.0,1.253243327140808,1.5395712852478027,3.79280686378479,-226.8395233154297,0
475.84399999999914,-0.00029132343479432166,0.0126112699508667,-0.00028744459268637,0.0,0.0,0.0,0.0,0.00047409872058779,0.001182813080959022,-0.00043570372508838773,0.9992179274559021,0.0,0.0,0.0,1.2515742778778076,1.5356584787368774,3.7875428199768066,-226.5374298095703,0
485.7430000000004,-0.00018749013543128967,0.012618768960237503,-0.00018983142217621207,0.0,0.0,0.0,0.0,-0.002532340819016099,0.0017273069825023413,0.00038866084651090205,0.998589277267456,0.0,0.0,0.0,1.2598127126693726,1.5400761365890503,3.8015472888946533,-228.0286102294922,0
495.66899999999987,-0.00021558531443588436,0.012589873746037483,-0.00021178483439143747,0.0,0.0,0.0,0.0,-0.002610492054373026,-0.00028693402418866754,0.003749691415578127,0.9999344348907471,0.0,0.0,0.0,1.258337378501892,1.538148045539856,3.791565179824829,-227.7615509033203,0
505.5689999999995,-0.0002449499152135104,0.012583214789628983,-0.00021884996385779232,0.0,0.0,0.0,0.0,0.004268178716301918,-0.0020434693433344364,0.0030500793363898993,0.999401330947876,0.0,0.0,0.0,1.257014513015747,1.5414314270019531,3.7932868003845215,-227.52212524414062,0
515.4920000000002,-0.00024290135479532182,0.012579760514199734,-0.00029037671629339457,0.0,0.0,0.0,0.0,-0.0010822804179042578,0.004977596458047628,0.0002614168042782694,1.0002110004425049,0.0,0.0,0.0,1.2564904689788818,1.5376447439193726,3.788926124572754,-227.42726135253906,0
525.396999999999,-0.0001923514500958845,0.012604654766619205,-0.00020933999621775,0.0,0.0,0.0,0.0,-0.003360152244567871,-0.005386122968047857,0.0017364234663546085,0.9990208745002747,0.0,0.0,0.0,1.2651206254959106,1.5384472608566284,3.787982702255249,-228.98936462402344,0
535.3269999999993,-0.00022153308964334428,0.012595534324645996,-0.00021557642321567982,0.0,0.0,0.0,0.0,4.3949294195044786e-05,-0.0019258111715316772,-0.003681865753605962,0.9989986419677734,0.0,0.0,0.0,1.2647689580917358,1.540651798248291,3.796135425567627,-228.9257049560547,0
545.2219999999998,-0.00017128064064309,0.012621366418898106,-0.0001661189744481817,0.0,0.0,0.0,0.0,0.000285062356851995,-0.0039283293299376965,0.002924001310020685,0.9986503720283508,0.0,0.0,0.0,1.2568447589874268,1.5512911081314087,3.804624557495117,-227.4914093017578,0
555.1440000000002,-0.00020511934417299926,0.012610177509486675,-0.00017059485253412277,0.0,0.0,0.0,0.0,-0.0013006423832848668,-0.00013083394151180983,-0.0037806378677487373,1.001259446144104,0.0,0.0,0.0,1.2565655708312988,1.557924747467041,3.8153278827667236,-227.44088745117188,0
565.0550000000003,-0.0001805507781682536,0.012629861943423748,-0.0001354794076178223,0.0,0.0,0.0,0.0,-0.002638967474922538,-0.004199862014502287,-0.0013656221562996507,1.000359058380127,0.0,0.0,0.0,1.2657257318496704,1.5634348392486572,3.8145105838775635,-229.09889221191406,0
574.9789999999994,-0.00021297007333487272,0.012620087713003159,-0.0001360067690256983,0.0,0.0,0.0,0.0,-0.0005413120379671454,-0.0014519006945192814,-0.002061321400105953,1.0003645420074463,0.0,0.0,0.0,1.263601303100586,1.5685595273971558,3.8254144191741943,-228.71434020996094,0
584.884,-0.0002460821415297687,0.012610194273293018,-0.0001359726011287421,0.0,0.0,0.0,0.0,-0.00266633415594697,0.005873330403119326,-0.0019680182449519634,0.9998226761817932,0.0,0.0,0.0,1.2619171142578125,1.5694936513900757,3.8292856216430664,-228.40951538085938,0
594.7969999999987,-0.0002801381051540375,0.012600249610841274,-0.0001356670109089464,0.0,0.0,0.0,0.0,0.0004508184501901269,0.0018786482978612185,-1.7795549865695648e-05,0.9981343746185303,0.0,0.0,0.0,1.2615855932235718,1.5732159614562988,3.819323778152466,-228.34950256347656,0
604.7009999999991,-0.00019445685029495507,0.01262772548943758,-7.761738379485905e-05,0.0,0.0,0.0,0.0,0.001256001996807754,-0.0011107922764495015,0.0010907059768214822,0.9965956807136536,0.0,0.0,0.0,1.2599035501480103,1.5720714330673218,3.810103416442871,-228.04502868652344,0
614.6299999999992,-0.0001876822061603889,0.012640045955777168,-0.00020200297876726836,0.0,0.0,0.0,0.0,-0.0008907843148335814,9.323820268036798e-05,0.0018379396060481668,0.9991798400878906,0.0,0.0,0.0,1.2589492797851562,1.567633867263794,3.80763578414917,-227.87232971191406,0
624.5289999999986,-0.0002197051653638482,0.012630406767129898,-0.00021013985679019243,0.0,0.0,0.0,0.0,-0.003778605256229639,-0.003062656382098794,-0.0015021952567622066,0.9991143345832825,0.0,0.0,0.0,1.2590411901474,1.5606014728546143,3.8092284202575684,-227.8889617919922,0
634.4609999999993,-0.00024740881053730845,0.012600149028003216,-0.00025184309924952686,0.0,0.0,0.0,0.0,-0.002814261242747307,-0.005668605212122202,0.0036718263290822506,0.997344970703125,0.0,0.0,0.0,1.2574100494384766,1.5613641738891602,3.806865692138672,-227.59373474121094,0
644.3529999999992,-0.00020004360703751445,0.012608050368726254,-0.00016820651944726706,0.0,0.0,0.0,0.0,0.0028141336515545845,0.0056280349381268024,0.0037344552110880613,0.9987196922302246,0.0,0.0,0.0,1.2647755146026611,1.5748006105422974,3.8224244117736816,-228.92689514160156,0
654.280999999999,-0.00022009271197021008,0.01258508488535881,-0.00020868575666099787,0.0,0.0,0.0,0.0,0.0030892195645719767,-0.002165679121389985,0.0014587390469387174,0.9989196062088013,0.0,0.0,0.0,1.2625590562820435,1.5745033025741577,3.8153560161590576,-228.5256805419922,0
664.1800000000003,-0.00025091730640269816,0.012574410997331142,-0.00022047807578928769,0.0,0.0,0.0,0.0,-8.641995373181999e-05,-7.266575994435698e-05,0.002028700429946184,0.9990731477737427,0.0,0.0,0.0,1.261688470840454,1.564361572265625,3.805081367492676,-228.36810302734375,0
674.1000000000004,-0.00026505161076784134,0.012575976550579071,-0.0002651714894454926,0.0,0.0,0.0,0.0,-0.0006857695407234132,0.001269832020625472,-0.0006842272123321891,1.0003730058670044,0.0,0.0,0.0,1.25518000125885,1.5719923973083496,3.815361738204956,-227.19007873535156,0
684.0069999999996,-0.00020155948004685342,0.01259138248860836,-0.0001820122415665537,0.0,0.0,0.0,0.0,-0.002303158165886998,0.004262699279934168,0.0027277935296297073,0.9987402558326721,0.0,0.0,0.0,1.2615575790405273,1.5796087980270386,3.831134557723999,-228.34442138671875,0
693.9300000000003,-0.00023260567104443908,0.012582987546920776,-0.00019141938537359238,0.0,0.0,0.0,0.0,0.0013063750229775906,0.0011092721251770854,-0.0018663739319890738,0.9998688101768494,0.0,0.0,0.0,1.2605489492416382,1.580833911895752,3.8241305351257324,-228.16188049316406,0
703.8349999999991,-0.0001868585095508024,0.012610374949872494,-0.00014561900752596557,0.0,0.0,0.0,0.0,0.0013392618857324123,0.0003884572070091963,0.003218722529709339,1.0018908977508545,0.0,0.0,0.0,1.2655513286590576,1.5883691310882568,3.8321011066436768,-229.0673065185547,0
713.759,-0.00020649796351790428,0.012595116160809994,-0.0001778351579559967,0.0,0.0,0.0,0.0,0.001163362991064787,0.0027443107683211565,-0.004688923712819815,0.9993886351585388,0.0,0.0,0.0,1.2577236890792847,1.5881091356277466,3.826263904571533,-227.65049743652344,0
723.6579999999994,-0.00018323758558835834,0.012615581043064594,-0.00013640991528518498,0.0,0.0,0.0,0.0,0.004740982316434383,0.0009506820933893323,-0.00352944852784276,0.9981960654258728,0.0,0.0,0.0,1.2650948762893677,1.591270089149475,3.824082612991333,-228.98471069335938,0
733.5820000000003,-0.00020356786262709647,0.012590834870934486,-0.0001698509295238182,0.0,0.0,0.0,0.0,-0.0013152770698070526,0.001409768359735608,-0.0028034872375428677,0.999863862991333,0.0,0.0,0.0,1.2635449171066284,1.5818579196929932,3.8216304779052734,-228.70413208007812,0
743.4840000000004,-0.00020508615125436336,0.012599967420101166,-0.00015057677228469402,0.0,0.0,0.0,0.0,0.0008851613965816796,0.0030547527130693197,0.00263102725148201,1.0012015104293823,0.0,0.0,0.0,1.2669230699539185,1.5822288990020752,3.810478687286377,-229.31558227539062,0
753.4049999999988,-0.00022202430409379303,0.01258871704339981,-0.00018413284851703793,0.0,0.0,0.0,0.0,-0.0005502317799255252,-0.0043744901195168495,0.00069745525252074,1.0000429153442383,0.0,0.0,0.0,1.2659798860549927,1.5820000171661377,3.8045060634613037,-229.1448974609375,0
763.3119999999999,-0.0002564619935583323,0.0125821428373456,-0.0001897108886623755,0.0,0.0,0.0,0.0,-6.093124466133304e-05,0.0010177880758419633,0.0005626417114399374,0.9988816380500793,0.0,0.0,0.0,1.264551043510437,1.5825862884521484,3.8069345951080322,-228.8862762451172,0
773.232,-0.00029192049987614155,0.012575259432196617,-0.0001953985047293827,0.0,0.0,0.0,0.0,-0.003304253565147519,-0.0020074646454304457,0.004579915665090084,0.9987190365791321,0.0,0.0,0.0,1.2653166055679321,1.5789110660552979,3.804964780807495,-229.0248260498047,0
783.137999999999,-0.0003291147295385599,0.012567879632115364,-0.00020186945039313287,0.0,0.0,0.0,0.0,0.0015837728278711438,-0.002485301112756133,0.0013945510145276785,0.9978141784667969,0.0,0.0,0.0,1.2637314796447754,1.5811481475830078,3.797990560531616,-228.7379150390625,0
793.0720000000001,-0.00036857969826087356,0.012561151757836342,-0.00020984678121749312,0.0,0.0,0.0,0.0,0.0015606204979121685,-0.005068917293101549,0.0031383021268993616,0.9987642765045166,0.0,0.0,0.0,1.2619972229003906,1.5753228664398193,3.793901205062866,-228.4239959716797,0
802.9629999999997,-0.00023962571867741644,0.012579246424138546,-0.00010443764767842367,0.0,0.0,0.0,0.0,0.0024175604339689016,0.006323646754026413,0.0001685833849478513,1.0001366138458252,0.0,0.0,0.0,1.2687773704528809,1.57686185836792,3.838578939437866,-229.65122985839844,0
812.8819999999996,-0.00027239861083216965,0.01257666852325201,-0.00010709715570556,0.0,0.0,0.0,0.0,-0.0011211030650883913,-0.0016553748864680529,-0.0002915619406849146,0.9992484450340271,0.0,0.0,0.0,1.2681409120559692,1.5667848587036133,3.822218418121338,-229.53602600097656,0
822.789999999999,-0.00030647095991298556,0.01257389597594738,-0.00010995273623848334,0.0,0.0,0.0,0.0,0.0012836119858548045,0.0045194607228040695,0.0006009724456816912,0.9991480708122253,0.0,0.0,0.0,1.2673617601394653,1.571341872215271,3.8278865814208984,-229.39500427246094,0
832.7039999999997,-0.00034177256748080254,0.012570083141326904,-0.00011331716814311221,0.0,0.0,0.0,0.0,0.0077471002005040646,0.001810524147003889,-0.0007585484418086708,1.0010915994644165,0.0,0.0,0.0,1.2663068771362305,1.5685664415359497,3.809702157974243,-229.2040557861328,0
842.6149999999998,-0.0003783885622397065,0.012565591372549534,-0.00011671771790133789,0.0,0.0,0.0,0.0,-0.0032694567926228046,0.002475100802257657,0.0009049579966813326,0.9989645481109619,0.0,0.0,0.0,1.2648926973342896,1.5571807622909546,3.8064827919006348,-228.94808959960938,0
852.5289999999986,-0.0004174590576440096,0.012560908682644367,-0.00012010490900138393,0.0,0.0,0.0,0.0,-0.002721115481108427,0.0029095627833157778,-0.0006196298636496067,1.0000710487365723,0.0,0.0,0.0,1.2633354663848877,1.5550986528396606,3.794999361038208,-228.66624450683594,0
862.4439999999995,-0.0004595887439791113,0.012555361725389957,-0.00012369867181405425,0.0,0.0,0.0,0.0,-0.0012301665265113115,0.00011255421122768894,-0.002627009991556406,0.9998797178268433,0.0,0.0,0.0,1.2613669633865356,1.5592784881591797,3.788609266281128,-228.3099365234375,0
872.3580000000002,-0.0005090386839583516,0.012548182159662247,-0.0001274690148420632,0.0,0.0,0.0,0.0,-0.0007173792109824717,-1.2971854630450252e-05,-0.0024278576020151377,1.0005311965942383,0.0,0.0,0.0,1.2602412700653076,1.565200686454773,3.7862300872802734,-228.10617065429688,0
882.271999999999,-0.000403360347263515,0.012644833885133266,-0.0004242542781867087,0.0,0.0,0.0,0.0,0.0009892809903249145,-0.0005068331374786794,-0.000483940850244835,1.0012670755386353,0.0,0.0,0.0,1.2540249824523926,1.584174633026123,3.8312108516693115,-226.98101806640625,0
892.1849999999995,-0.00044253759551793337,0.012642807327210903,-0.00044263896415941417,0.0,0.0,0.0,0.0,-0.001328800804913044,-0.005308857653290033,-0.00013080582721158862,1.000710129737854,0.0,0.0,0.0,1.2532994747161865,1.5749651193618774,3.8250255584716797,-226.8496856689453,0
902.098,-0.00043877793359570205,0.012645244598388672,-0.0005574687384068966,0.0,0.0,0.0,0.0,-0.0016941050998866558,-0.001932875718921423,0.00066779600456357,0.9994075894355774,0.0,0.0,0.0,1.2526732683181763,1.572116494178772,3.833247661590576,-226.73634338378906,0
912.0079999999998,-0.0004765658813994378,0.012643150985240936,-0.0005797704798169434,0.0,0.0,0.0,0.0,-0.0003997751045972109,0.005247887223958969,-0.006296711973845959,0.9990652799606323,0.0,0.0,0.0,1.2508575916290283,1.5796715021133423,3.835489511489868,-226.40771484375,0
921.9219999999987,-0.0005152421072125435,0.01264041755348444,-0.0006025168113410473,0.0,0.0,0.0,0.0,-0.0002964222221635282,-0.002108845394104719,0.004394924268126488,1.0002663135528564,0.0,0.0,0.0,1.247687578201294,1.573685646057129,3.8285813331604004,-225.8339385986328,0
931.8339999999989,-0.0005557435797527432,0.012636248953640461,-0.0006256401538848877,0.0,0.0,0.0,0.0,-0.0015084234764799476,-0.0012403246946632862,-6.0677542933262885e-05,1.0002351999282837,0.0,0.0,0.0,1.2473496198654175,1.5735571384429932,3.8223679065704346,-225.77276611328125,0
941.7489999999998,-0.0005979134002700448,0.01263084914535284,-0.0006487799109891057,0.0,0.0,0.0,0.0,0.0013737903209403157,0.0015982275363057852,0.0032715729903429747,0.9988376498222351,0.0,0.0,0.0,1.2466011047363281,1.570652723312378,3.8191192150115967,-225.6372833251953,0
951.6599999999999,-0.0006409780471585691,0.012624445371329784,-0.0006719827651977539,0.0,0.0,0.0,0.0,0.00035688909702003,-0.0002184626937378198,-0.0007448738906532526,1.0003479719161987,0.0,0.0,0.0,1.2466683387756348,1.5709792375564575,3.813001871109009,-225.6494598388672,0
961.5739999999987,-0.0006323056295514107,0.012722725048661232,-0.000685427337884903,0.0,0.0,0.0,0.0,-0.0016376478597521782,-0.0013569131260737777,-0.00011191961675649509,1.0012085437774658,0.0,0.0,0.0,1.2462290525436401,1.565102219581604,3.8152124881744385,-225.56993103027344,0
971.4869999999992,-0.0006706223357468843,0.012720543891191483,-0.0007084197131916881,0.0,0.0,0.0,0.0,-0.0017278051236644387,-0.001864245510660112,-0.0028725406154990196,0.9988839626312256,0.0,0.0,0.0,1.2449697256088257,1.5696430206298828,3.815692901611328,-225.34201049804688,0
981.3999999999996,-0.0007090202416293323,0.01271684281527996,-0.0007312122033908963,0.0,0.0,0.0,0.0,-0.0034648836590349674,0.00021997050498612225,-0.0015551019459962845,1.000341534614563,0.0,0.0,0.0,1.2432655096054077,1.5708706378936768,3.821240186691284,-225.03353881835938,0
991.3130000000001,-0.0007478087791241705,0.012711559422314167,-0.0007542857201769948,0.0,0.0,0.0,0.0,-0.0014275847934186459,-0.0008484921418130398,-0.0013143811374902725,1.0001013278961182,0.0,0.0,0.0,1.2415885925292969,1.5720969438552856,3.8178300857543945,-224.72999572753906,0
1001.2330000000002,-0.0007872307323850691,0.012705138884484768,-0.0007769478252157569,0.0,0.0,0.0,0.0,-0.0009199819178320467,-4.5797987695550546e-05,-0.0004601335385814309,0.9986366629600525,0.0,0.0,0.0,1.2406947612762451,1.5685316324234009,3.820787191390991,-224.56822204589844,0
1011.1399999999994,-0.0008281191694550216,0.01269742101430893,-0.0007994797779247165,0.0,0.0,0.0,0.0,5.972246071905829e-05,-0.00032080450910143554,0.0014572265790775418,0.9982778429985046,0.0,0.0,0.0,1.238429069519043,1.5656830072402954,3.817399740219116,-224.15811157226562,0
1021.0550000000003,-0.0008699555764906108,0.012687956914305687,-0.0008230683160945773,0.0,0.0,0.0,0.0,0.0016025633085519075,0.0005205746274441481,0.0025250373873859644,0.9970738887786865,0.0,0.0,0.0,1.2367215156555176,1.5646579265594482,3.8091881275177,-223.84906005859375,0
1030.9660000000003,-0.0009128890233114362,0.012676509097218513,-0.0008485032012686133,0.0,0.0,0.0,0.0,0.00066486926516518,-0.0033788876608014107,-0.000977136893197894,0.996893048286438,0.0,0.0,0.0,1.2356141805648804,1.5640045404434204,3.8096721172332764,-223.64862060546875,0
1040.878999999999,-0.0009570033871568739,0.01266318280249834,-0.0008762375800870359,0.0,0.0,0.0,0.0,0.001081387628801167,-0.0063061900436878204,0.004223205614835024,0.9989849328994751,0.0,0.0,0.0,1.2337967157363892,1.5638231039047241,3.810209274291992,-223.31967163085938,0
1050.8019999999997,-0.0010022931965067983,0.012648276053369045,-0.0009061724413186312,0.0,0.0,0.0,0.0,-0.003016740083694458,0.0004306129121687263,-0.000917211698833853,0.9986885190010071,0.0,0.0,0.0,1.233230471611023,1.5569610595703125,3.8100156784057617,-223.21717834472656,0
1060.708999999999,-0.0010494071757420897,0.012631927616894245,-0.0009373743087053299,0.0,0.0,0.0,0.0,-0.004271715879440308,0.0005181211745366454,-0.0011317484313622117,0.9991396069526672,0.0,0.0,0.0,1.2318018674850464,1.561568260192871,3.817474365234375,-222.9585723876953,0
1070.6219999999994,-0.0010977867059409618,0.012614753097295761,-0.0009693247266113758,0.0,0.0,0.0,0.0,-0.00019337092817295343,-0.005261465907096863,-0.001725416979752481,0.9975388050079346,0.0,0.0,0.0,1.2302955389022827,1.569000005722046,3.8150582313537598,-222.68594360351562,0
1080.5319999999992,-0.00021528753859456629,0.012496622279286385,-4.285225804778747e-05,0.0,0.0,0.0,0.0,-0.0018645054660737514,-0.001400184934027493,0.0025826722849160433,0.9991944432258606,0.0,0.0,0.0,1.2388602495193481,1.5792711973190308,3.9662911891937256,-224.23617553710938,0
1090.4439999999995,-0.00022829014051239938,0.01247910875827074,-4.2751384171424434e-05,0.0,0.0,0.0,0.0,-0.0016455902950838208,0.0007674563094042242,-0.0038883755914866924,1.0000790357589722,0.0,0.0,0.0,1.2374821901321411,1.5830830335617065,3.969788074493408,-223.9867401123047,0
1100.357,-0.00019320797582622617,0.01250987034291029,4.58124304714147e-05,0.0,0.0,0.0,0.0,0.0006595825543627143,0.0015343731502071023,-0.004261713940650225,1.0007269382476807,0.0,0.0,0.0,1.2356278896331787,1.5814248323440552,3.9626381397247314,-223.65110778808594,0
1110.2699999999986,-0.00020932212646584958,0.012496240437030792,4.929860369884409e-05,0.0,0.0,0.0,0.0,-0.0007289720815606415,0.00421726843342185,-0.004739890806376934,1.0014475584030151,0.0,0.0,0.0,1.2338919639587402,1.5744832754135132,3.958516836166382,-223.33689880371094,0
1120.191999999999,-0.0002273118298035115,0.012483677826821804,5.359694841899909e-05,0.0,0.0,0.0,0.0,-0.000287375645712018,-0.0007683572475798428,-0.0003510586975608021,0.9994577169418335,0.0,0.0,0.0,1.2330033779144287,1.5753333568572998,3.953946113586426,-223.1760711669922,0
1130.0969999999998,-0.0002470067993272096,0.012470589950680733,5.8575740695232525e-05,0.0,0.0,0.0,0.0,-0.0012115765130147338,0.001318925293162465,0.0010038042673841119,0.9984874129295349,0.0,0.0,0.0,1.232171893119812,1.5763006210327148,3.9487524032592773,-223.0255889892578,0
1140.0190000000002,-0.0002672910923138261,0.01245628297328949,6.31743751000613e-05,0.0,0.0,0.0,0.0,0.003761288709938526,0.004166323225945234,-0.004029348958283663,0.9992537498474121,0.0,0.0,0.0,1.2320644855499268,1.5780677795410156,3.946737766265869,-223.00611877441406,0
1149.9229999999989,-0.00028789020143449306,0.012440476566553116,6.684966501779854e-05,0.0,0.0,0.0,0.0,0.0024275758769363165,0.003137415274977684,0.0035351470578461885,0.9987733960151672,0.0,0.0,0.0,1.230763554573059,1.5697425603866577,3.9330570697784424,-222.77066040039062,0
1159.848,-0.0003084066847804934,0.012423070147633553,6.956726429052651e-05,0.0,0.0,0.0,0.0,0.0022617436479777098,0.0029860036447644234,0.0008317008032463491,0.9999173879623413,0.0,0.0,0.0,1.2304458618164062,1.563178539276123,3.92315673828125,-222.71315002441406,0
1169.7600000000002,-0.0003291780303698033,0.012404455803334713,7.143817492760718e-05,0.0,0.0,0.0,0.0,-0.004106948617845774,-0.005313854664564133,0.0009839545236900449,0.9997608661651611,0.0,0.0,0.0,1.2294195890426636,1.5566115379333496,3.9219634532928467,-222.5273895263672,0
1179.6769999999997,-0.0003535387513693422,0.012382833287119865,7.334825932048261e-05,0.0,0.0,0.0,0.0,-0.0029196639079600573,-0.0026847312692552805,-0.0009879033314064145,0.9995834231376648,0.0,0.0,0.0,1.2281383275985718,1.5634300708770752,3.932605266571045,-222.2954864501953,0
1189.58,-0.00037688654265366495,0.012362844310700893,7.53929780330509e-05,0.0,0.0,0.0,0.0,0.002235105959698558,-0.0044361925683915615,0.0025639396626502275,0.99896639585495,0.0,0.0,0.0,1.2270362377166748,1.5639183521270752,3.937988758087158,-222.0959930419922,0
1199.5049999999992,-0.0002616265555843711,0.012441640719771385,0.00016998352657537907,0.0,0.0,0.0,0.0,0.0027691132854670286,0.0025498392060399055,0.0005579940625466406,0.998977541923523,0.0,0.0,0.0,1.2425174713134766,1.580865740776062,3.98386549949646,-224.8981475830078,0
1209.4179999999997,-0.0002795423788484186,0.012423910200595856,0.0001774565753294155,0.0,0.0,0.0,0.0,-0.0012675683246925473,-0.0024807751178741455,0.006299508735537529,0.9986310005187988,0.0,0.0,0.0,1.2412813901901245,1.575986385345459,3.9809391498565674,-224.67442321777344,0
1219.3359999999993,-0.0002969004854094237,0.012405306100845337,0.00018407234165351838,0.0,0.0,0.0,0.0,-0.002300869207829237,-0.0014450770104303956,0.0023641176521778107,0.9982877969741821,0.0,0.0,0.0,1.2410768270492554,1.5746991634368896,3.9829905033111572,-224.6373748779297,0
1229.235999999999,-0.0003137693856842816,0.01238638162612915,0.00018963297770824283,0.0,0.0,0.0,0.0,0.0003760909312404692,-0.0010880855843424797,-0.004514608532190323,0.999840497970581,0.0,0.0,0.0,1.2414876222610474,1.5816763639450073,3.979215383529663,-224.71173095703125,0
1239.1599999999999,-0.0002628791844472289,0.012424771673977375,0.00024992250837385654,0.0,0.0,0.0,0.0,0.00335683673620224,0.0009649738785810769,0.0006802994175814092,0.9997767210006714,0.0,0.0,0.0,1.251336693763733,1.5894670486450195,3.997779369354248,-226.49444580078125,0
1249.0599999999995,-0.00027544618933461607,0.012408138252794743,0.0002580837463028729,0.0,0.0,0.0,0.0,-9.200194472214207e-05,-0.0014671518001705408,-0.004464918747544289,1.0000026226043701,0.0,0.0,0.0,1.2507504224777222,1.5861245393753052,3.989724636077881,-226.38832092285156,0
1258.9869999999992,-0.00028846715576946735,0.012391184456646442,0.00026610319036990404,0.0,0.0,0.0,0.0,0.0017146511236205697,-0.0016481257043778896,0.0029830497223883867,0.999938428401947,0.0,0.0,0.0,1.2486324310302734,1.5843225717544556,3.9886233806610107,-226.00494384765625,0
1268.887999999999,-0.0003028215724043548,0.01237395964562893,0.0002742787473835051,0.0,0.0,0.0,0.0,-0.0016328708734363317,-0.0013499429915100336,0.0011091262567788363,0.9986317157745361,0.0,0.0,0.0,1.246984839439392,1.579917073249817,3.992004156112671,-225.7067108154297,0
1278.8230000000003,-0.00031836939160712063,0.012356586754322052,0.0002821350353769958,0.0,0.0,0.0,0.0,-0.0008445507264696062,0.006627766415476799,-0.0036529877688735723,0.9995224475860596,0.0,0.0,0.0,1.2471914291381836,1.576463222503662,3.998614549636841,-225.744140625,0
1288.7259999999987,-0.00023471946769859642,0.012645204551517963,-0.0003092682163696736,0.0,0.0,0.0,0.0,-0.00423836475238204,-0.000804432958830148,-0.002264386275783181,0.9988513588905334,0.0,0.0,0.0,1.2379562854766846,1.600187063217163,4.008591651916504,-224.07254028320312,0
1298.6489999999994,-0.0002263560309074819,0.0126576516777277,-0.0002723386569414288,0.0,0.0,0.0,0.0,-7.156389619922265e-05,-0.0024285176768898964,0.002663377672433853,1.0010998249053955,0.0,0.0,0.0,1.249001383781433,1.6136599779129028,4.013635158538818,-226.0717315673828,0
1308.5409999999993,-0.00023834771127440035,0.012648661620914936,-0.00028460239991545677,0.0,0.0,0.0,0.0,-0.003168940544128418,-0.001321519841440022,0.0009511362877674401,1.0008962154388428,0.0,0.0,0.0,1.2487002611160278,1.6172291040420532,4.007777690887451,-226.01724243164062,0
1318.4560000000001,-0.0001884201046777889,0.012676158919930458,-0.00021775864297524095,0.0,0.0,0.0,0.0,0.0018737317295745015,-0.0022923562210053205,-0.0008505222504027188,1.000367522239685,0.0,0.0,0.0,1.257771372795105,1.630558967590332,4.0134100914001465,-227.6591339111328,0
1328.366,-0.00020272276015020907,0.01266983337700367,-0.00022358389105647802,0.0,0.0,0.0,0.0,-0.0021657696925103664,-8.244845957960933e-05,0.0012944554910063744,1.0013840198516846,0.0,0.0,0.0,1.257276177406311,1.6295320987701416,4.0169901847839355,-227.56948852539062,0
1338.2909999999993,-0.0002185279445257038,0.012664568610489368,-0.00022882298799231648,0.0,0.0,0.0,0.0,-0.0003285241546109319,-0.005157484672963619,0.0006115061696618795,1.0000972747802734,0.0,0.0,0.0,1.2567448616027832,1.6250088214874268,4.012049674987793,-227.4733123779297,0
1348.1899999999987,-0.00023518185480497777,0.012659910134971142,-0.00023289181990548968,0.0,0.0,0.0,0.0,-0.0013967386912554502,0.0007691222126595676,-0.0007940738578327,0.9985937476158142,0.0,0.0,0.0,1.2561835050582886,1.622223138809204,4.015331268310547,-227.37171936035156,0
1358.1080000000002,-0.00025164004182443023,0.012654823251068592,-0.00023691068054176867,0.0,0.0,0.0,0.0,0.0022935722954571247,0.004136559087783098,-0.0003555805596988648,1.0015060901641846,0.0,0.0,0.0,1.2532505989074707,1.6219602823257446,4.00164794921875,-226.84083557128906,0
1368.0139999999992,-0.00026723567862063646,0.012649632059037685,-0.00024132267571985722,0.0,0.0,0.0,0.0,-0.0010405281791463494,-0.0034230181481689215,-0.0017235639970749617,1.000077486038208,0.0,0.0,0.0,1.2516580820083618,1.6264716386795044,3.9881632328033447,-226.5526123046875,0
1377.9390000000003,-0.00017893710173666477,0.012670046649873257,-0.00016751987277530134,0.0,0.0,0.0,0.0,-0.0021197625901550055,0.0007470998098142445,-0.002362260827794671,0.9977695345878601,0.0,0.0,0.0,1.2504132986068726,1.6233265399932861,3.9822542667388916,-226.32730102539062,0
1387.8400000000001,-0.00018924333562608808,0.012667285278439522,-0.00016587876598350704,0.0,0.0,0.0,0.0,-0.0017727669328451157,-0.0005232328549027443,0.0023996552918106318,0.9979652166366577,0.0,0.0,0.0,1.2492800951004028,1.620147466659546,3.978325128555298,-226.1221923828125,0
1397.7600000000002,-0.00015896237164270133,0.012685688212513924,-0.00012582127237692475,0.0,0.0,0.0,0.0,0.0004307991184759885,0.001585309742949903,-0.0027136309072375298,1.0008198022842407,0.0,0.0,0.0,1.2611949443817139,1.6309902667999268,3.9786713123321533,-228.27877807617188,0
1407.673999999999,-0.0001834027498262003,0.012618104927241802,-0.00010144530824618414,0.0,0.0,0.0,0.0,0.0024422835558652878,0.001214325544424355,-0.0024585246574133635,1.0007038116455078,0.0,0.0,0.0,1.2595561742782593,1.6301244497299194,3.9758551120758057,-227.982177734375,0
1417.6000000000004,-0.00019287632312625647,0.012615181505680084,-9.965815843315795e-05,0.0,0.0,0.0,0.0,-0.00015956626157276332,0.0028831276576966047,0.001414095633663237,1.0000509023666382,0.0,0.0,0.0,1.2583361864089966,1.6266717910766602,3.9684596061706543,-227.76136779785156,0
1427.491,-0.00020292097178753465,0.012613198719918728,-9.719696390675381e-05,0.0,0.0,0.0,0.0,-0.0008713190909475088,0.0002206620411016047,0.0027846009470522404,1.0009175539016724,0.0,0.0,0.0,1.256964921951294,1.6205406188964844,3.953763008117676,-227.51315307617188,0
1437.4129999999986,-0.00019269008771516383,0.012619538232684135,-7.3236835305579e-05,0.0,0.0,0.0,0.0,-0.003729318268597126,-0.0017812050646170974,0.004327122122049332,1.0000638961791992,0.0,0.0,0.0,1.2715727090835571,1.6233792304992676,3.9523651599884033,-230.15719604492188,0
1447.3179999999993,-0.00019080533820670098,0.012605633586645126,-0.00012350492761470377,0.0,0.0,0.0,0.0,-0.0024280331563204527,-0.0002119480341207236,-0.0027815322391688824,0.9994422793388367,0.0,0.0,0.0,1.2703392505645752,1.6266201734542847,3.9501399993896484,-229.93394470214844,0
1457.2420000000002,-0.00017353561997879297,0.012621843256056309,-8.706724474905059e-05,0.0,0.0,0.0,0.0,-0.0024447524920105934,0.0002520327689126134,-0.000783601775765419,0.9992327094078064,0.0,0.0,0.0,1.2781023979187012,1.6293742656707764,3.9479997158050537,-231.3390655517578,0
1467.1449999999986,-0.00015469083155039698,0.012604196555912495,-0.00015311207971535623,0.0,0.0,0.0,0.0,0.0012492516543716192,0.0003578806354198605,0.0010473530273884535,0.9998471140861511,0.0,0.0,0.0,1.276997447013855,1.6348216533660889,3.9415571689605713,-231.1390838623047,0
1477.0730000000003,-0.00016300847346428782,0.012597997672855854,-0.00015549830277450383,0.0,0.0,0.0,0.0,-0.0014901637332513928,-0.0042679705657064915,-0.0012972975382581353,0.9998140931129456,0.0,0.0,0.0,1.2747405767440796,1.6323175430297852,3.9329614639282227,-230.73056030273438,0
1486.9709999999995,-0.00017057479999493808,0.012591689825057983,-0.00015806523151695728,0.0,0.0,0.0,0.0,0.0011103583965450525,-0.0032243512105196714,-0.0009738131193444133,1.0004863739013672,0.0,0.0,0.0,1.273106336593628,1.6372703313827515,3.935753107070923,-230.43479919433594,0
1496.8979999999992,-0.00017794712039176375,0.012586604803800583,-0.0001607218582648784,0.0,0.0,0.0,0.0,-0.0012702065287157893,-0.0008223475888371468,-0.0041089472360908985,0.9979743957519531,0.0,0.0,0.0,1.271572232246399,1.6330747604370117,3.9398703575134277,-230.1571044921875,0
1506.798999999999,-0.00018585583893582225,0.012582212686538696,-0.0001639249676372856,0.0,0.0,0.0,0.0,0.002566825831308961,0.001435516751371324,0.0008603510796092451,0.9964978098869324,0.0,0.0,0.0,1.2707639932632446,1.6331384181976318,3.938573122024536,-230.0108184814453,0
1516.7199999999993,-0.0001687472395133227,0.01262641604989767,-9.749068703968078e-05,0.0,0.0,0.0,0.0,-0.002405143342912197,-0.004603275563567877,-0.002823118818923831,0.998529314994812,0.0,0.0,0.0,1.2696536779403687,1.62944495677948,3.930685043334961,-229.80982971191406,0
1526.6239999999998,-0.00017465863493271172,0.012627629563212395,-9.952422988135368e-05,0.0,0.0,0.0,0.0,-0.0011167778866365552,-0.004588811658322811,0.005348736885935068,0.996929407119751,0.0,0.0,0.0,1.2683995962142944,1.63084876537323,3.9336142539978027,-229.5828399658203,0
1536.5469999999987,-0.00016721167776267976,0.0126417251303792,-8.544809679733589e-05,0.0,0.0,0.0,0.0,-0.0004242738359607756,0.002787126461043954,6.839334673713893e-05,0.9993592500686646,0.0,0.0,0.0,1.282562017440796,1.6364823579788208,3.947619676589966,-232.1462860107422,0
1546.4489999999987,-0.00017448890139348805,0.012645529583096504,-9.043308818945661e-05,0.0,0.0,0.0,0.0,0.00013979198411107063,0.0007303768652491271,-0.0002748326223809272,0.9997355937957764,0.0,0.0,0.0,1.2815533876419067,1.6367698907852173,3.9393515586853027,-231.96371459960938,0
1556.3709999999992,-0.00018288266437593848,0.012650453485548496,-9.609625703888014e-05,0.0,0.0,0.0,0.0,0.002574507612735033,0.0014925425639376044,-0.0018268133280798793,0.9980737566947937,0.0,0.0,0.0,1.2802329063415527,1.6342988014221191,3.924943447113037,-231.72470092773438,0
1566.2839999999997,-0.00019137960043735802,0.012656536884605885,-0.00010250358172925189,0.0,0.0,0.0,0.0,-0.0008762829238548875,-0.004179409239441156,0.002093016402795911,0.9998664259910583,0.0,0.0,0.0,1.2789080142974854,1.629883885383606,3.9207000732421875,-231.48489379882812,0
1576.196,-0.00020007618877571076,0.012663059867918491,-0.00010979627404594794,0.0,0.0,0.0,0.0,0.0014651782112196088,-0.0028531192801892757,-0.004345699213445187,1.0003174543380737,0.0,0.0,0.0,1.278481364250183,1.6283924579620361,3.925166368484497,-231.4076690673828,0
1586.1009999999987,-0.0002093422517646104,0.012669387273490429,-0.0001171838739537634,0.0,0.0,0.0,0.0,-0.0011291013797745109,-0.004774514585733414,-0.00024212902644649148,0.9984586834907532,0.0,0.0,0.0,1.2771052122116089,1.6195944547653198,3.922396183013916,-231.1585693359375,0
1596.021999999999,-0.00019760080613195896,0.012684976682066917,-0.00010464158549439162,0.0,0.0,0.0,0.0,-0.0003906970960088074,-0.0055555072613060474,0.0006863732705824077,0.9991709589958191,0.0,0.0,0.0,1.2872841358184814,1.6252002716064453,3.9359617233276367,-233.00099182128906,0
1605.9300000000003,-0.00020863214740529656,0.012689964845776558,-0.00011184865434188396,0.0,0.0,0.0,0.0,0.0006129962857812643,0.002418747404590249,0.0007429577526636422,0.9987872838973999,0.0,0.0,0.0,1.2867294549942017,1.63017737865448,3.944784641265869,-232.90060424804688,0
1615.8629999999994,-0.00022137403720989823,0.012694306671619415,-0.00011990063649136573,0.0,0.0,0.0,0.0,0.0007602762198075652,-0.0005418576765805483,0.001224628183990717,0.9967935085296631,0.0,0.0,0.0,1.2847075462341309,1.6278742551803589,3.9372332096099854,-232.5346221923828,0
1625.7649999999994,-0.0002308366820216179,0.012656289152801037,-0.00018645395175553858,0.0,0.0,0.0,0.0,-0.00012349506141617894,-0.0010460522025823593,0.0027360364329069853,0.9975391626358032,0.0,0.0,0.0,1.2755200862884521,1.6087785959243774,3.942417621612549,-230.87167358398438,0
1635.6899999999987,-0.00019381643505766988,0.012671446427702904,-0.0001373878913000226,0.0,0.0,0.0,0.0,-0.0001621560222702101,0.0009098230511881411,-2.0447301722015254e-05,0.9988866448402405,0.0,0.0,0.0,1.286527156829834,1.6114946603775024,3.9553539752960205,-232.86398315429688,0
1645.5919999999987,-0.00021851781639270484,0.012629054486751556,-0.00015784124843776226,0.0,0.0,0.0,0.0,-0.0007068438571877778,-0.005888882093131542,0.0001577115908730775,1.0015194416046143,0.0,0.0,0.0,1.276421070098877,1.5991401672363281,3.9433562755584717,-231.0347442626953,0
1655.512999999999,-0.00016757799312472343,0.012633982114493847,-0.00012775369395967573,0.0,0.0,0.0,0.0,0.002751113846898079,0.0017738991882652044,0.0015572935808449984,1.0010449886322021,0.0,0.0,0.0,1.2761482000350952,1.6063944101333618,3.9473557472229004,-230.98536682128906,0
1665.4129999999986,-0.0001820276229409501,0.012633267790079117,-0.00013972203305456787,0.0,0.0,0.0,0.0,0.00039743169327266514,0.005562219303101301,-0.0016537366900593042,1.0008841753005981,0.0,0.0,0.0,1.2756983041763306,1.5987578630447388,3.936960220336914,-230.9039306640625,0
1675.3369999999995,-0.0001650902850087732,0.01265157014131546,-0.00012135793076595291,0.0,0.0,0.0,0.0,0.0007101423107087612,-0.0034200313966721296,0.0014730551047250628,0.9996476769447327,0.0,0.0,0.0,1.2734198570251465,1.6039153337478638,3.9156088829040527,-230.4915313720703,0
1685.241,-0.00017912473413161933,0.012650175020098686,-0.00012985372450202703,0.0,0.0,0.0,0.0,0.0019858062732964754,-0.0030669239349663258,-0.0007712944061495364,0.998123824596405,0.0,0.0,0.0,1.2735722064971924,1.6033425331115723,3.920259475708008,-230.51910400390625,0
1695.1629999999986,-0.0001812153059290722,0.012666407972574234,-0.00011420098599046469,0.0,0.0,0.0,0.0,-0.0023064259439706802,-0.0030400974210351706,0.001321606570854783,0.9992628693580627,0.0,0.0,0.0,1.2830206155776978,1.608497142791748,3.927870273590088,-232.22926330566406,0
1705.0589999999993,-0.00019771169172599912,0.012663976289331913,-0.00012267765123397112,0.0,0.0,0.0,0.0,0.0027408937457948923,-0.0035148877650499344,-0.0005699682515114546,1.001836895942688,0.0,0.0,0.0,1.281697154045105,1.6033400297164917,3.9209299087524414,-231.98974609375,0
1714.9809999999998,-0.0001874253066489473,0.012670247815549374,-0.00011639841977739707,0.0,0.0,0.0,0.0,3.623294105636887e-05,0.005882712081074715,0.001998030347749591,1.0001444816589355,0.0,0.0,0.0,1.2934035062789917,1.6079424619674683,3.927952527999878,-234.10861206054688,0
1724.8850000000002,-0.0001855426380643621,0.012651236727833748,-0.00019445945508778095,0.0,0.0,0.0,0.0,-0.005230597220361233,0.0014150532661005855,-2.3032458557281643e-05,0.9996533393859863,0.0,0.0,0.0,1.2930281162261963,1.606806755065918,3.9160425662994385,-234.0406494140625,0
1734.8099999999995,-0.0001497399207437411,0.012669771909713745,-0.000149073704960756,0.0,0.0,0.0,0.0,0.0017806418472900987,5.4707528761355206e-05,0.0025364600587636232,0.9996443390846252,0.0,0.0,0.0,1.3022915124893188,1.6138050556182861,3.916611433029175,-235.71737670898438,0
1744.7129999999997,-0.00016722547297831625,0.012665150687098503,-0.0001565771090099588,0.0,0.0,0.0,0.0,-0.0029984829016029835,0.00045338727068156004,0.001770384144037962,0.999558687210083,0.0,0.0,0.0,1.3002465963363647,1.6137094497680664,3.9090967178344727,-235.34722900390625,0
1754.6530000000002,-0.00018597465532366186,0.012659687548875809,-0.00016443843196611851,0.0,0.0,0.0,0.0,0.0010460868943482637,-0.005353802815079689,0.0018692261073738337,0.999839186668396,0.0,0.0,0.0,1.2993875741958618,1.6130831241607666,3.903557538986206,-235.19174194335938,0
1764.5409999999993,-0.00018338164954911917,0.01263495720922947,-0.00024362848489545286,0.0,0.0,0.0,0.0,-8.43661036924459e-05,-0.00047410052502527833,0.0019330534851178527,0.9995392560958862,0.0,0.0,0.0,1.2985668182373047,1.6093953847885132,3.909712791442871,-235.0431671142578,0
1774.458999999999,-0.00020437082275748253,0.012625651434063911,-0.0002575453545432538,0.0,0.0,0.0,0.0,-0.0022958044428378344,0.00010186997678829357,0.0019419074524194002,0.9986329674720764,0.0,0.0,0.0,1.2983832359313965,1.6046046018600464,3.9179608821868896,-235.00994873046875,0
1784.366,-0.00022968345729168504,0.012590931728482246,-0.0002830300072673708,0.0,0.0,0.0,0.0,0.0010569060686975718,-3.746690708794631e-05,-0.0018775413045659661,1.0006239414215088,0.0,0.0,0.0,1.2866852283477783,1.5999245643615723,3.9091265201568604,-232.89259338378906,0
1794.2909999999993,-0.00019125353719573468,0.01261141151189804,-0.00020787813991773874,0.0,0.0,0.0,0.0,0.0019137072376906872,0.007444019895046949,-0.0011401501251384616,0.9986281991004944,0.0,0.0,0.0,1.2938716411590576,1.6069154739379883,3.914841651916504,-234.19334411621094,0
1804.1899999999987,-0.0001875087764346972,0.012591928243637085,-0.00027619002503342927,0.0,0.0,0.0,0.0,0.004018973559141159,0.0006675603799521923,0.00022740814893040806,0.9974023699760437,0.0,0.0,0.0,1.292245626449585,1.608007550239563,3.8918282985687256,-233.89903259277344,0
1814.116,-0.00018199368787463754,0.012633472681045532,-0.00022647829609923065,0.0,0.0,0.0,0.0,-0.002741314470767975,-0.0015689737629145384,0.001900903764180839,0.9973690509796143,0.0,0.0,0.0,1.2919260263442993,1.599100947380066,3.886101484298706,-233.8411865234375,0
1824.0199999999986,-0.0002148850471712649,0.012581904418766499,-0.00024627865059301257,0.0,0.0,0.0,0.0,-0.0033965755719691515,-0.003316964488476515,0.002275544684380293,0.9997485876083374,0.0,0.0,0.0,1.2910512685775757,1.59110689163208,3.8794376850128174,-233.68283081054688,0
1833.9439999999995,-0.0001877059694379568,0.012618117965757847,-0.0002003664121730253,0.0,0.0,0.0,0.0,-0.0017052522161975503,-0.001202344661578536,-0.0006104289786890149,0.9989466667175293,0.0,0.0,0.0,1.2913621664047241,1.5993050336837769,3.885272979736328,-233.73910522460938,0
1843.8459999999995,-0.00021381220722105354,0.012587085366249084,-0.00021938067220617086,0.0,0.0,0.0,0.0,0.0030260856729000807,-0.001937517081387341,-0.0014109171461313963,0.9978184700012207,0.0,0.0,0.0,1.2892980575561523,1.604270100593567,3.887357711791992,-233.36550903320312,0
1853.7739999999994,-0.0002005305141210556,0.01261423621326685,-0.00019248206808697432,0.0,0.0,0.0,0.0,-0.0007333997054956853,-0.0002010968601098284,-0.0006956304423511028,0.9968296885490417,0.0,0.0,0.0,1.2977129220962524,1.607481837272644,3.8945982456207275,-234.88861083984375,0
1863.6809999999987,-0.0002245406503789127,0.012607059441506863,-0.0002044580614892766,0.0,0.0,0.0,0.0,-0.0028145783580839634,0.002121176104992628,-0.0010205437429249287,0.9987959861755371,0.0,0.0,0.0,1.2961604595184326,1.6058731079101562,3.888641834259033,-234.6076202392578,0
1873.5939999999991,-0.00024822246632538736,0.012598906643688679,-0.00021882726287003607,0.0,0.0,0.0,0.0,0.0027175918221473694,0.002548864111304283,0.003235055133700371,0.9990482926368713,0.0,0.0,0.0,1.2951231002807617,1.6096121072769165,3.8899827003479004,-234.41986083984375,0
1883.494999999999,-0.0002625225461088121,0.012580298818647861,-0.0002573226229287684,0.0,0.0,0.0,0.0,-0.002385921310633421,-0.00020841346122324467,-0.00048032408813014627,0.9995396137237549,0.0,0.0,0.0,1.2948411703109741,1.6045583486557007,3.880126953125,-234.3688201904297,0
1893.4120000000003,-0.00023421998776029795,0.012631612829864025,-0.00018651984282769263,0.0,0.0,0.0,0.0,-0.0008807355770841241,0.0007188312010839581,0.0013426218647509813,1.0019444227218628,0.0,0.0,0.0,1.2939221858978271,1.6014996767044067,3.880272150039673,-234.20249938964844,0
1903.3320000000003,-0.00024196383310481906,0.012616186402738094,-0.00022992881713435054,0.0,0.0,0.0,0.0,-0.002742234617471695,0.00543987425044179,-0.0016029580729082227,1.000730276107788,0.0,0.0,0.0,1.2922106981277466,1.6057788133621216,3.8722779750823975,-233.89271545410156,0
1913.241,-0.00026561410049907863,0.012609746307134628,-0.0002419983793515712,0.0,0.0,0.0,0.0,-0.0005700141773559153,-0.004098258912563324,0.001346117234788835,0.9987024664878845,0.0,0.0,0.0,1.2919094562530518,1.60555100440979,3.867133378982544,-233.8381805419922,0
1923.1479999999992,-0.00026528569287620485,0.012633002363145351,-0.00028025638312101364,0.0,0.0,0.0,0.0,0.001103134243749082,0.000559727952349931,0.0021222021896392107,0.9997803568840027,0.0,0.0,0.0,1.2902899980545044,1.6065068244934082,3.863095283508301,-233.54505920410156,0
1933.0779999999995,-0.00024154101265594363,0.012631751596927643,-0.0002590703370515257,0.0,0.0,0.0,0.0,-0.0005634274566546082,-0.003145193215459585,-0.0015384902944788337,0.9999385476112366,0.0,0.0,0.0,1.29752516746521,1.6092013120651245,3.8739633560180664,-234.85464477539062,0
1942.9740000000002,-0.0002664068015292287,0.01259969174861908,-0.00028357055271044374,0.0,0.0,0.0,0.0,0.0033750745933502913,-0.004263532347977161,0.0002779503702186048,0.9993061423301697,0.0,0.0,0.0,1.296304702758789,1.6122831106185913,3.8727192878723145,-234.6337432861328,0
1952.887999999999,-0.00019750693172682077,0.012622332200407982,-0.00022777204867452383,0.0,0.0,0.0,0.0,-0.0008959716069512069,0.0013451626291498542,0.0005904425634071231,1.000117301940918,0.0,0.0,0.0,1.2956806421279907,1.6126924753189087,3.8744654655456543,-234.52076721191406,0
1962.8029999999999,-0.0002222446200903505,0.012616094201803207,-0.00023646315094083548,0.0,0.0,0.0,0.0,0.0019438550807535648,0.00525885634124279,0.004498593509197235,1.0006822347640991,0.0,0.0,0.0,1.2943105697631836,1.6132726669311523,3.8714303970336914,-234.27281188964844,0
1972.714,-0.00025080342311412096,0.012626155279576778,-0.0002324650704395026,0.0,0.0,0.0,0.0,-0.0014447540743276477,0.0014446602435782552,-0.0006580488989129663,0.9988133907318115,0.0,0.0,0.0,1.3001371622085571,1.6132274866104126,3.8627114295959473,-235.32740783691406,0
1982.628999999999,-0.00027799466624855995,0.0126195028424263,-0.00023964987485669553,0.0,0.0,0.0,0.0,-0.0010923747904598713,-0.0014154271921142936,0.0036256518214941025,1.0006965398788452,0.0,0.0,0.0,1.298457145690918,1.6174160242080688,3.8563530445098877,-235.0233154296875,0
1992.539999999999,-0.00022522127255797386,0.012649198062717915,-0.00020619264978449792,0.0,0.0,0.0,0.0,0.0024429759941995144,0.0015621199272572994,-0.004981143865734339,1.0019702911376953,0.0,0.0,0.0,1.297719955444336,1.6206399202346802,3.8519704341888428,-234.88987731933594,0
2002.455,-0.00025555925094522536,0.012615329585969448,-0.00022428466763813049,0.0,0.0,0.0,0.0,-0.002063958439975977,0.0005513630458153784,-0.00533120846375823,1.001413345336914,0.0,0.0,0.0,1.2864075899124146,1.6117199659347534,3.8424110412597656,-232.8423309326172,0
2012.3670000000002,-0.00028137891786172986,0.012610016390681267,-0.0002271815756103024,0.0,0.0,0.0,0.0,-0.0032236785627901554,-0.0016126717673614621,0.002013131510466337,0.9988902807235718,0.0,0.0,0.0,1.2839478254318237,1.612742304801941,3.834056854248047,-232.39710998535156,0
2022.2789999999986,-0.0003083642804995179,0.012604832649230957,-0.00022979539062362164,0.0,0.0,0.0,0.0,-0.00022092642029747367,-0.0017194364918395877,0.0004736650444101542,0.9993968605995178,0.0,0.0,0.0,1.283342719078064,1.6158838272094727,3.8379878997802734,-232.28758239746094,0
2032.1939999999995,-0.00024465980823151767,0.012612264603376389,-0.00017180021677631885,0.0,0.0,0.0,0.0,-0.0009419367997907102,-0.002357248915359378,-0.00016113054880406708,1.000616192817688,0.0,0.0,0.0,1.2827296257019043,1.614022970199585,3.8335368633270264,-232.17662048339844,0
2042.1049999999996,-0.00026782063650898635,0.012607049196958542,-0.00017106161976698786,0.0,0.0,0.0,0.0,0.002880813553929329,0.0017371413996443152,-0.0028853584080934525,1.0009901523590088,0.0,0.0,0.0,1.2823652029037476,1.6137433052062988,3.837893009185791,-232.11065673828125,0
2052.021999999999,-0.0002915042859967798,0.012600192800164223,-0.00016931102436501533,0.0,0.0,0.0,0.0,-0.0027664441149681807,-0.0029290015809237957,-0.00024981790920719504,0.999290406703949,0.0,0.0,0.0,1.281180500984192,1.6050963401794434,3.833638906478882,-231.89622497558594,0
2061.9309999999987,-0.0003156735037919134,0.012593235820531845,-0.00016731741197872907,0.0,0.0,0.0,0.0,-0.0006796594243496656,0.0018561548786237836,-0.005304164253175259,0.9976430535316467,0.0,0.0,0.0,1.2808592319488525,1.603071689605713,3.833533525466919,-231.8380584716797,0
2071.843999999999,-0.0003407569893170148,0.012587587349116802,-0.00016674592916388065,0.0,0.0,0.0,0.0,0.00041782736661843956,0.0042945933528244495,-0.0024443401489406824,1.0006784200668335,0.0,0.0,0.0,1.277801275253296,1.6011135578155518,3.832501173019409,-231.28457641601562,0
2081.7609999999986,-0.0003670793666969985,0.012583539821207523,-0.0001670655474299565,0.0,0.0,0.0,0.0,-0.002591268392279744,0.0017681303434073925,0.00022072496358305216,0.9994679093360901,0.0,0.0,0.0,1.2762080430984497,1.594473123550415,3.8224570751190186,-230.99618530273438,0
2091.672999999999,-0.00023460442025680095,0.012623165734112263,-8.360447100130841e-05,0.0,0.0,0.0,0.0,-0.00136503204703331,0.003564590122550726,0.0010114125907421112,0.9995497465133667,0.0,0.0,0.0,1.268703579902649,1.6077014207839966,3.8672492504119873,-229.6378631591797,0
2101.59,-0.00025372920208610594,0.012623093090951443,-7.889302651165053e-05,0.0,0.0,0.0,0.0,-0.0004639555118046701,-0.00039273014408536255,-0.0013179859379306436,0.9988731741905212,0.0,0.0,0.0,1.2678823471069336,1.612866759300232,3.859405040740967,-229.48924255371094,0
2111.508,-0.00027359824161976576,0.012622877024114132,-7.490382267860696e-05,0.0,0.0,0.0,0.0,-0.004525715485215187,-0.001734499935992062,0.004120139870792627,0.9989016056060791,0.0,0.0,0.0,1.265468716621399,1.6129835844039917,3.8548197746276855,-229.05235290527344,0
2121.4210000000003,-0.0002943803556263447,0.012622933834791183,-7.206631562439725e-05,0.0,0.0,0.0,0.0,-0.0017651550006121397,-0.003489031456410885,0.0009792171185836196,0.9981599450111389,0.0,0.0,0.0,1.2651830911636353,1.622337818145752,3.8540427684783936,-229.00064086914062,0
