timestamp,stateEstimate.x,stateEstimate.y,stateEstimate.z,controller.cmd_thrust,controller.cmd_roll,controller.cmd_pitch,controller.cmd_yaw,controller.r_roll,controller.r_pitch,controller.r_yaw,controller.accelz,controller.actuatorThrust,controller.roll,controller.pitch,controller.yaw,controller.rollRate,controller.pitchRate,controller.yawRate,controller.ctr_yaw
0.0,0.00885052140802145,-0.03377833962440491,-0.00034438687725923955,0.0,0.0,0.0,0.0,0.0017467151628807187,-0.001092454302124679,0.0021893675439059734,1.0021963119506836,0.0,0.0,0.0,-7.925621509552002,2.0661046504974365,3.841782569885254,1434.55322265625,0
9.923000000000684,0.008778451010584831,-0.03374939784407616,-0.00032332955743186176,0.0,0.0,0.0,0.0,0.002065906999632716,0.002479243790730834,-0.0026230113580822945,1.001103162765503,0.0,0.0,0.0,-7.930715084075928,2.062922954559326,3.8381638526916504,1435.475341796875,0
19.824000000000524,0.00886019691824913,-0.0338047556579113,-0.0002917890960816294,0.0,0.0,0.0,0.0,0.0006495129782706499,-0.002187181729823351,0.0031500356271862984,0.9993454217910767,0.0,0.0,0.0,-7.922519683837891,2.0514655113220215,3.8291139602661133,1433.991943359375,0
29.743000000000393,0.008783120661973953,-0.03377510607242584,-0.0002602645254228264,0.0,0.0,0.0,0.0,0.0008178005809895694,0.00012671473086811602,-0.0005418933578766882,0.9999325275421143,0.0,0.0,0.0,-7.933132648468018,2.0573086738586426,3.822080373764038,1435.9127197265625,0
39.650000000001455,0.0088345380499959,-0.03378119692206383,-0.0002021669497480616,0.0,0.0,0.0,0.0,0.0012187783140689135,-0.001417467719875276,0.002442148979753256,1.0006754398345947,0.0,0.0,0.0,-7.925990104675293,2.0508909225463867,3.8222899436950684,1434.6199951171875,0
49.57800000000134,0.008781131356954575,-0.0337303951382637,-0.00018830203043762594,0.0,0.0,0.0,0.0,4.6729914515708515e-07,0.004422848578542471,0.0010645511792972684,1.0019854307174683,0.0,0.0,0.0,-7.930866718292236,2.060481071472168,3.8307788372039795,1435.502685546875,0
59.47400000000016,0.00885105412453413,-0.03379977121949196,-0.00016900087939575315,0.0,0.0,0.0,0.0,0.0009494036203250289,0.0024615307338535786,-0.0014616840053349733,1.001542329788208,0.0,0.0,0.0,-7.922950744628906,2.0535049438476562,3.823948860168457,1434.06982421875,0
69.39500000000044,0.008810644038021564,-0.03374822437763214,-0.00016916934691835195,0.0,0.0,0.0,0.0,-0.0017435431946069002,-0.0010383095359429717,9.941387543221936e-05,1.001321792602539,0.0,0.0,0.0,-7.927640438079834,2.0659193992614746,3.8238487243652344,1434.918701171875,0
79.30000000000109,0.008812442421913147,-0.0337752103805542,-0.00014313423889689147,0.0,0.0,0.0,0.0,0.0009494320838712156,-0.006159846670925617,0.0012483317404985428,0.9999558329582214,0.0,0.0,0.0,-7.920602798461914,2.0651283264160156,3.8224809169769287,1433.6448974609375,0
89.23000000000138,0.008779692463576794,-0.03372395411133766,-0.00015400699339807034,0.0,0.0,0.0,0.0,0.0001546183048048988,0.004904116503894329,-0.0026696203276515007,1.0009417533874512,0.0,0.0,0.0,-7.927716255187988,2.0688140392303467,3.8293867111206055,1434.932373046875,0
99.12700000000041,0.00882778037339449,-0.03377159312367439,-0.00012496969429776073,0.0,0.0,0.0,0.0,0.00011116861423943192,0.001940836780704558,-0.00038610491901636124,0.9996240139007568,0.0,0.0,0.0,-7.920416831970215,2.0665159225463867,3.8218798637390137,1433.6112060546875,0
109.0530000000017,0.008822139352560043,-0.033724308013916016,-0.000173126274603419,0.0,0.0,0.0,0.0,0.00010778712021419778,-0.0019730026833713055,-0.0009397701360285282,0.9990638494491577,0.0,0.0,0.0,-7.929236888885498,2.0745980739593506,3.8211963176727295,1435.2076416015625,0
118.95100000000093,0.008837642148137093,-0.03373793885111809,-0.00013903914077673107,0.0,0.0,0.0,0.0,3.428495620028116e-05,-0.0020174060482531786,-0.0017921209800988436,0.9994352459907532,0.0,0.0,0.0,-7.921045780181885,2.075216054916382,3.8243188858032227,1433.72509765625,0
128.88400000000001,0.008808261714875698,-0.03368894383311272,-0.00016708792827557772,0.0,0.0,0.0,0.0,0.0037827501073479652,1.474795863032341e-05,-0.0030038522090762854,1.0005967617034912,0.0,0.0,0.0,-7.931842803955078,2.08105206489563,3.837493419647217,1435.6793212890625,0
138.78400000000147,0.008895490318536758,-0.03375495225191116,-0.00014991486386861652,0.0,0.0,0.0,0.0,-0.0020421964582055807,0.002938499441370368,0.004460616037249565,0.9995924830436707,0.0,0.0,0.0,-7.924009323120117,2.0739269256591797,3.8398005962371826,1434.261474609375,0
148.70000000000073,0.008881838992238045,-0.03371060639619827,-0.00018835692026186734,0.0,0.0,0.0,0.0,-0.0015161121264100075,-0.00025410621310584247,0.0009472601232118905,0.9977117776870728,0.0,0.0,0.0,-7.931324481964111,2.0876243114471436,3.8410158157348633,1435.58544921875,0
158.61000000000058,0.008962063118815422,-0.033780984580516815,-0.00018428645853418857,0.0,0.0,0.0,0.0,-0.0008138703415170312,0.00038598309038206935,0.0009949603118002415,0.9993703961372375,0.0,0.0,0.0,-7.924537658691406,2.087928056716919,3.8326961994171143,1434.3570556640625,0
168.53000000000065,0.008884408511221409,-0.03380987420678139,-0.0001728731585899368,0.0,0.0,0.0,0.0,-0.003892057342454791,0.0040878308936953545,0.0005537704564630985,1.000107765197754,0.0,0.0,0.0,-7.9326677322387695,2.0792152881622314,3.824115514755249,1435.82861328125,0
178.4290000000001,0.009000927209854126,-0.03385951742529869,-0.00013504025992006063,0.0,0.0,0.0,0.0,0.0010369615629315376,-0.0002448960149195045,-0.0013871106784790754,0.9988734126091003,0.0,0.0,0.0,-7.924536228179932,2.08260440826416,3.8158442974090576,1434.3568115234375,0
188.35500000000138,0.008967200294137001,-0.03384259715676308,-0.00015501835150644183,0.0,0.0,0.0,0.0,0.0012903546448796988,0.007259613834321499,0.0011998123954981565,0.9990004301071167,0.0,0.0,0.0,-7.93264102935791,2.0803334712982178,3.8087244033813477,1435.82373046875,0
198.25800000000163,0.008912043645977974,-0.03383101895451546,-0.00015141890617087483,0.0,0.0,0.0,0.0,0.00048143681487999856,0.0007201823173090816,0.007891738787293434,1.0018259286880493,0.0,0.0,0.0,-7.924359321594238,2.0758471488952637,3.79097056388855,1434.3248291015625,0
208.1800000000003,0.008908973075449467,-0.03380214795470238,-0.00021223575458861887,0.0,0.0,0.0,0.0,0.004308407660573721,0.005031418055295944,0.0017436868511140347,1.0006567239761353,0.0,0.0,0.0,-7.9292073249816895,2.0832459926605225,3.80706787109375,1435.2022705078125,0
218.09000000000015,0.008999870158731937,-0.033856458961963654,-0.00016136984049808234,0.0,0.0,0.0,0.0,0.0018747468711808324,0.0013406480429694057,0.002052807016298175,0.9994996190071106,0.0,0.0,0.0,-7.921989440917969,2.0653462409973145,3.852564573287964,1433.89599609375,0
228.0010000000002,0.009003092534840107,-0.03380070626735687,-0.00021337384532671422,0.0,0.0,0.0,0.0,6.98992153047584e-06,-0.00043710850877687335,0.006049626972526312,1.0024040937423706,0.0,0.0,0.0,-7.931895732879639,2.0718626976013184,3.8470089435577393,1435.68896484375,0
237.91500000000087,0.009008015505969524,-0.03384515270590782,-0.0002261367772007361,0.0,0.0,0.0,0.0,-0.001149974879808724,-0.0035069496370851994,-0.001456502010114491,1.0033252239227295,0.0,0.0,0.0,-7.922199249267578,2.0705041885375977,3.840162754058838,1433.933837890625,0
247.83500000000095,0.009041582234203815,-0.033774521201848984,-0.00031705820583738387,0.0,0.0,0.0,0.0,4.53515094704926e-05,-0.0037726389709860086,0.003017839277163148,0.9998928308486938,0.0,0.0,0.0,-7.927502155303955,2.091209888458252,3.865985155105591,1434.893798828125,0
257.73199999999997,0.008938607759773731,-0.03376923128962517,-0.0003409053315408528,0.0,0.0,0.0,0.0,0.001176584279164672,0.005598447751253843,-0.0019468087702989578,0.9987340569496155,0.0,0.0,0.0,-7.926907062530518,2.0845043659210205,3.858302354812622,1434.785888671875,0
267.65400000000045,0.008912156336009502,-0.0337509922683239,-0.00038878258783370256,0.0,0.0,0.0,0.0,0.0012070140801370144,-0.00013139055226929486,0.001932017970830202,0.9996312260627747,0.0,0.0,0.0,-7.934393882751465,2.0815834999084473,3.8531289100646973,1436.1409912109375,0
277.5610000000015,0.008919080719351768,-0.033756740391254425,-0.00038011817377991974,0.0,0.0,0.0,0.0,-0.0017751617124304175,0.004818168468773365,0.001142038032412529,0.9991459250450134,0.0,0.0,0.0,-7.925447940826416,2.078193187713623,3.8397586345672607,1434.52197265625,0
287.47500000000036,0.008890447206795216,-0.03372260928153992,-0.00042447433224879205,0.0,0.0,0.0,0.0,0.0006948463269509375,0.003950552083551884,-0.0031367812771350145,1.0006896257400513,0.0,0.0,0.0,-7.931236743927002,2.0815329551696777,3.843148946762085,1435.569580078125,0
297.384,0.00883031077682972,-0.033705778419971466,-0.0004364257329143584,0.0,0.0,0.0,0.0,-0.0035386623349040747,0.0022548488341271877,-0.0019837617874145508,1.00125253200531,0.0,0.0,0.0,-7.924787998199463,2.0764501094818115,3.8225555419921875,1434.40234375,0
307.3010000000013,0.008773972280323505,-0.03367619961500168,-0.00045000770478509367,0.0,0.0,0.0,0.0,0.0002213140542153269,-0.001343810698017478,-0.0019438561284914613,1.0013247728347778,0.0,0.0,0.0,-7.932241439819336,2.078439950942993,3.814077138900757,1435.7515869140625,0
317.20900000000074,0.008900471962988377,-0.033728498965501785,-0.00038419023621827364,0.0,0.0,0.0,0.0,2.979121927637607e-05,0.002996821189299226,-0.0009371355990879238,0.9990565180778503,0.0,0.0,0.0,-7.926065444946289,2.0672554969787598,3.8582966327667236,1434.6336669921875,0
327.1310000000012,0.00883619487285614,-0.03373352810740471,-0.0003908873477485031,0.0,0.0,0.0,0.0,-0.000565946102142334,-0.002724927384406328,-0.0008766192477196455,1.0004808902740479,0.0,0.0,0.0,-7.935889720916748,2.0696849822998047,3.849073886871338,1436.411865234375,0
337.03400000000147,0.008919183164834976,-0.03375232219696045,-0.00034915143623948097,0.0,0.0,0.0,0.0,2.2361387891578488e-05,0.00425915140658617,-7.45333600207232e-05,0.9991955757141113,0.0,0.0,0.0,-7.928934574127197,2.071765899658203,3.852454662322998,1435.1529541015625,0
346.9490000000005,0.008802122436463833,-0.03375169634819031,-0.0002815915795508772,0.0,0.0,0.0,0.0,-0.003139945212751627,0.0016607273137196898,-0.0036118400748819113,1.0011682510375977,0.0,0.0,0.0,-7.936319828033447,2.061929702758789,3.8277223110198975,1436.4896240234375,0
356.8640000000014,0.008861754089593887,-0.03380194306373596,-0.0002661627368070185,0.0,0.0,0.0,0.0,0.0002154545218218118,-0.0004773323889821768,0.001609422150067985,0.9995854496955872,0.0,0.0,0.0,-7.929329872131348,2.072375774383545,3.8258421421051025,1435.2244873046875,0
366.77900000000045,0.008773695677518845,-0.03376748785376549,-0.00022034105495549738,0.0,0.0,0.0,0.0,0.004528781399130821,-0.0010333233512938023,0.0019081518985331059,0.9990545511245728,0.0,0.0,0.0,-7.937510013580322,2.0827622413635254,3.813507080078125,1436.705078125,0
376.6940000000013,0.008897758089005947,-0.033813245594501495,-0.00017073254275601357,0.0,0.0,0.0,0.0,0.0036588411312550306,-0.0020480083767324686,-0.0002948312321677804,1.0004329681396484,0.0,0.0,0.0,-7.930119037628174,2.078187942504883,3.8090908527374268,1435.3673095703125,0
386.60000000000036,0.008815666660666466,-0.033784493803977966,-0.00012986506044398993,0.0,0.0,0.0,0.0,-0.0014511850895360112,-0.0034431067761033773,-0.00020589845371432602,1.0010898113250732,0.0,0.0,0.0,-7.939977645874023,2.081118106842041,3.8012871742248535,1437.1517333984375,0
396.52100000000064,0.008861515671014786,-0.03384628891944885,-0.00011640544107649475,0.0,0.0,0.0,0.0,-0.0008830533479340374,-0.0008681724430061877,0.0013674887595698237,1.0000659227371216,0.0,0.0,0.0,-7.931240081787109,2.0815606117248535,3.8028550148010254,1435.5701904296875,0
406.4250000000011,0.008799494244158268,-0.03379302844405174,-9.08028450794518e-05,0.0,0.0,0.0,0.0,0.0038118099328130484,0.00126051832921803,-0.0013308738125488162,0.9998245239257812,0.0,0.0,0.0,-7.93905782699585,2.0932159423828125,3.7952282428741455,1436.9853515625,0
416.3470000000016,0.008854149840772152,-0.03385669365525246,-7.32463231543079e-05,0.0,0.0,0.0,0.0,0.0011699679307639599,0.0020863504614681005,0.0033088079653680325,1.0006951093673706,0.0,0.0,0.0,-7.932301998138428,2.0897579193115234,3.784266233444214,1435.762451171875,0
426.25,0.008790291845798492,-0.03379616141319275,-5.035199137637392e-05,0.0,0.0,0.0,0.0,-0.000596424681134522,-6.149857199488906e-06,0.0008847760618664324,1.000032901763916,0.0,0.0,0.0,-7.93911600112915,2.1018970012664795,3.782564401626587,1436.9957275390625,0
436.1710000000003,0.008835193701088428,-0.033870045095682144,-4.296145561966114e-05,0.0,0.0,0.0,0.0,-0.002452500630170107,0.0004044918459840119,0.0019987821578979492,0.9990407824516296,0.0,0.0,0.0,-7.930593013763428,2.0981860160827637,3.7858190536499023,1435.453125,0
446.07800000000134,0.008877869695425034,-0.03373042494058609,-0.00011826599802589044,0.0,0.0,0.0,0.0,0.0014628034550696611,-0.0004653368378058076,-0.002774120308458805,1.000486969947815,0.0,0.0,0.0,-7.9339704513549805,2.130683422088623,3.7952945232391357,1436.064453125,0
455.9990000000016,0.00890409667044878,-0.03378474712371826,-0.00011235647252760828,0.0,0.0,0.0,0.0,0.0010646198643371463,-0.0019657686352729797,0.00030391098698601127,0.9999741315841675,0.0,0.0,0.0,-7.926044940948486,2.1275634765625,3.7975425720214844,1434.6298828125,0
465.90800000000127,0.00887985061854124,-0.033738505095243454,-0.00014366918185260147,0.0,0.0,0.0,0.0,-0.0013186815194785595,0.0013939621858298779,-0.0009044281323440373,0.998104453086853,0.0,0.0,0.0,-7.934089660644531,2.1370177268981934,3.7938179969787598,1436.0859375,0
485.7290000000012,0.008883529342710972,-0.03370125964283943,-0.00020287909137550741,0.0,0.0,0.0,0.0,-0.0018938456196337938,0.0015314399497583508,-0.0019322728039696813,0.9978459477424622,0.0,0.0,0.0,-7.936820030212402,2.1438262462615967,3.8196699619293213,1436.580322265625,0
495.65000000000146,0.00889723189175129,-0.03375430777668953,-0.00021708759595640004,0.0,0.0,0.0,0.0,-0.00019998893549200147,0.00412559462711215,-0.0038844121154397726,0.9990612268447876,0.0,0.0,0.0,-7.935333728790283,2.12660813331604,3.8319501876831055,1436.311279296875,0
505.5540000000001,0.008860120549798012,-0.03373195603489876,-0.00025806514895521104,0.0,0.0,0.0,0.0,0.0008446595747955143,-0.0017702089389786124,-0.0017939498648047447,0.998829185962677,0.0,0.0,0.0,-7.943366050720215,2.135098457336426,3.826883554458618,1437.7650146484375,0
515.4740000000002,0.00883594248443842,-0.03374366834759712,-0.000262329209363088,0.0,0.0,0.0,0.0,0.0007500071078538895,0.001384018687531352,0.0010795198613777757,0.9992707967758179,0.0,0.0,0.0,-7.93524169921875,2.1369481086730957,3.8259642124176025,1436.2945556640625,0
525.3810000000012,0.008805426768958569,-0.03365752473473549,-0.00029304050258360803,0.0,0.0,0.0,0.0,0.0026338528841733932,0.0004157136136200279,-0.0028787360060960054,0.9990761876106262,0.0,0.0,0.0,-7.941557884216309,2.147557020187378,3.8144242763519287,1437.437744140625,0
535.2990000000009,0.008878437802195549,-0.03372272849082947,-0.0003029119689017534,0.0,0.0,0.0,0.0,0.0007396425353363156,0.0001071294245775789,-0.00024627294624224305,0.9995142817497253,0.0,0.0,0.0,-7.933450222015381,2.139993906021118,3.809469699859619,1435.97021484375,0
545.2170000000006,0.00882484670728445,-0.03369029611349106,-0.00032470966107212007,0.0,0.0,0.0,0.0,0.0028038083110004663,0.004261721391230822,-0.00042700397898443043,1.0013149976730347,0.0,0.0,0.0,-7.941963195800781,2.1459779739379883,3.798633575439453,1437.5111083984375,0
555.1190000000006,0.008876665495336056,-0.033735934644937515,-0.000330740847857669,0.0,0.0,0.0,0.0,-0.002663444261997938,0.0005097926477901638,0.0010861054761335254,1.0002211332321167,0.0,0.0,0.0,-7.933445930480957,2.136329412460327,3.7918877601623535,1435.969482421875,0
565.0320000000011,0.008815490640699863,-0.033756375312805176,-0.00036155639099888504,0.0,0.0,0.0,0.0,2.4214366931119002e-05,-0.002142224693670869,-0.002854930004104972,1.0002317428588867,0.0,0.0,0.0,-7.939703464508057,2.1225204467773438,3.7831344604492188,1437.10205078125,0
574.9470000000001,0.008894595317542553,-0.03378136083483696,-0.0003367737226653844,0.0,0.0,0.0,0.0,-0.001958982553333044,0.003423854010179639,-0.0030508481431752443,1.0011391639709473,0.0,0.0,0.0,-7.931888103485107,2.1194064617156982,3.7841694355010986,1435.6875,0
584.857,0.00882306694984436,-0.03378375992178917,-0.000342202081810683,0.0,0.0,0.0,0.0,-0.002587660914286971,-0.0015745455166324973,-0.0015313551994040608,0.9996537566184998,0.0,0.0,0.0,-7.9401655197143555,2.118345260620117,3.773280143737793,1437.1856689453125,0
594.7700000000004,0.008864609524607658,-0.03380811586976051,-0.00032764923525974154,0.0,0.0,0.0,0.0,0.0011547475587576628,0.003092960687354207,0.001501607708632946,1.0009444952011108,0.0,0.0,0.0,-7.940406799316406,2.115910053253174,3.7877304553985596,1437.2293701171875,0
604.6830000000009,0.008821805939078331,-0.033792976289987564,-0.000361947575584054,0.0,0.0,0.0,0.0,-0.0004426160012371838,0.0016280217096209526,-0.0015805618604645133,1.0014218091964722,0.0,0.0,0.0,-7.947554111480713,2.1119751930236816,3.7781784534454346,1438.5230712890625,0
614.6020000000008,0.008903254754841328,-0.033800289034843445,-0.00031880702590569854,0.0,0.0,0.0,0.0,0.0008987709297798574,0.0005742986686527729,-0.004069682210683823,1.0024625062942505,0.0,0.0,0.0,-7.939582347869873,2.115859270095825,3.7817463874816895,1437.0802001953125,0
624.5080000000016,0.008880332112312317,-0.03378927707672119,-0.00037620263174176216,0.0,0.0,0.0,0.0,-0.0021174587309360504,0.0013757295673713088,-0.0037863038014620543,0.9986498355865479,0.0,0.0,0.0,-7.946658134460449,2.109555721282959,3.7794811725616455,1438.36083984375,0
634.4310000000005,0.008924481458961964,-0.033789895474910736,-0.00034053914714604616,0.0,0.0,0.0,0.0,0.005215824581682682,0.004075454548001289,0.0013757436536252499,0.9984911680221558,0.0,0.0,0.0,-7.939535140991211,2.1192142963409424,3.768951892852783,1437.0716552734375,0
644.3340000000007,0.008885612711310387,-0.03377252072095871,-0.0003757860977202654,0.0,0.0,0.0,0.0,0.00010260758426738903,-3.810999623965472e-05,-0.000783123541623354,1.0000780820846558,0.0,0.0,0.0,-7.942941665649414,2.11191463470459,3.770763397216797,1437.688232421875,0
654.2560000000012,0.008926025591790676,-0.03378976136445999,-0.0003533693961799145,0.0,0.0,0.0,0.0,-0.0005964132724329829,-0.005659147631376982,0.0001758874859660864,0.9996253848075867,0.0,0.0,0.0,-7.934964179992676,2.1080381870269775,3.7643463611602783,1436.2442626953125,0
664.1600000000017,0.008905897848308086,-0.03373663127422333,-0.0004019537300337106,0.0,0.0,0.0,0.0,0.000514631683472544,0.0016304288292303681,-0.0001244500163011253,0.9976529479026794,0.0,0.0,0.0,-7.941265106201172,2.1178781986236572,3.7712647914886475,1437.384765625,0
674.0799999999999,0.008976778946816921,-0.033777959644794464,-0.0003877768758684397,0.0,0.0,0.0,0.0,0.00307649839669466,0.004871801473200321,-0.0016689157346263528,0.9996086359024048,0.0,0.0,0.0,-7.932393550872803,2.1219635009765625,3.765615463256836,1435.779052734375,0
683.9850000000006,0.008909003809094429,-0.03376714885234833,-0.0003956687869504094,0.0,0.0,0.0,0.0,0.002449307357892394,0.0011857477948069572,-0.0022801458835601807,1.0014419555664062,0.0,0.0,0.0,-7.924292087554932,2.111823081970215,3.7512407302856445,1434.3126220703125,0
693.9050000000007,0.008933312259614468,-0.03376179561018944,-0.00039128714706748724,0.0,0.0,0.0,0.0,-0.0030492707155644894,0.0033721690997481346,-0.000697172770742327,1.002736210823059,0.0,0.0,0.0,-7.9162187576293945,2.1023640632629395,3.7453415393829346,1432.851318359375,0
703.8110000000015,0.00884256698191166,-0.033768583089113235,-0.00038907548878341913,0.0,0.0,0.0,0.0,0.0033989439252763987,-0.002212476683780551,0.0007092073210515082,0.9992074370384216,0.0,0.0,0.0,-7.925113201141357,2.104069232940674,3.7301430702209473,1434.4613037109375,0
713.732,0.008962994441390038,-0.03382198140025139,-0.0003540570323821157,0.0,0.0,0.0,0.0,0.0003191365103702992,-0.0034648803994059563,0.0038533892948180437,0.9976321458816528,0.0,0.0,0.0,-7.918482780456543,2.08732271194458,3.7608158588409424,1433.2611083984375,0
723.6370000000006,0.008890019729733467,-0.03379738703370094,-0.0003578431496862322,0.0,0.0,0.0,0.0,-0.00021901141735725105,0.004678371362388134,-0.003936002962291241,0.9994879364967346,0.0,0.0,0.0,-7.926057815551758,2.0929958820343018,3.761577606201172,1434.63232421875,0
733.5690000000013,0.008822960779070854,-0.03380509465932846,-0.0003605326928663999,0.0,0.0,0.0,0.0,0.0008684800122864544,-0.0036961131263524294,0.0044389162212610245,1.0010074377059937,0.0,0.0,0.0,-7.918672561645508,2.0918803215026855,3.745596408843994,1433.295654296875,0
743.4630000000016,0.00881837960332632,-0.03369483724236488,-0.00042499988921917975,0.0,0.0,0.0,0.0,-6.58970748190768e-05,0.0037113248836249113,0.0007584429113194346,1.0015933513641357,0.0,0.0,0.0,-7.926436424255371,2.118293523788452,3.7603750228881836,1434.7008056640625,0
753.3830000000016,0.00874392781406641,-0.03367453068494797,-0.0004307086346670985,0.0,0.0,0.0,0.0,-0.0010794533882290125,-0.00269630691036582,-0.0006808589096181095,1.0007693767547607,0.0,0.0,0.0,-7.918427467346191,2.116339683532715,3.74685001373291,1433.251220703125,0
763.2880000000005,0.008687031455338001,-0.03363761678338051,-0.0004579280212055892,0.0,0.0,0.0,0.0,-0.000654629897326231,-0.0013936618342995644,0.003779266495257616,1.0018914937973022,0.0,0.0,0.0,-7.927510738372803,2.1205337047576904,3.75301194190979,1434.895263671875,0
773.2150000000001,0.008608381263911724,-0.033612314611673355,-0.0004628383321687579,0.0,0.0,0.0,0.0,0.0011870369780808687,0.0038288210052996874,-0.00012593439896591008,0.9995762705802917,0.0,0.0,0.0,-7.918181419372559,2.1214888095855713,3.7549610137939453,1433.20654296875,0
783.1170000000002,0.00856848992407322,-0.033524297177791595,-0.000495210406370461,0.0,0.0,0.0,0.0,0.0005469046300277114,0.0011703635100275278,-0.00036816418287344277,0.9971559643745422,0.0,0.0,0.0,-7.9299798011779785,2.141101121902466,3.7658379077911377,1435.342041015625,0
793.0370000000003,0.008488304913043976,-0.033492203801870346,-0.0005026764702051878,0.0,0.0,0.0,0.0,-0.001420039450749755,-0.0014768083347007632,0.0006466351915150881,0.998457670211792,0.0,0.0,0.0,-7.922607421875,2.141951322555542,3.7602643966674805,1434.0076904296875,0
802.9410000000007,0.008405030705034733,-0.033458638936281204,-0.0005118970293551683,0.0,0.0,0.0,0.0,-0.0009668096899986267,0.008068239316344261,-0.00046236146590672433,0.9989368319511414,0.0,0.0,0.0,-7.914121150970459,2.138247013092041,3.763307571411133,1432.4716796875,0
812.8640000000014,0.00831905473023653,-0.03342311084270477,-0.000522322952747345,0.0,0.0,0.0,0.0,0.0014422198291867971,0.0024378651287406683,0.0030340845696628094,1.0010032653808594,0.0,0.0,0.0,-7.906810283660889,2.1389858722686768,3.740866184234619,1431.1485595703125,0
822.7660000000014,0.008224488236010075,-0.033382169902324677,-0.0005260168109089136,0.0,0.0,0.0,0.0,-0.00040121134952642024,0.0028475350700318813,-0.003581748576834798,1.0008249282836914,0.0,0.0,0.0,-7.9213337898254395,2.1360058784484863,3.7261955738067627,1433.7772216796875,0
832.6869999999999,0.00813402608036995,-0.033342450857162476,-0.0005350310821086168,0.0,0.0,0.0,0.0,-0.0024056187830865383,-0.005412239581346512,0.0014440013328567147,1.000777244567871,0.0,0.0,0.0,-7.914877414703369,2.134582757949829,3.7157957553863525,1432.6085205078125,0
842.5920000000006,0.008055933751165867,-0.03328976780176163,-0.0005518116522580385,0.0,0.0,0.0,0.0,0.001776220859028399,0.0043318429961800575,-0.004172276705503464,0.99783855676651,0.0,0.0,0.0,-7.92390775680542,2.142878532409668,3.727097272872925,1434.2430419921875,0
852.514000000001,0.00796192791312933,-0.033249631524086,-0.0005608814535662532,0.0,0.0,0.0,0.0,8.326824172399938e-05,0.0040647778660058975,0.0001777649304131046,0.9985260963439941,0.0,0.0,0.0,-7.917506217956543,2.1371514797210693,3.7173686027526855,1433.0843505859375,0
862.4170000000013,0.007865547202527523,-0.033210184425115585,-0.0005716506857424974,0.0,0.0,0.0,0.0,0.0016252847854048014,-0.0020763070788234472,0.005258214194327593,1.0008031129837036,0.0,0.0,0.0,-7.910109043121338,2.1342477798461914,3.7046151161193848,1431.74560546875,0
872.3380000000016,0.007766212336719036,-0.03317082300782204,-0.0005831323796883225,0.0,0.0,0.0,0.0,0.0010556505294516683,0.0009822475258260965,0.0002222507173428312,0.9999391436576843,0.0,0.0,0.0,-7.900807857513428,2.129544496536255,3.705202341079712,1430.0618896484375,0
882.2450000000008,0.0078042917884886265,-0.033142395317554474,-0.0007148577133193612,0.0,0.0,0.0,0.0,0.00020689217490144074,-1.018221337290015e-05,7.023010311968392e-06,1.0011186599731445,0.0,0.0,0.0,-7.911919116973877,2.138045310974121,3.7513060569763184,1432.0732421875,0
892.1640000000007,0.007710504811257124,-0.03310162201523781,-0.0007346005877479911,0.0,0.0,0.0,0.0,0.0011839617509394884,-0.000619372061919421,0.0024209124967455864,1.0008512735366821,0.0,0.0,0.0,-7.903016567230225,2.136366844177246,3.748307704925537,1430.461669921875,0
902.0690000000013,0.007706014439463615,-0.03308680281043053,-0.0008431266178376973,0.0,0.0,0.0,0.0,-0.004773139953613281,-0.0033347085118293762,0.0007045117672532797,1.0013035535812378,0.0,0.0,0.0,-7.917757034301758,2.1317028999328613,3.776021718978882,1433.1298828125,0
911.9950000000008,0.007614360190927982,-0.033047061413526535,-0.0008680513128638268,0.0,0.0,0.0,0.0,-5.4632662795484066e-05,0.004759022034704685,0.004246688913553953,1.0009135007858276,0.0,0.0,0.0,-7.909257888793945,2.1349310874938965,3.777527332305908,1431.5914306640625,0
921.8950000000004,0.007645300589501858,-0.03304547071456909,-0.0010082123335450888,0.0,0.0,0.0,0.0,0.001855000969953835,0.002582303946837783,-0.00012846662139054388,1.000739574432373,0.0,0.0,0.0,-7.915149688720703,2.129932403564453,3.8100664615631104,1432.6578369140625,0
931.8180000000011,0.007556815631687641,-0.03300607204437256,-0.0010399870807304978,0.0,0.0,0.0,0.0,-0.002750987419858575,0.0032132433261722326,-0.0006278910441324115,1.0014188289642334,0.0,0.0,0.0,-7.907271385192871,2.12345290184021,3.801417112350464,1431.23193359375,0
941.7260000000006,0.007464554160833359,-0.03296596184372902,-0.0010704706655815244,0.0,0.0,0.0,0.0,-0.0007180512184277177,-0.0018613992724567652,0.00042770474101416767,0.9974748492240906,0.0,0.0,0.0,-7.899543762207031,2.1280860900878906,3.793332099914551,1429.8330078125,0
951.648000000001,0.007369073573499918,-0.0329253263771534,-0.0011009888257831335,0.0,0.0,0.0,0.0,0.0003715460770763457,-0.003921911586076021,-3.967944212490693e-05,0.9968667030334473,0.0,0.0,0.0,-7.891707897186279,2.1249170303344727,3.786078929901123,1428.414794921875,0
961.5500000000011,0.007270239293575287,-0.03288387879729271,-0.001133694313466549,0.0,0.0,0.0,0.0,-0.00020532956114038825,0.00422443263232708,-0.0009463206515647471,0.9987832903862,0.0,0.0,0.0,-7.88398551940918,2.122446298599243,3.7904186248779297,1427.01708984375,0
971.478000000001,0.0071675339713692665,-0.03284130245447159,-0.001168369664810598,0.0,0.0,0.0,0.0,0.00031147102708928287,-0.003951020538806915,0.0002020937536144629,0.9982647895812988,0.0,0.0,0.0,-7.876337051391602,2.1169424057006836,3.7744176387786865,1425.6326904296875,0
981.3720000000012,0.007061738055199385,-0.03279775381088257,-0.0012043362949043512,0.0,0.0,0.0,0.0,0.0018936357228085399,-0.00010283615119988099,-0.0032420745119452477,0.999064028263092,0.0,0.0,0.0,-7.868642330169678,2.113661289215088,3.7776949405670166,1424.2398681640625,0
991.2980000000007,0.008767586201429367,-0.03377843275666237,-7.3042410804191604e-06,0.0,0.0,0.0,0.0,-0.0011668719816952944,-0.0038072464521974325,0.003435676684603095,0.9999892115592957,0.0,0.0,0.0,-7.870663166046143,1.9722869396209717,4.0908002853393555,1424.605712890625,0
1001.2049999999999,0.008734789676964283,-0.03377867862582207,-6.50516631139908e-06,0.0,0.0,0.0,0.0,-0.0006252751918509603,-0.002148319035768509,0.0019812011159956455,1.0004231929779053,0.0,0.0,0.0,-7.861804485321045,1.9728620052337646,4.095589637756348,1423.002197265625,0
1011.1180000000004,0.008775117807090282,-0.03383278846740723,-1.6591360690654255e-05,0.0,0.0,0.0,0.0,-0.00201608007773757,-0.00043373191147111356,0.0012352261692285538,1.001219630241394,0.0,0.0,0.0,-7.860538005828857,1.960113286972046,4.103720664978027,1422.7730712890625,0
1021.0310000000009,0.008741039782762527,-0.033834706991910934,-1.5813764548511244e-05,0.0,0.0,0.0,0.0,-0.0016001901822164655,0.00195499905385077,0.0025069634430110455,1.0006016492843628,0.0,0.0,0.0,-7.852022647857666,1.959367036819458,4.097462177276611,1421.2318115234375,0
1030.9500000000007,0.008779163472354412,-0.03386722132563591,-3.7002017052145675e-05,0.0,0.0,0.0,0.0,-0.00016884220531210303,-0.003141361754387617,-0.0017523454735055566,0.9988369941711426,0.0,0.0,0.0,-7.852007865905762,1.9459017515182495,4.102443218231201,1421.2291259765625,0
1040.8490000000002,0.008741059340536594,-0.03386900946497917,-3.6726694816024974e-05,0.0,0.0,0.0,0.0,-0.000474157917778939,-0.0006550935795530677,0.001484538777731359,0.9979248642921448,0.0,0.0,0.0,-7.843531131744385,1.941449522972107,4.109893798828125,1419.69482421875,0
1050.7700000000004,0.0087563032284379,-0.033881377428770065,-5.013550980947912e-05,0.0,0.0,0.0,0.0,0.00023003025853540748,0.00026745174545794725,-0.00046231001033447683,0.9982402920722961,0.0,0.0,0.0,-7.843636989593506,1.9372105598449707,4.114138603210449,1419.7138671875,0
1060.675000000001,0.008715483359992504,-0.03388167917728424,-5.346146645024419e-05,0.0,0.0,0.0,0.0,0.0017867054557427764,4.24180252593942e-05,0.003835464594885707,0.9991434812545776,0.0,0.0,0.0,-7.835957050323486,1.9366036653518677,4.1065826416015625,1418.32373046875,0
1070.6060000000016,0.008752345107495785,-0.03388243541121483,-6.171617860672995e-05,0.0,0.0,0.0,0.0,-0.001164751360192895,9.32745315367356e-05,0.00400521419942379,0.9995735883712769,0.0,0.0,0.0,-7.836396217346191,1.9278504848480225,4.113806247711182,1418.4033203125,0
1080.5080000000016,0.008707990869879723,-0.03388236090540886,-6.702119571855292e-05,0.0,0.0,0.0,0.0,0.0005343906814232469,0.002760709263384342,0.0014467904111370444,0.9996188879013062,0.0,0.0,0.0,-7.828328609466553,1.9271690845489502,4.111691951751709,1416.9429931640625,0
1090.424000000001,0.008784395642578602,-0.033907849341630936,-0.00010632831981638446,0.0,0.0,0.0,0.0,-0.0014118729159235954,-0.0017154216766357422,0.000671514542773366,1.0009609460830688,0.0,0.0,0.0,-7.828980922698975,1.9094653129577637,4.122743606567383,1417.06103515625,0
1100.3290000000015,0.008736145682632923,-0.033908743411302567,-0.0001137474100687541,0.0,0.0,0.0,0.0,0.002504616742953658,6.458388816099614e-05,-0.001873140805400908,0.999400794506073,0.0,0.0,0.0,-7.821395397186279,1.9035494327545166,4.121102333068848,1415.6881103515625,0
1110.255000000001,0.008789267390966415,-0.0339268259704113,-0.00014472429757006466,0.0,0.0,0.0,0.0,-0.002926686778664589,0.0023225180339068174,-0.0017104401485994458,0.9986193776130676,0.0,0.0,0.0,-7.825160980224609,1.8901355266571045,4.136226654052734,1416.36962890625,0
1120.1550000000007,0.008736895397305489,-0.03392985090613365,-0.00015391226042993367,0.0,0.0,0.0,0.0,0.0004998086369596422,-0.002677947748452425,-0.00037466641515493393,0.997566819190979,0.0,0.0,0.0,-7.816870212554932,1.8935213088989258,4.135200023651123,1414.8690185546875,0
1130.085000000001,0.00868168193846941,-0.033932335674762726,-0.0001647678145673126,0.0,0.0,0.0,0.0,-0.0006379861733876169,-0.0030969586223363876,0.003248860128223896,0.9992499947547913,0.0,0.0,0.0,-7.808645725250244,1.8864399194717407,4.138216018676758,1413.3804931640625,0
1139.978000000001,0.008624272421002388,-0.033934492617845535,-0.00017712623230181634,0.0,0.0,0.0,0.0,0.0049387202598154545,0.006119139492511749,-0.0027235927991569042,1.0012699365615845,0.0,0.0,0.0,-7.799602508544922,1.8890634775161743,4.142070770263672,1411.7435302734375,0
1149.911,0.008794136345386505,-0.033928245306015015,-0.00018144221394322813,0.0,0.0,0.0,0.0,0.0006779975956305861,0.002184435026720166,-0.000837023719213903,1.001395344734192,0.0,0.0,0.0,-7.796205520629883,1.8871675729751587,4.184744834899902,1411.128662109375,0
1159.8060000000005,0.00874299742281437,-0.0339299775660038,-0.0001900247880257666,0.0,0.0,0.0,0.0,0.00110021629370749,0.00015945127233862877,-3.911810381396208e-06,1.0016981363296509,0.0,0.0,0.0,-7.7881245613098145,1.8864918947219849,4.183755874633789,1409.666015625,0
1169.7260000000006,0.008861768059432507,-0.033936116844415665,-0.00020222956663928926,0.0,0.0,0.0,0.0,0.0012565689394250512,-0.00018060312140733004,-0.0008615961414761841,0.9987792372703552,0.0,0.0,0.0,-7.79407262802124,1.8835705518722534,4.214698791503906,1410.74267578125,0
1179.6320000000014,0.008842676877975464,-0.03376243636012077,-0.00039893286884762347,0.0,0.0,0.0,0.0,-0.0005411213496699929,0.004243604373186827,0.0010654587531462312,0.9970261454582214,0.0,0.0,0.0,-7.816666126251221,1.9157109260559082,4.212413311004639,1414.8321533203125,0
1189.5550000000003,0.008923299610614777,-0.03381534293293953,-0.00035395511076785624,0.0,0.0,0.0,0.0,-0.00021875400852877647,-0.0016247049206867814,-3.3545653423061594e-05,0.9978606104850769,0.0,0.0,0.0,-7.815532207489014,1.8993927240371704,4.2215118408203125,1414.6268310546875,0
1199.4570000000003,0.008843124844133854,-0.03382403403520584,-0.00028995462344028056,0.0,0.0,0.0,0.0,0.0010595510248094797,-0.0028208917938172817,0.0006697847275063396,0.9979903697967529,0.0,0.0,0.0,-7.836025238037109,1.9011181592941284,4.223691463470459,1418.3360595703125,0
1209.3830000000016,0.008900298736989498,-0.03385406732559204,-0.0002475403598509729,0.0,0.0,0.0,0.0,0.0013409974053502083,-0.0011688536033034325,0.0020337786991149187,0.9981986880302429,0.0,0.0,0.0,-7.8278489112854,1.895961880683899,4.228423595428467,1416.856201171875,0
1219.286,0.008849682286381721,-0.0338229201734066,-0.000244216644205153,0.0,0.0,0.0,0.0,-0.002033735392615199,-0.003972286358475685,0.006296731065958738,0.9996086955070496,0.0,0.0,0.0,-7.844250679016113,1.902190089225769,4.219155311584473,1419.8250732421875,0
1229.2090000000007,0.008869439363479614,-0.03384597599506378,-0.00022360074217431247,0.0,0.0,0.0,0.0,0.0009504067711532116,-0.0032576012890785933,0.0019889946561306715,0.9999913573265076,0.0,0.0,0.0,-7.835157871246338,1.9076414108276367,4.220314979553223,1418.17919921875,0
1239.1080000000002,0.008774030022323132,-0.03385765850543976,-0.00017371562717016786,0.0,0.0,0.0,0.0,0.0017567771719768643,0.0028190610464662313,0.0028700167313218117,0.9979467391967773,0.0,0.0,0.0,-7.8458027839660645,1.9004021883010864,4.214747905731201,1420.10595703125,0
1249.0280000000002,0.008841751143336296,-0.03389948979020119,-0.0001398864114889875,0.0,0.0,0.0,0.0,0.0019429298117756844,0.0016548638232052326,0.0005642067990265787,0.9987686276435852,0.0,0.0,0.0,-7.836986064910889,1.893865704536438,4.202491283416748,1418.5101318359375,0
1258.933000000001,0.00879517663270235,-0.033840540796518326,-0.0001315413392148912,0.0,0.0,0.0,0.0,0.0007311414228752255,-0.0018884870223701,0.001109803793951869,1.0000126361846924,0.0,0.0,0.0,-7.847630977630615,1.8974658250808716,4.192245960235596,1420.4368896484375,0
1268.8630000000012,0.00881950929760933,-0.03389894217252731,-0.00013133167522028089,0.0,0.0,0.0,0.0,0.0004433306457940489,0.004143992904573679,0.0021036951802670956,1.0003821849822998,0.0,0.0,0.0,-7.838690280914307,1.894231915473938,4.191943168640137,1418.8184814453125,0
1278.7600000000002,0.008790099993348122,-0.03383750468492508,-0.00015630658890586346,0.0,0.0,0.0,0.0,0.00343030015937984,-0.0011875954223796725,-0.0012504772748798132,1.0006223917007446,0.0,0.0,0.0,-7.847883701324463,1.9003194570541382,4.181909561157227,1420.4825439453125,0
1288.6860000000015,0.008830023929476738,-0.033875204622745514,-0.00013482691429089755,0.0,0.0,0.0,0.0,0.00039390355232171714,0.0016532932640984654,0.002082726452499628,0.997624397277832,0.0,0.0,0.0,-7.840136528015137,1.8929611444473267,4.184328079223633,1419.0802001953125,0
1298.5950000000012,0.008801773190498352,-0.03381767496466637,-0.00015823055582586676,0.0,0.0,0.0,0.0,0.0026762483175843954,0.004989245906472206,0.0003456830745562911,0.9980616569519043,0.0,0.0,0.0,-7.847944259643555,1.904231071472168,4.17621374130249,1420.4935302734375,0
1308.5100000000002,0.008771608583629131,-0.03383704274892807,-0.00015552729018963873,0.0,0.0,0.0,0.0,0.0034340706188231707,0.0029643469024449587,0.0004957614582963288,0.9992716908454895,0.0,0.0,0.0,-7.840119361877441,1.8948819637298584,4.1610798835754395,1419.0772705078125,0
1318.4190000000017,0.008774301037192345,-0.03372172638773918,-0.00021147877851035446,0.0,0.0,0.0,0.0,-0.0022569496650248766,0.0036106330808252096,-0.0039407783187925816,1.0007458925247192,0.0,0.0,0.0,-7.851669788360596,1.9089906215667725,4.157157897949219,1421.1678466796875,0
1328.3310000000001,0.008772524073719978,-0.03374788537621498,-0.00021064069005660713,0.0,0.0,0.0,0.0,-0.0005048885941505432,0.004609356168657541,0.002054401906207204,0.999196469783783,0.0,0.0,0.0,-7.853733539581299,1.909439206123352,4.160077095031738,1421.54150390625,0
1338.2440000000006,0.008756562136113644,-0.03369857743382454,-0.00026692572282627225,0.0,0.0,0.0,0.0,0.0016274526715278625,-0.0009575411677360535,-0.0013169628800824285,1.0015565156936646,0.0,0.0,0.0,-7.863749980926514,1.9224432706832886,4.154551029205322,1423.3543701171875,0
1348.1560000000009,0.008782702498137951,-0.03373710438609123,-0.00026675371918827295,0.0,0.0,0.0,0.0,-0.0021610469557344913,-0.000735860550776124,0.0011765665840357542,0.9989253282546997,0.0,0.0,0.0,-7.856417179107666,1.9179327487945557,4.155553340911865,1422.0272216796875,0
1358.0690000000013,0.008748947642743587,-0.033707354217767715,-0.00030803674599155784,0.0,0.0,0.0,0.0,-0.0029826988466084003,0.0043044439516961575,-0.0015551918186247349,0.9966592788696289,0.0,0.0,0.0,-7.868087291717529,1.9237099885940552,4.14992618560791,1424.139404296875,0
1367.978000000001,0.008848138153553009,-0.03375234827399254,-0.00028588491841219366,0.0,0.0,0.0,0.0,-0.0003501770261209458,0.00027541161398403347,-0.001011681859381497,0.99879390001297,0.0,0.0,0.0,-7.8604655265808105,1.925917387008667,4.131381988525391,1422.760009765625,0
1377.9050000000007,0.008810633793473244,-0.03372673690319061,-0.0003261444508098066,0.0,0.0,0.0,0.0,-0.00029795069713145494,-0.001289661624468863,0.0009185501257888973,1.0001863241195679,0.0,0.0,0.0,-7.871060848236084,1.925365924835205,4.123686790466309,1424.6776123046875,0
1387.8050000000003,0.008827431127429008,-0.033771008253097534,-0.0003371778002474457,0.0,0.0,0.0,0.0,-0.0002492775092832744,0.0013009300455451012,5.858729127794504e-05,1.0001444816589355,0.0,0.0,0.0,-7.869772434234619,1.915456771850586,4.133080005645752,1424.4444580078125,0
1397.7210000000014,0.008791317231953144,-0.033737506717443466,-0.00037921860348433256,0.0,0.0,0.0,0.0,-0.0008123048464767635,-0.0027110560331493616,-0.00212491350248456,0.998263955116272,0.0,0.0,0.0,-7.879618167877197,1.9190667867660522,4.126840114593506,1426.2265625,0
1407.6350000000002,0.008806525729596615,-0.03377334401011467,-0.000388967280741781,0.0,0.0,0.0,0.0,0.0006155412411317229,-0.0016495909076184034,0.0009948679944500327,0.9998483657836914,0.0,0.0,0.0,-7.878147125244141,1.9114872217178345,4.143632411956787,1425.9603271484375,0
1417.5530000000017,0.008786710910499096,-0.03372602164745331,-0.0004612488846760243,0.0,0.0,0.0,0.0,0.0038924473337829113,0.00030593591509386897,0.0007433564751408994,1.0008498430252075,0.0,0.0,0.0,-7.890050411224365,1.9239667654037476,4.145479679107666,1428.11474609375,0
1427.4530000000013,0.008865916170179844,-0.03375424072146416,-0.0004413432616274804,0.0,0.0,0.0,0.0,0.0029973965138196945,-0.0021808042656630278,0.0061304084956645966,1.0017449855804443,0.0,0.0,0.0,-7.882418632507324,1.917984127998352,4.134969234466553,1426.7335205078125,0
1437.3790000000008,0.008836626075208187,-0.03372408077120781,-0.0004956874763593078,0.0,0.0,0.0,0.0,-0.0029932004399597645,0.004285508766770363,-0.0052632493898272514,1.0002065896987915,0.0,0.0,0.0,-7.891543865203857,1.917344093322754,4.131392478942871,1428.3851318359375,0
1447.2830000000013,0.008884250186383724,-0.03374956548213959,-0.00048220439930446446,0.0,0.0,0.0,0.0,-0.0008511386113241315,0.0038924519903957844,-0.0024173352867364883,0.9978132843971252,0.0,0.0,0.0,-7.884920120239258,1.9183244705200195,4.121288299560547,1427.186279296875,0
1457.2000000000007,0.008813836611807346,-0.033767301589250565,-0.0005010858876630664,0.0,0.0,0.0,0.0,0.0003864465106744319,-0.00013072234287392348,0.0006092345574870706,1.000593900680542,0.0,0.0,0.0,-7.894507884979248,1.9169403314590454,4.109411239624023,1428.921630859375,0
1467.1050000000014,0.008912408724427223,-0.033804234117269516,-0.0004706119070760906,0.0,0.0,0.0,0.0,0.003447566879913211,-0.0030371379107236862,-0.0012096907012164593,1.0001580715179443,0.0,0.0,0.0,-7.886067867279053,1.9105559587478638,4.112613201141357,1427.3939208984375,0
1477.0290000000005,0.008874989114701748,-0.03376642242074013,-0.0005078216781839728,0.0,0.0,0.0,0.0,-0.0015888579655438662,0.0020377011969685555,0.00030366319697350264,0.9988878965377808,0.0,0.0,0.0,-7.894046306610107,1.9109764099121094,4.1174211502075195,1428.8380126953125,0
1486.9300000000003,0.008839252404868603,-0.03377877548336983,-0.000516303931362927,0.0,0.0,0.0,0.0,0.0022351720836013556,0.0021116118878126144,0.003733599791303277,0.9995057582855225,0.0,0.0,0.0,-7.886035442352295,1.9107834100723267,4.110339641571045,1427.3880615234375,0
1496.8510000000006,0.008803701028227806,-0.033733174204826355,-0.0005605788319371641,0.0,0.0,0.0,0.0,-0.0004035162564832717,-0.0005283075151965022,-0.0017542764544487,0.9997893571853638,0.0,0.0,0.0,-7.892554759979248,1.91424560546875,4.10576057434082,1428.568115234375,0
1506.7560000000012,0.008859916590154171,-0.03373906388878822,-0.0005244474159553647,0.0,0.0,0.0,0.0,-0.00189447239972651,-0.0007628010353073478,0.001471717725507915,1.0008783340454102,0.0,0.0,0.0,-7.884235382080078,1.9134818315505981,4.109179973602295,1427.062255859375,0
1516.687,0.00876108929514885,-0.033786285668611526,-0.0005179950967431068,0.0,0.0,0.0,0.0,0.00031364455935545266,-0.0005546853644773364,-0.0025647177826613188,0.9989935159683228,0.0,0.0,0.0,-7.894181728363037,1.903005838394165,4.099986553192139,1428.862548828125,0
1526.5810000000001,0.008693650364875793,-0.03378745913505554,-0.0005316140595823526,0.0,0.0,0.0,0.0,0.0027062809094786644,0.0014035203494131565,0.0022968275006860495,0.999923050403595,0.0,0.0,0.0,-7.887595176696777,1.9044896364212036,4.094578742980957,1427.67041015625,0
1536.5030000000006,0.008650647476315498,-0.033730268478393555,-0.0005555886309593916,0.0,0.0,0.0,0.0,0.0007246352033689618,-0.0015275273472070694,-0.0022314719390124083,1.0010102987289429,0.0,0.0,0.0,-7.898140907287598,1.9152851104736328,4.094467639923096,1429.5791015625,0
1546.407000000001,0.008876313455402851,-0.033819783478975296,-0.00044106048881076276,0.0,0.0,0.0,0.0,0.00039218447636812925,-0.0027469911146909,-0.0006642751395702362,1.000152587890625,0.0,0.0,0.0,-7.896306037902832,1.9062706232070923,4.159814357757568,1429.2470703125,0
1556.33,0.00881258212029934,-0.033786021173000336,-0.00042133775423280895,0.0,0.0,0.0,0.0,-9.16411227080971e-05,0.00182150152977556,0.001956413732841611,1.0004266500473022,0.0,0.0,0.0,-7.9063544273376465,1.91433584690094,4.147819519042969,1431.06591796875,0
1566.2350000000006,0.008838923647999763,-0.03382068872451782,-0.0004000490880571306,0.0,0.0,0.0,0.0,-0.0030380040407180786,-0.002262595808133483,0.0013722347794100642,1.0013039112091064,0.0,0.0,0.0,-7.898273944854736,1.913323998451233,4.133521556854248,1429.603271484375,0
1576.1560000000009,0.008799254894256592,-0.033781249076128006,-0.00040954077849164605,0.0,0.0,0.0,0.0,-0.0009761167457327247,-8.067949238466099e-05,0.0016396224964410067,1.0016344785690308,0.0,0.0,0.0,-7.9093475341796875,1.9274122714996338,4.127901554107666,1431.607666015625,0
1586.059000000001,0.00878834817558527,-0.033782217651605606,-0.0003776346566155553,0.0,0.0,0.0,0.0,0.0014210366643965244,0.001715499791316688,0.0007505828398279846,0.9993358850479126,0.0,0.0,0.0,-7.900735378265381,1.9277522563934326,4.121982574462891,1430.0487060546875,0
1595.9920000000002,0.008706224150955677,-0.03377103433012962,-0.000341936043696478,0.0,0.0,0.0,0.0,-0.0033290048595517874,-0.001014919951558113,-0.003294549649581313,0.9993568658828735,0.0,0.0,0.0,-7.909791469573975,1.9323444366455078,4.119014739990234,1431.68798828125,0
1605.884,0.008798815310001373,-0.03382300212979317,-0.00030080339638516307,0.0,0.0,0.0,0.0,0.0004472795408219099,-0.005511728581041098,0.0006077773286961019,0.9998766183853149,0.0,0.0,0.0,-7.908499717712402,1.9246073961257935,4.145866394042969,1431.454345703125,0
1615.812,0.008692109026014805,-0.03385569527745247,-0.00024484453024342656,0.0,0.0,0.0,0.0,0.0004720211436506361,-0.002297834726050496,-0.0010947574628517032,1.000219464302063,0.0,0.0,0.0,-7.916439056396484,1.9198533296585083,4.1516313552856445,1432.8912353515625,0
1625.7170000000006,0.008719966746866703,-0.03388645499944687,-0.00020553896320052445,0.0,0.0,0.0,0.0,-0.0018817728850990534,-7.785509660607204e-05,0.002529407851397991,0.9975642561912537,0.0,0.0,0.0,-7.909556865692139,1.9247082471847534,4.152820587158203,1431.6456298828125,0
1635.6410000000014,0.008649046532809734,-0.0338728092610836,-0.0001744662586133927,0.0,0.0,0.0,0.0,-0.0006658320780843496,0.0035257134586572647,-0.004841882269829512,0.9983315467834473,0.0,0.0,0.0,-7.916863441467285,1.9317768812179565,4.144372463226318,1432.9681396484375,0
1645.536,0.008795617148280144,-0.03393343836069107,-0.0001085053663700819,0.0,0.0,0.0,0.0,-0.000890300318133086,0.004137700889259577,0.0017078403616324067,1.0001678466796875,0.0,0.0,0.0,-7.9106597900390625,1.9298371076583862,4.1351141929626465,1431.84521484375,0
1655.460000000001,0.008779036812484264,-0.03386229649186134,-0.0001172250194940716,0.0,0.0,0.0,0.0,-0.0030574114061892033,0.0012942920438945293,0.0010296078398823738,1.0016536712646484,0.0,0.0,0.0,-7.916761875152588,1.9461426734924316,4.125275611877441,1432.94970703125,0
1665.3610000000008,0.008808018639683723,-0.03391470015048981,-9.169521945295855e-05,0.0,0.0,0.0,0.0,0.001013083034195006,-0.0032247004564851522,0.00248003494925797,1.0022835731506348,0.0,0.0,0.0,-7.915583610534668,1.9416815042495728,4.1363396644592285,1432.7364501953125,0
1675.2870000000003,0.008835164830088615,-0.0337870717048645,-0.00013279551058076322,0.0,0.0,0.0,0.0,0.0009453737293370068,0.0002542603178881109,-0.0014294913271442056,0.9982152581214905,0.0,0.0,0.0,-7.9232048988342285,1.9629164934158325,4.149741172790527,1434.1158447265625,0
1685.1910000000007,0.008867694064974785,-0.03383777663111687,-0.00010850925173144788,0.0,0.0,0.0,0.0,-0.0009911229135468602,0.0018338566878810525,-0.0003531441616360098,0.9968836903572083,0.0,0.0,0.0,-7.915187358856201,1.95523202419281,4.147510051727295,1432.6646728515625,0
1695.1100000000006,0.008825710974633694,-0.033808644860982895,-0.00010422186460345984,0.0,0.0,0.0,0.0,0.002877852413803339,0.0026469742879271507,0.003564639948308468,0.9993118643760681,0.0,0.0,0.0,-7.918298721313477,1.9619479179382324,4.14799165725708,1433.227783203125,0
1705.0130000000008,0.008815756998956203,-0.03386766463518143,-0.000107140454929322,0.0,0.0,0.0,0.0,0.00042749723070301116,-0.0017570883501321077,-0.0006288597360253334,0.9988073706626892,0.0,0.0,0.0,-7.909193992614746,1.9521201848983765,4.136672019958496,1431.5799560546875,0
1714.938,0.008787677623331547,-0.03380652517080307,-0.00011459807137725875,0.0,0.0,0.0,0.0,0.0025724756997078657,0.0017609907081350684,-0.0007966563571244478,1.0008474588394165,0.0,0.0,0.0,-7.915988922119141,1.9699567556381226,4.135528087615967,1432.809814453125,0
1724.8450000000012,0.008840827271342278,-0.03386017307639122,-9.133538696914911e-05,0.0,0.0,0.0,0.0,0.0011038159718737006,0.00471795629709959,0.00025255943182855844,1.0000544786453247,0.0,0.0,0.0,-7.908963203430176,1.9629414081573486,4.12553596496582,1431.5380859375,0
1734.7670000000016,0.008838485926389694,-0.03380192443728447,-0.00013974597095511854,0.0,0.0,0.0,0.0,0.00017421672237105668,-0.0009716795175336301,0.0047678472474217415,0.9977550506591797,0.0,0.0,0.0,-7.914629936218262,1.972710132598877,4.120261192321777,1432.5638427734375,0
1744.674000000001,0.008819147013127804,-0.03385494276881218,-0.00015335381613112986,0.0,0.0,0.0,0.0,0.0017219585133716464,0.0007488452247343957,0.0009829115588217974,0.9988219141960144,0.0,0.0,0.0,-7.905293941497803,1.9723069667816162,4.1204752922058105,1430.8740234375,0
1754.5930000000008,0.008829927071928978,-0.033799439668655396,-0.00022408530639950186,0.0,0.0,0.0,0.0,-0.0016256734961643815,-0.0006781943957321346,-0.0005421573296189308,0.9991958141326904,0.0,0.0,0.0,-7.912591934204102,1.984604001045227,4.1237101554870605,1432.1949462890625,0
1764.4990000000016,0.008879408240318298,-0.0338364839553833,-0.0002052673080470413,0.0,0.0,0.0,0.0,-0.0003497886937111616,0.0021202664356678724,0.0020749245304614305,0.998826801776886,0.0,0.0,0.0,-7.904423713684082,1.9853582382202148,4.127196788787842,1430.7164306640625,0
1774.411,0.008914533071219921,-0.033729132264852524,-0.00029026137781329453,0.0,0.0,0.0,0.0,-0.0008536463137716055,0.0018662498332560062,0.0016491994028910995,0.9990507364273071,0.0,0.0,0.0,-7.917333602905273,2.010829448699951,4.129179000854492,1433.0531005859375,0
1784.3250000000007,0.008866488002240658,-0.03376852720975876,-0.00032523844856768847,0.0,0.0,0.0,0.0,0.0006711655878461897,0.00017178647976834327,0.0006647796253673732,0.998656153678894,0.0,0.0,0.0,-7.909512519836426,2.010608434677124,4.119077682495117,1431.6375732421875,0
1794.2390000000014,0.008801794610917568,-0.03378716856241226,-0.00033814634662121534,0.0,0.0,0.0,0.0,-0.0013933152658864856,-0.0024724530521780252,0.0016613497864454985,0.9980038404464722,0.0,0.0,0.0,-7.918600082397461,2.008012294769287,4.115387916564941,1433.2823486328125,0
1804.152,0.008871413767337799,-0.03382131829857826,-0.00031937772291712463,0.0,0.0,0.0,0.0,0.0016405159840360284,0.002851746743544936,0.0025917694438248873,0.9996494650840759,0.0,0.0,0.0,-7.909598350524902,2.0079703330993652,4.113739490509033,1431.6531982421875,0
1814.062,0.008821487426757812,-0.03382650017738342,-0.0003418333944864571,0.0,0.0,0.0,0.0,0.0014247087528929114,0.0009389289771206677,0.001048112753778696,1.0011863708496094,0.0,0.0,0.0,-7.918750762939453,2.0052647590637207,4.102445602416992,1433.3096923828125,0
1823.9770000000008,0.008825182914733887,-0.03385127708315849,-0.0003441095759626478,0.0,0.0,0.0,0.0,-0.0016860709292814136,0.0008897710940800607,0.006284857168793678,1.0012999773025513,0.0,0.0,0.0,-7.9106340408325195,2.0034525394439697,4.093242645263672,1431.840576171875,0
1833.9010000000017,0.008783000521361828,-0.03383317589759827,-0.00036931500653736293,0.0,0.0,0.0,0.0,0.0019067408284172416,0.0011262460611760616,0.0006693198811262846,0.9990717172622681,0.0,0.0,0.0,-7.921368598937988,2.0137596130371094,4.086439609527588,1433.783447265625,0
1843.8070000000007,0.008824325166642666,-0.0338534414768219,-0.000350768183125183,0.0,0.0,0.0,0.0,0.0029466080013662577,-0.0054329573176801205,-0.0010078905615955591,0.9972481727600098,0.0,0.0,0.0,-7.919154167175293,2.0104331970214844,4.098063945770264,1433.3826904296875,0
1853.7250000000004,0.0087844617664814,-0.03383173048496246,-0.00038053563912399113,0.0,0.0,0.0,0.0,-0.0018920685397461057,-0.00042821644456125796,-0.0018999914173036814,1.0005818605422974,0.0,0.0,0.0,-7.9300055503845215,2.013183832168579,4.110649108886719,1435.346923828125,0
1863.630000000001,0.00882041547447443,-0.0338488444685936,-0.0003621861687861383,0.0,0.0,0.0,0.0,-1.6640202375128865e-05,0.0025399348232895136,0.001096764113754034,1.000423550605774,0.0,0.0,0.0,-7.922460556030273,2.01457142829895,4.101408958435059,1433.9810791015625,0
1873.5430000000015,0.008768930099904537,-0.03386229649186134,-0.00039480780833400786,0.0,0.0,0.0,0.0,0.002622364554554224,0.00011615481344051659,-0.0004375902353785932,0.9986177086830139,0.0,0.0,0.0,-7.929770469665527,2.009220838546753,4.088200092315674,1435.30419921875,0
1883.4590000000007,0.008831508457660675,-0.03386680409312248,-0.0003535276046022773,0.0,0.0,0.0,0.0,0.0015458796406164765,-0.002465597353875637,0.0036011869087815285,1.0005043745040894,0.0,0.0,0.0,-7.922140598297119,2.0034615993499756,4.081552505493164,1433.9232177734375,0
1893.3700000000008,0.008733688853681087,-0.033896759152412415,-0.00032980815740302205,0.0,0.0,0.0,0.0,0.0002327704569324851,-0.0005716726300306618,0.0010882088681682944,0.9992890954017639,0.0,0.0,0.0,-7.930616855621338,1.9948352575302124,4.076251029968262,1435.45751953125,0
1903.2790000000005,0.008824465796351433,-0.03390415385365486,-0.00027306171250529587,0.0,0.0,0.0,0.0,0.002071881201118231,-0.004021927248686552,0.0010665314039215446,1.0012753009796143,0.0,0.0,0.0,-7.922609329223633,1.9932671785354614,4.072206497192383,1434.008056640625,0
1913.1910000000007,0.00879193190485239,-0.033862192183732986,-0.00029845553217455745,0.0,0.0,0.0,0.0,-3.8017162296455353e-05,0.0030745286494493484,0.0033947965130209923,1.0005192756652832,0.0,0.0,0.0,-7.929020881652832,1.9948581457138062,4.077507495880127,1435.1685791015625,0
1923.1080000000002,0.008846597746014595,-0.03388258069753647,-0.00026421246002428234,0.0,0.0,0.0,0.0,-0.00257737934589386,-0.0019283067667856812,-3.711451427079737e-05,0.9975695013999939,0.0,0.0,0.0,-7.919491291046143,1.990839958190918,4.066293239593506,1433.4437255859375,0
1933.0170000000016,0.008808293379843235,-0.03385736420750618,-0.0002864479029085487,0.0,0.0,0.0,0.0,-0.002727873856201768,0.002426906954497099,-0.0017226811032742262,0.999982476234436,0.0,0.0,0.0,-7.928369522094727,1.9970393180847168,4.064520359039307,1435.0506591796875,0
1942.9320000000007,0.0088612986728549,-0.03386327251791954,-0.00024346730788238347,0.0,0.0,0.0,0.0,-0.002158538904041052,0.0035514559131115675,0.0018380640540271997,1.0018491744995117,0.0,0.0,0.0,-7.921823501586914,1.9952644109725952,4.05233907699585,1433.8658447265625,0
1952.8370000000014,0.008834728971123695,-0.03380095213651657,-0.0002641976752784103,0.0,0.0,0.0,0.0,0.0030911972280591726,-0.004073265939950943,-0.0008265690412372351,1.0004491806030273,0.0,0.0,0.0,-7.927576541900635,2.0114939212799072,4.043598651885986,1434.9071044921875,0
1962.7670000000016,0.008828885853290558,-0.033834058791399,-0.0002616401470731944,0.0,0.0,0.0,0.0,-0.002507820026949048,0.0005755482707172632,0.000786670483648777,0.998418927192688,0.0,0.0,0.0,-7.920231342315674,2.0043728351593018,4.048673629760742,1433.57763671875,0
1972.6680000000015,0.008801331743597984,-0.0337761752307415,-0.0002868626615963876,0.0,0.0,0.0,0.0,0.002223909366875887,-0.0010632030898705125,0.004126538056880236,0.9998376369476318,0.0,0.0,0.0,-7.926791667938232,2.021775722503662,4.049015998840332,1434.76513671875,0
1982.5840000000007,0.008818780072033405,-0.03381294757127762,-0.00028095944435335696,0.0,0.0,0.0,0.0,0.00020848194253630936,0.0045603555627167225,-0.0005998697015456855,1.001596450805664,0.0,0.0,0.0,-7.9180216789245605,2.0172948837280273,4.0477375984191895,1433.177734375,0
1992.4890000000014,0.008768022991716862,-0.033802688121795654,-0.00029697982245124876,0.0,0.0,0.0,0.0,0.0005549518973566592,0.0006008697091601789,-0.000802800350356847,1.0001590251922607,0.0,0.0,0.0,-7.925689697265625,2.019233226776123,4.035871982574463,1434.565673828125,0
2002.4190000000017,0.00882241316139698,-0.0338459387421608,-0.0002779657661449164,0.0,0.0,0.0,0.0,0.004241979215294123,-0.0021272532176226377,0.000561893917620182,1.000910758972168,0.0,0.0,0.0,-7.917733192443848,2.0144336223602295,4.024764537811279,1433.12548828125,0
2012.3160000000007,0.008792919106781483,-0.033793527632951736,-0.0003021825978066772,0.0,0.0,0.0,0.0,-0.0014591505751013756,0.003035034751519561,0.0027458423282951117,1.0021108388900757,0.0,0.0,0.0,-7.928089618682861,2.018146276473999,4.024539947509766,1435.0,0
2022.2380000000012,0.008848379366099834,-0.03380999714136124,-0.00026166962925344706,0.0,0.0,0.0,0.0,-0.00046481165918521583,-0.001045827753841877,0.00040709535824134946,1.000415563583374,0.0,0.0,0.0,-7.920374870300293,2.020324945449829,4.006313323974609,1433.6036376953125,0
2032.139000000001,0.00877376738935709,-0.03377196565270424,-0.00022751571668777615,0.0,0.0,0.0,0.0,-0.0004608750459738076,0.0017892303876578808,-0.0035417217295616865,0.9972215294837952,0.0,0.0,0.0,-7.925995349884033,2.0275378227233887,3.9965033531188965,1434.6209716796875,0
2042.0640000000003,0.008809622377157211,-0.033815328031778336,-0.00020874335314147174,0.0,0.0,0.0,0.0,-0.0015754764899611473,0.0008676504367031157,0.0030448008328676224,1.0001658201217651,0.0,0.0,0.0,-7.925692081451416,2.0160319805145264,4.007386207580566,1434.566162109375,0
2051.9750000000004,0.00874356273561716,-0.033772800117731094,-0.00019231121405027807,0.0,0.0,0.0,0.0,0.0009058151626959443,0.0029452568851411343,-0.001018101000227034,1.0005418062210083,0.0,0.0,0.0,-7.929443836212158,2.028271198272705,4.003314018249512,1435.2451171875,0
2061.8870000000006,0.00882360152900219,-0.03381520137190819,-0.00015454749518539757,0.0,0.0,0.0,0.0,0.0037545200902968645,0.00046309607569128275,0.00029527797596529126,1.0012840032577515,0.0,0.0,0.0,-7.9219818115234375,2.030153512954712,3.9953134059906006,1433.8944091796875,0
2071.7930000000015,0.008767446503043175,-0.033778753131628036,-0.00014062278205528855,0.0,0.0,0.0,0.0,0.0007913386798463762,-0.002238259417936206,0.00018064380856230855,0.9990129470825195,0.0,0.0,0.0,-7.929806709289551,2.0316357612609863,3.991133689880371,1435.310791015625,0
2081.7170000000006,0.008771915920078754,-0.03381246700882912,-0.0001242277940036729,0.0,0.0,0.0,0.0,-0.0027094283141195774,-0.0016504694940522313,-8.56796104926616e-05,0.9974463582038879,0.0,0.0,0.0,-7.92162561416626,2.0325753688812256,3.9925642013549805,1433.8299560546875,0
2091.6190000000006,0.008708472363650799,-0.03380441665649414,-0.00011518668907228857,0.0,0.0,0.0,0.0,0.0014905821299180388,0.0011826244881376624,-0.0019416111754253507,0.9984146356582642,0.0,0.0,0.0,-7.914017677307129,2.035360336303711,3.9922189712524414,1432.4530029296875,0
2101.5350000000017,0.008774003945291042,-0.03380928561091423,-9.500206942902878e-05,0.0,0.0,0.0,0.0,-0.0017251642420887947,0.001620544702745974,-0.0007684508454985917,1.0009002685546875,0.0,0.0,0.0,-7.905573844909668,2.0286247730255127,3.9859466552734375,1430.9246826171875,0
2111.4530000000013,0.008738167583942413,-0.03375007212162018,-0.00011580134741961956,0.0,0.0,0.0,0.0,0.0005995820392854512,-0.005170151125639677,0.0016697978135198355,1.0007404088974,0.0,0.0,0.0,-7.910700798034668,2.0450518131256104,3.9818332195281982,1431.8526611328125,0
2121.3650000000016,0.008790492080152035,-0.03381725773215294,-0.00011253932461841032,0.0,0.0,0.0,0.0,-0.0006547271623276174,-0.001101494999602437,0.0024019719567149878,1.0004888772964478,0.0,0.0,0.0,-7.9029622077941895,2.0462071895599365,3.982046604156494,1430.4517822265625,0
2131.2700000000004,0.008754951879382133,-0.033758364617824554,-0.00013064075028523803,0.0,0.0,0.0,0.0,0.00032293450203724205,0.0016887335805222392,-0.002102133585140109,0.9997641444206238,0.0,0.0,0.0,-7.912625789642334,2.0566043853759766,3.973761796951294,1432.2010498046875,0
2141.183000000001,0.008851349353790283,-0.03382686525583267,-0.00010751216905191541,0.0,0.0,0.0,0.0,0.0059071993455290794,0.00035719326115213335,-0.0006380539853125811,0.9977886080741882,0.0,0.0,0.0,-7.905355453491211,2.055603504180908,3.971705198287964,1430.8851318359375,0
2151.0970000000016,0.008791635744273663,-0.033816251903772354,-0.00010152591858059168,0.0,0.0,0.0,0.0,-0.002805897733196616,-0.004286653827875853,0.0004804540949407965,0.998811662197113,0.0,0.0,0.0,-7.898065567016602,2.0413901805877686,3.975107431411743,1429.5655517578125,0
2161.018,0.008889456279575825,-0.033861491829156876,-0.00011164271563757211,0.0,0.0,0.0,0.0,-8.283373608719558e-05,5.673216583090834e-05,0.0010017515160143375,1.0009981393814087,0.0,0.0,0.0,-7.8890533447265625,2.0434391498565674,3.975364923477173,1427.934326171875,0
