timestamp,stateEstimate.x,stateEstimate.y,stateEstimate.z,controller.cmd_thrust,controller.cmd_roll,controller.cmd_pitch,controller.cmd_yaw,controller.r_roll,controller.r_pitch,controller.r_yaw,controller.accelz,controller.actuatorThrust,controller.roll,controller.pitch,controller.yaw,controller.rollRate,controller.pitchRate,controller.yawRate,controller.ctr_yaw
0.0,-4.576378705678508e-05,-0.00011503209680086002,-7.422337512252852e-05,0.0,0.0,0.0,0.0,-0.0037948903627693653,0.004598736297339201,-0.0011651830282062292,1.001018762588501,0.0,0.0,0.0,0.13169077038764954,4.058030605316162,0.8400448560714722,-23.83629035949707,0
9.895000000000437,3.632082371041179e-05,-5.4216299758991227e-05,-0.00015673867892473936,0.0,0.0,0.0,0.0,-0.00046461401507258415,-0.00037846845225431025,0.00012158550089225173,1.0005128383636475,0.0,0.0,0.0,0.13086825609207153,4.057340145111084,0.8316108584403992,-23.687416076660156,0
19.781999999999243,-6.111107359174639e-05,-8.101631101453677e-05,-0.00016408809460699558,0.0,0.0,0.0,0.0,-0.0020465576089918613,-0.0034731323830783367,-0.0021657519973814487,1.0012612342834473,0.0,0.0,0.0,0.13077422976493835,4.05830717086792,0.8299717307090759,-23.67039680480957,0
29.657999999999447,2.8043502879882e-06,-4.4103482650825754e-05,-0.00023732075351290405,0.0,0.0,0.0,0.0,0.002077387645840645,-0.002487728139385581,-0.0007968504796735942,1.0010372400283813,0.0,0.0,0.0,0.13058196008205414,4.056864261627197,0.836416482925415,-23.63559341430664,0
39.54700000000048,-5.369982682168484e-05,-6.530644168378785e-05,-0.00023432818125002086,0.0,0.0,0.0,0.0,-0.0031219329684972763,-0.003968392498791218,-0.0020437357015907764,1.0004745721817017,0.0,0.0,0.0,0.13037821650505066,4.051319122314453,0.8379631638526917,-23.59871482849121,0
49.431000000000495,-7.865844963816926e-05,-0.00010668659524526447,-0.0002205030614277348,0.0,0.0,0.0,0.0,0.005181139800697565,0.006859889253973961,-0.0025323587469756603,1.001751184463501,0.0,0.0,0.0,0.13007023930549622,4.055199146270752,0.841498851776123,-23.542972564697266,0
59.32599999999911,-6.162162753753364e-05,-9.770405449671671e-05,-0.0001829759421525523,0.0,0.0,0.0,0.0,-0.0010023268405348063,-0.005908770486712456,3.249590008636005e-05,0.9996722340583801,0.0,0.0,0.0,0.12982255220413208,4.040872573852539,0.8289822340011597,-23.498138427734375,0
69.20600000000013,-7.443014328600839e-05,-0.00012290434096939862,-0.00017239961016457528,0.0,0.0,0.0,0.0,0.003940793685615063,0.0008923255372792482,0.003342927433550358,0.9998659491539001,0.0,0.0,0.0,0.13007766008377075,4.038791179656982,0.837662935256958,-23.544313430786133,0
79.10000000000036,-5.270389738143422e-05,-0.00010347465286031365,-0.0001257963594980538,0.0,0.0,0.0,0.0,0.0006235191249288619,0.0016836797585710883,-0.00417078984901309,0.9995468854904175,0.0,0.0,0.0,0.13080599904060364,4.0324387550354,0.8413681387901306,-23.6761474609375,0
88.97999999999956,-5.933244392508641e-05,-0.00013014540309086442,-0.00012157238234067336,0.0,0.0,0.0,0.0,-0.001251598703674972,0.0020799452904611826,-0.0016903381329029799,1.0004738569259644,0.0,0.0,0.0,0.13015402853488922,4.027395725250244,0.8396366238594055,-23.558135986328125,0
98.86899999999878,-6.830863276263699e-05,-0.00010905373346759006,-7.845991058275104e-05,0.0,0.0,0.0,0.0,0.0014561035204678774,-0.00022460194304585457,-0.0013693261425942183,1.000744104385376,0.0,0.0,0.0,0.12937511503696442,4.028191089630127,0.8361581563949585,-23.41715431213379,0
108.7559999999994,-9.470325312577188e-05,-0.00013067916734144092,-4.926114343106747e-05,0.0,0.0,0.0,0.0,-0.0007277107215486467,-0.0035622762516140938,7.790897507220507e-05,0.9962624311447144,0.0,0.0,0.0,0.12876483798027039,4.027288436889648,0.8268493413925171,-23.306692123413086,0
118.64799999999923,-0.00015850916679482907,-0.00011269747483311221,-1.6672922356519848e-05,0.0,0.0,0.0,0.0,0.0009348703315481544,0.0015569051029160619,0.0014303879579529166,1.0001304149627686,0.0,0.0,0.0,0.11948298662900925,4.04056978225708,0.8345873355865479,-21.626657485961914,0
128.53299999999945,-0.00012925175542477518,-0.00010014843428507447,-5.0374696002108976e-05,0.0,0.0,0.0,0.0,-0.0005221237661316991,-0.00011773464939324185,0.0013495401944965124,1.00123131275177,0.0,0.0,0.0,0.11932757496833801,4.0314249992370605,0.8338812589645386,-21.598527908325195,0
138.41799999999967,-0.00010175459465244785,-0.00013698774273507297,-1.5129532584978733e-05,0.0,0.0,0.0,0.0,0.0005798616330139339,0.0009326037252321839,0.0006885046605020761,1.0025702714920044,0.0,0.0,0.0,0.11851333826780319,4.0279927253723145,0.8428469300270081,-21.45115089416504,0
148.30199999999968,-8.265703945653513e-05,-0.00013006215158384293,-3.6667312087956816e-05,0.0,0.0,0.0,0.0,-0.00016996695194393396,4.5030061301076785e-05,0.0012589318212121725,0.9998980760574341,0.0,0.0,0.0,0.1186794564127922,4.020899772644043,0.8340883255004883,-21.481216430664062,0
158.1909999999989,-8.277279266621917e-05,-0.00012840874842368066,5.920281637372682e-06,0.0,0.0,0.0,0.0,-0.0018045365577563643,-0.0005404478288255632,0.0020073712803423405,0.9989204406738281,0.0,0.0,0.0,0.11910726130008698,4.016212463378906,0.8324366807937622,-21.558650970458984,0
168.07999999999993,-3.084067066083662e-05,-0.00011684125638566911,-5.472033080877736e-05,0.0,0.0,0.0,0.0,-0.002133009722456336,-0.0014735994627699256,-0.001276329974643886,0.9976471662521362,0.0,0.0,0.0,0.11963845044374466,4.014435768127441,0.834381639957428,-21.654796600341797,0
177.96600000000035,-8.388073183596134e-05,-0.0001370762038277462,-3.428611671552062e-05,0.0,0.0,0.0,0.0,0.0017173289088532329,-0.004339767154306173,0.0004455942253116518,0.9986374378204346,0.0,0.0,0.0,0.11931460350751877,4.014959335327148,0.8267278671264648,-21.596179962158203,0
187.85000000000036,-3.2471427402924746e-05,-8.155374234775081e-05,-8.962901483755559e-05,0.0,0.0,0.0,0.0,-0.001557541429065168,0.0030938812997192144,0.0008314443985000253,0.9979170560836792,0.0,0.0,0.0,0.11972224712371826,4.010968208312988,0.8285321593284607,-21.669967651367188,0
197.73699999999917,-5.6098731874953955e-05,-0.00011776607425417751,-7.508029375458136e-05,0.0,0.0,0.0,0.0,-0.0018117596628144383,0.003629173617810011,-0.0016833774279803038,1.0007736682891846,0.0,0.0,0.0,0.11867313086986542,4.007097244262695,0.8192519545555115,-21.480072021484375,0
207.6279999999988,-2.4520450097043067e-05,-0.00011710396211128682,-0.00012578742462210357,0.0,0.0,0.0,0.0,0.0008282443159259856,0.005378137342631817,-0.003880283562466502,1.0025802850723267,0.0,0.0,0.0,0.1186256930232048,4.005823612213135,0.8097296953201294,-21.471485137939453,0
217.52000000000044,-2.6930692911264487e-05,-0.00017937901429831982,-0.00011636609269771725,0.0,0.0,0.0,0.0,0.003337748581543565,0.0054518673568964005,0.0022922451607882977,0.9977502822875977,0.0,0.0,0.0,0.11035440117120743,4.00430154800415,0.8114987015724182,-19.974367141723633,0
227.41100000000006,-3.165122325299308e-05,-0.0001847641688073054,-0.00012679288920480758,0.0,0.0,0.0,0.0,0.00249522109515965,0.0011750600533559918,-0.002509691519662738,0.9988583922386169,0.0,0.0,0.0,0.11034441739320755,3.9956471920013428,0.8082295656204224,-19.97256088256836,0
237.28700000000026,2.778294037852902e-05,-0.00019408739171922207,-8.322359644807875e-05,0.0,0.0,0.0,0.0,6.071532334317453e-05,0.004326599184423685,0.002858312800526619,0.9992268085479736,0.0,0.0,0.0,0.109019935131073,3.9876129627227783,0.8059400320053101,-19.732824325561523,0
247.1800000000003,2.25082112592645e-05,-0.00019005670037586242,-8.61932712723501e-05,0.0,0.0,0.0,0.0,0.00144609110429883,-0.002536941319704056,-0.0008974364609457552,0.9987906813621521,0.0,0.0,0.0,0.10954803973436356,3.9830877780914307,0.7974064946174622,-19.828413009643555,0
257.0599999999995,-1.1887059372384101e-06,-0.00026270633679814637,-8.722517668502405e-05,0.0,0.0,0.0,0.0,0.0029944332782179117,-0.0010017366148531437,0.002526163589209318,0.9980560541152954,0.0,0.0,0.0,0.10856658965349197,3.9770970344543457,0.7936297655105591,-19.650768280029297,0
266.9459999999999,-1.0262261639581993e-05,-0.00023753092682454735,-8.557369437767193e-05,0.0,0.0,0.0,0.0,-0.0020661952439695597,-0.0032360085751861334,-0.0009395748493261635,0.9983553290367126,0.0,0.0,0.0,0.10970725864171982,3.974580764770508,0.8026428818702698,-19.85723114013672,0
276.83899999999994,-1.5497661252084072e-06,-0.0001971824822248891,-2.191089151892811e-05,0.0,0.0,0.0,0.0,-0.0009405944147147238,0.00584435323253274,0.0010298623237758875,0.998833417892456,0.0,0.0,0.0,0.10239202529191971,3.999825954437256,0.8190474510192871,-18.533159255981445,0
286.72400000000016,3.651865335996263e-05,-0.0001681780704529956,-7.245633605634794e-05,0.0,0.0,0.0,0.0,-0.0016109527787193656,0.0003417026891838759,-0.0025114885065704584,0.9994920492172241,0.0,0.0,0.0,0.10311093926429749,3.9938175678253174,0.8057206869125366,-18.663284301757812,0
296.61199999999917,3.846586696454324e-05,-0.00017488497542217374,-4.665447340812534e-05,0.0,0.0,0.0,0.0,-0.0014769703848287463,-0.004045118112117052,-0.0010100179351866245,1.0012688636779785,0.0,0.0,0.0,0.0966089516878128,4.003677845001221,0.8030787110328674,-17.48641014099121,0
306.4969999999994,6.36555123492144e-05,-0.00015949243970680982,-8.60025393194519e-05,0.0,0.0,0.0,0.0,0.0010496557224541903,-0.0006720595411024988,-0.0008204717305488884,1.0009996891021729,0.0,0.0,0.0,0.09690465778112411,4.000954627990723,0.8148152232170105,-17.53993797302246,0
316.384,1.9012808479601517e-05,-0.0001738732389640063,-7.77875684434548e-05,0.0,0.0,0.0,0.0,0.0028500498738139868,0.002958334516733885,-0.002989182947203517,0.9992288947105408,0.0,0.0,0.0,0.09644708037376404,3.99924635887146,0.8171219229698181,-17.45711326599121,0
326.27000000000044,2.4813075469865e-06,-0.000179790731635876,-7.431114499922842e-05,0.0,0.0,0.0,0.0,-0.002361312275752425,-0.0032556115183979273,-0.00024265905085485429,1.0002650022506714,0.0,0.0,0.0,0.10144198685884476,4.000534534454346,0.8107492327690125,-18.3612003326416,0
336.15599999999904,-1.3816099453833885e-05,-0.00018026978068519384,-5.027625957154669e-05,0.0,0.0,0.0,0.0,0.001986762275919318,0.0008350925636477768,0.0020491203758865595,0.9996801614761353,0.0,0.0,0.0,0.10114498436450958,4.00051736831665,0.8042758107185364,-18.307443618774414,0
346.04799999999886,-1.906770012283232e-05,-0.00017470549209974706,-5.528144902200438e-05,0.0,0.0,0.0,0.0,0.001273167203180492,0.0007364954799413681,-0.000787054596003145,0.9995555877685547,0.0,0.0,0.0,0.10101018100976944,3.9970335960388184,0.7937302589416504,-18.283044815063477,0
355.9300000000003,-5.6709333875915036e-05,-0.00017713382840156555,-3.1740102713229135e-05,0.0,0.0,0.0,0.0,0.0011425709817558527,-0.0031101286876946688,-0.0002677632437553257,1.0000145435333252,0.0,0.0,0.0,0.09507883340120316,4.005910396575928,0.7914294600486755,-17.209457397460938,0
365.8189999999995,-5.493387652677484e-05,-0.0001749203511280939,-4.807269215234555e-05,0.0,0.0,0.0,0.0,0.00047762057511135936,-0.000390608940506354,-0.0020447885617613792,0.9995837211608887,0.0,0.0,0.0,0.0944887325167656,3.9993131160736084,0.7988978028297424,-17.102649688720703,0
375.71600000000035,-0.00011939757678192109,-0.00013232407218310982,-1.4925550203770399e-05,0.0,0.0,0.0,0.0,-0.0009134937427006662,0.0027666878886520863,0.0002130797365680337,1.000870943069458,0.0,0.0,0.0,0.09440362453460693,3.99609375,0.7982111573219299,-17.087244033813477,0
385.59200000000055,-0.00010222335549769923,-0.00012463470920920372,-4.99091693200171e-05,0.0,0.0,0.0,0.0,-0.004734189249575138,0.0029535945504903793,-0.0022622179239988327,0.9993966817855835,0.0,0.0,0.0,0.09460651129484177,3.9995343685150146,0.7865369915962219,-17.123966217041016,0
395.47899999999936,-9.115691500483081e-05,-0.00014305327204056084,-2.0088757082703523e-05,0.0,0.0,0.0,0.0,-0.0015860634157434106,0.0006048334180377424,0.0015921937301754951,1.000179409980774,0.0,0.0,0.0,0.09372514486312866,3.998628854751587,0.7830991148948669,-16.96443748474121,0
405.3680000000004,-4.6989185648271814e-05,-0.00011676982103381306,-7.996759086381644e-05,0.0,0.0,0.0,0.0,0.0004242521827109158,0.0007916975300759077,0.0022408082149922848,1.0008734464645386,0.0,0.0,0.0,0.09451999515295029,3.9978582859039307,0.7771264910697937,-17.108306884765625,0
415.2529999999988,-7.913067383924499e-05,-0.00013291761570144445,-6.103693158365786e-05,0.0,0.0,0.0,0.0,-0.001971858786419034,-0.0030955008696764708,-0.0003182042564731091,1.0009292364120483,0.0,0.0,0.0,0.09516752511262894,3.993384838104248,0.7776626348495483,-17.22551155090332,0
425.1409999999996,-7.648245082236826e-05,-0.00013694027438759804,-7.7276119554881e-05,0.0,0.0,0.0,0.0,-0.0017041948158293962,0.002240179106593132,-0.0005596199771389365,1.0005911588668823,0.0,0.0,0.0,0.09478107839822769,3.995837450027466,0.7858051061630249,-17.155561447143555,0
435.02700000000004,-5.641863481287146e-06,-0.00017324756481684744,-3.907367863575928e-05,0.0,0.0,0.0,0.0,-0.0014524499420076609,-0.004599417094141245,-0.0004365681961644441,0.9985513091087341,0.0,0.0,0.0,0.09485797584056854,4.004809379577637,0.7982237935066223,-17.16948127746582,0
444.9210000000003,-1.971666279132478e-05,-0.00022209816961549222,-4.088190689799376e-05,0.0,0.0,0.0,0.0,0.001534301321953535,-0.0004219800466671586,-0.0005659532616846263,0.9991378784179688,0.0,0.0,0.0,0.10508999228477478,3.999861240386963,0.8059333562850952,-19.02149772644043,0
454.8019999999997,-1.3301817489264067e-05,-0.000237083833781071,-8.933402568800375e-06,0.0,0.0,0.0,0.0,-0.002564017428085208,-0.0017896122299134731,0.002886113477870822,0.9995579123497009,0.0,0.0,0.0,0.10476416349411011,3.9930570125579834,0.8012086749076843,-18.962522506713867,0
464.6929999999993,-2.1596451915684156e-06,-0.0002115290699293837,-2.4045963073149323e-05,0.0,0.0,0.0,0.0,0.0013102749362587929,0.0020678159780800343,-0.000867393973749131,1.0006479024887085,0.0,0.0,0.0,0.10465094447135925,3.9924569129943848,0.8072165846824646,-18.942028045654297,0
474.5759999999991,-3.165729822285357e-06,-0.0002337707410333678,3.976399966632016e-06,0.0,0.0,0.0,0.0,-0.0016009362880140543,0.0020997761748731136,0.0012575755827128887,1.0008044242858887,0.0,0.0,0.0,0.10456929355859756,3.9847805500030518,0.8098585605621338,-18.9272518157959,0
484.46500000000015,6.9701854954473674e-06,-0.00021453321096487343,-1.046888246492017e-05,0.0,0.0,0.0,0.0,0.0021768410224467516,-0.001229841960594058,-0.00032399629708379507,1.0018980503082275,0.0,0.0,0.0,0.10456588864326477,3.985128879547119,0.8008967041969299,-18.9266357421875,0
494.35000000000036,-3.8854850572533906e-05,-0.000262026849668473,2.4729502001719084e-06,0.0,0.0,0.0,0.0,-0.001035344903357327,0.0010138237848877907,-0.0006350134499371052,0.9999448657035828,0.0,0.0,0.0,0.10515184700489044,3.980747938156128,0.8013197183609009,-19.032691955566406,0
504.2379999999994,-2.7478477932163514e-05,-0.00027384719578549266,-1.8487571651348844e-05,0.0,0.0,0.0,0.0,-0.0004979344084858894,-0.0005510931950993836,0.002338770078495145,1.001784324645996,0.0,0.0,0.0,0.11413991451263428,3.990786075592041,0.8124304413795471,-20.6595516204834,0
514.1239999999998,-2.2700845875078812e-05,-0.0002782144583761692,1.993553087231703e-05,0.0,0.0,0.0,0.0,0.0006294820923358202,-0.005215786397457123,-0.004514908883720636,0.9990032315254211,0.0,0.0,0.0,0.11463276296854019,3.9881250858306885,0.816257655620575,-20.748756408691406,0
524.012999999999,1.3370955457503442e-05,-0.0002338547637918964,-1.2934156984556466e-05,0.0,0.0,0.0,0.0,0.0008117050747387111,-5.693635102943517e-05,-0.0009798749815672636,0.9981294870376587,0.0,0.0,0.0,0.11343313753604889,3.98409366607666,0.8096190690994263,-20.53162384033203,0
533.8989999999994,2.0968011085642502e-05,-0.0002263020141981542,3.16713958454784e-05,0.0,0.0,0.0,0.0,-0.0014845121186226606,-0.005621270276606083,-0.0013590354938060045,1.0010184049606323,0.0,0.0,0.0,0.11352119594812393,3.977072238922119,0.8058986067771912,-20.547561645507812,0
543.7889999999989,7.060716598061845e-05,-0.000207575096283108,-2.54961232712958e-05,0.0,0.0,0.0,0.0,0.0013129441067576408,-0.0037635816261172295,1.812706068449188e-05,0.999511182308197,0.0,0.0,0.0,0.11298487335443497,3.97501277923584,0.8115962147712708,-20.45048713684082,0
553.6720000000005,2.395121737208683e-05,-0.0002212599792983383,-5.2039317779417615e-06,0.0,0.0,0.0,0.0,-0.0038412343710660934,-0.003837618976831436,-0.005176826845854521,0.9985612630844116,0.0,0.0,0.0,0.11217726022005081,3.976322889328003,0.8124225735664368,-20.30430793762207,0
563.5599999999995,2.9034950784989633e-05,-0.00020829893765039742,-1.4830968211754225e-05,0.0,0.0,0.0,0.0,0.0016264892183244228,0.0027004664298146963,-0.00020553400099743158,1.0004125833511353,0.0,0.0,0.0,0.11144684255123138,3.975831985473633,0.8216467499732971,-20.172100067138672,0
573.4459999999999,9.509086339676287e-06,-0.00023321273329202086,6.621929060202092e-06,0.0,0.0,0.0,0.0,0.0014842913951724768,-0.003292129607871175,0.0007245632004924119,0.999847948551178,0.0,0.0,0.0,0.11125369369983673,3.9682366847991943,0.8137728571891785,-20.13714027404785,0
583.3330000000005,5.492106720339507e-05,-0.00020451989257708192,-4.7129771701293066e-05,0.0,0.0,0.0,0.0,-0.0006215383764356375,0.0027132811956107616,0.00019219412934035063,1.0003703832626343,0.0,0.0,0.0,0.11811084300279617,3.9810826778411865,0.8307012915611267,-21.378299713134766,0
593.2199999999993,-7.675903179915622e-05,-0.00018275994807481766,-3.981058398494497e-05,0.0,0.0,0.0,0.0,-0.0026147630997002125,-0.0010915185557678342,0.0017076776130124927,1.003078579902649,0.0,0.0,0.0,0.11683032661676407,3.983790874481201,0.8279667496681213,-21.146522521972656,0
603.107,-6.63240352878347e-05,-0.00016948115080595016,-6.003335874993354e-05,0.0,0.0,0.0,0.0,0.0011110588675364852,-0.003601757111027837,0.0008528748876415193,1.0020333528518677,0.0,0.0,0.0,0.11725436896085739,3.9865341186523438,0.8239834308624268,-21.22327423095703,0
612.9939999999988,-9.962583862943575e-05,-0.00017130060587078333,-3.115063373115845e-05,0.0,0.0,0.0,0.0,-0.0017067644512280822,-0.003781986655667424,0.0016270189080387354,0.9994125366210938,0.0,0.0,0.0,0.11809241771697998,3.985447645187378,0.8353245258331299,-21.374963760375977,0
622.8819999999996,-7.974186883075163e-05,-0.00015594701108057052,-6.114287680247799e-05,0.0,0.0,0.0,0.0,-0.00016152211173903197,-0.00026974716456606984,-0.0022492718417197466,1.001304268836975,0.0,0.0,0.0,0.11891217529773712,3.9853644371032715,0.8364059329032898,-21.523340225219727,0
632.7749999999996,-9.947917715180665e-05,-0.00016338650311809033,-3.0874878575559705e-05,0.0,0.0,0.0,0.0,0.0006507562939077616,0.0005363698001019657,0.0006682574166916311,0.9992279410362244,0.0,0.0,0.0,0.11892998218536377,3.9840893745422363,0.8352293968200684,-21.52656364440918,0
642.655999999999,-8.352966688107699e-05,-0.00015467529010493308,-5.4388150601880625e-05,0.0,0.0,0.0,0.0,-0.00048797723138704896,0.0029708570800721645,-0.00040422871825285256,1.0009440183639526,0.0,0.0,0.0,0.11943156272172928,3.973374605178833,0.838840901851654,-21.61734962463379,0
652.5439999999999,-7.455026934621856e-05,-0.00016807253996375948,-1.7767164536053315e-05,0.0,0.0,0.0,0.0,-0.0015913216629996896,0.0016537769697606564,-0.0017960520926862955,1.0017644166946411,0.0,0.0,0.0,0.11356601864099503,3.9836244583129883,0.8406624794006348,-20.555675506591797,0
662.4319999999989,-2.112132824549917e-05,-0.00014588379417546093,-8.090450137387961e-05,0.0,0.0,0.0,0.0,0.0007173859630711377,-0.00497538223862648,0.000964482722338289,0.998660147190094,0.0,0.0,0.0,0.1132163405418396,3.9766838550567627,0.8309000730514526,-20.49238395690918,0
672.3169999999991,-2.4351942556677386e-05,-0.0001232372160302475,-3.930973252863623e-05,0.0,0.0,0.0,0.0,0.0031267718877643347,0.0021780231036245823,-0.0011101718991994858,0.9999580979347229,0.0,0.0,0.0,0.11337068676948547,3.975032329559326,0.8372374773025513,-20.52031898498535,0
682.2160000000003,1.4192694834491704e-05,-0.00011492590419948101,-8.542298019165173e-05,0.0,0.0,0.0,0.0,0.0005092508508823812,-0.0027278584893792868,0.0023318282328546047,1.000059723854065,0.0,0.0,0.0,0.11370477080345154,3.967284679412842,0.8364819288253784,-20.58078956604004,0
692.098,1.218427541971323e-06,-0.00015695899492129683,-7.242946594487876e-05,0.0,0.0,0.0,0.0,-0.0003966518852394074,-0.005257416516542435,0.00026096616056747735,1.0004252195358276,0.0,0.0,0.0,0.11476292461156845,3.9651169776916504,0.8466276526451111,-20.772315979003906,0
701.9849999999988,4.14136411563959e-05,-0.00010848054080270231,-0.0001119835942517966,0.0,0.0,0.0,0.0,0.00022256588272284716,-0.005576497409492731,0.002347911475226283,0.9975821375846863,0.0,0.0,0.0,0.11452296376228333,3.9570982456207275,0.8505322337150574,-20.728883743286133,0
711.8709999999992,1.1807084774773102e-05,-0.00013644863793160766,-9.93263820419088e-05,0.0,0.0,0.0,0.0,-0.001373539911583066,0.0005398145294748247,0.004020290914922953,0.9995559453964233,0.0,0.0,0.0,0.11435019224882126,3.9537460803985596,0.8664567470550537,-20.697612762451172,0
721.7549999999992,3.876069240504876e-05,-9.91823326330632e-05,-0.0001352846884401515,0.0,0.0,0.0,0.0,0.0007206415175460279,-0.005029584746807814,0.000662897014990449,1.0000118017196655,0.0,0.0,0.0,0.11404426395893097,3.954594612121582,0.8650985956192017,-20.64223861694336,0
731.6489999999994,2.2203328626346774e-05,-0.00015015728422440588,-0.00013099799980409443,0.0,0.0,0.0,0.0,0.0006308588199317455,0.0033002786803990602,0.0006399430567398667,0.9996511936187744,0.0,0.0,0.0,0.1137235090136528,3.94806170463562,0.8683530688285828,-20.58418083190918,0
741.5280000000002,8.413570867560338e-06,-0.0001651226484682411,-0.000126780490973033,0.0,0.0,0.0,0.0,0.0002282389614265412,0.0003208211564924568,0.00010461564670549706,1.0018762350082397,0.0,0.0,0.0,0.11394098401069641,3.9471209049224854,0.8599314093589783,-20.62354278564453,0
751.4179999999997,1.5618701581843197e-05,-0.0001945525291375816,-0.00010161114187212661,0.0,0.0,0.0,0.0,-0.00023750608670525253,-0.0019123106030747294,-0.0020615127868950367,1.0014592409133911,0.0,0.0,0.0,0.11442695558071136,3.9403698444366455,0.8604742288589478,-20.711505889892578,0
761.3019999999997,-9.847254659689497e-06,-0.00024054836831055582,-8.736266318010166e-05,0.0,0.0,0.0,0.0,0.0022256977390497923,-0.0053107221610844135,0.0017076985677704215,1.0012562274932861,0.0,0.0,0.0,0.11486253887414932,3.9343245029449463,0.8552200794219971,-20.790346145629883,0
771.1929999999993,-4.358093428891152e-05,-0.0002219121961388737,-4.513415115070529e-05,0.0,0.0,0.0,0.0,0.00040478925802744925,0.000531082390807569,-0.003123496426269412,1.0018181800842285,0.0,0.0,0.0,0.11475492268800735,3.92690372467041,0.8624226450920105,-20.770870208740234,0
781.0759999999991,-4.137577343499288e-05,-0.00023125081497710198,-5.393803439801559e-05,0.0,0.0,0.0,0.0,0.0008446730207651854,-0.0017478882800787687,-0.000594144337810576,0.9999848008155823,0.0,0.0,0.0,0.11383510380983353,3.9226467609405518,0.8644899725914001,-20.604379653930664,0
790.9740000000002,-2.7283665986033157e-05,-0.000264304835582152,-1.813711060094647e-05,0.0,0.0,0.0,0.0,-0.0006465414771810174,-0.0007035479065962136,0.0028021398466080427,1.000165343284607,0.0,0.0,0.0,0.11367915570735931,3.9170637130737305,0.8692802786827087,-20.576154708862305,0
800.8580000000002,2.0313233108026907e-05,-0.0002500117407180369,-7.264922896865755e-05,0.0,0.0,0.0,0.0,-0.000694595102686435,0.004235962405800819,-5.066847370471805e-05,0.998559832572937,0.0,0.0,0.0,0.11488030850887299,3.9136574268341064,0.8663107752799988,-20.793563842773438,0
810.7439999999988,-4.415640432853252e-05,-0.00023268871882464737,-4.60181399830617e-05,0.0,0.0,0.0,0.0,-0.0014944080030545592,-0.0039982846938073635,0.0031102343928068876,0.9985360503196716,0.0,0.0,0.0,0.11482430249452591,3.911635160446167,0.8521214723587036,-20.78342628479004,0
820.6270000000004,-1.0382391337770969e-06,-0.00022633487242273986,-9.748184675117955e-05,0.0,0.0,0.0,0.0,-0.0014869847800582647,0.0029393604490906,0.0016016721492633224,1.0018993616104126,0.0,0.0,0.0,0.11577513068914413,3.908297061920166,0.8535003066062927,-20.955528259277344,0
830.527,1.5790510587976314e-06,-0.0002433697081869468,-6.644274981226772e-05,0.0,0.0,0.0,0.0,-0.0030496008694171906,-0.0028052579145878553,-0.0022858744487166405,1.0031248331069946,0.0,0.0,0.0,0.11641538143157959,3.900853395462036,0.8456295132637024,-21.071414947509766,0
840.3999999999996,4.8240923206321895e-05,-0.00018612852727528661,-0.00010567338176770136,0.0,0.0,0.0,0.0,-0.0006237172055989504,-0.0006218975177034736,0.000347346329363063,1.0010149478912354,0.0,0.0,0.0,0.11595136672258377,3.907475471496582,0.8428148031234741,-20.987428665161133,0
850.2970000000005,3.304416895844042e-05,-0.00021788213052786887,-8.338610496139154e-05,0.0,0.0,0.0,0.0,-0.0036763378884643316,-0.0031026583164930344,-0.0029369432013481855,0.9996881484985352,0.0,0.0,0.0,0.11550106853246689,3.905492067337036,0.843425989151001,-20.905921936035156,0
860.1720000000005,5.160178625374101e-05,-0.0002404115948593244,-0.0001068396377377212,0.0,0.0,0.0,0.0,-0.0010052308207377791,-0.002201718045398593,0.003163515357300639,0.9976314902305603,0.0,0.0,0.0,0.11393779516220093,3.908134937286377,0.8493451476097107,-20.622966766357422,0
870.0669999999991,-1.2968856026418507e-05,-0.000212917075259611,-7.621865370310843e-05,0.0,0.0,0.0,0.0,0.0015183757059276104,-0.0012450881768018007,-0.0008363740053027868,1.000227689743042,0.0,0.0,0.0,0.11402855068445206,3.9040212631225586,0.8466659784317017,-20.639394760131836,0
879.9459999999999,2.7824706194223836e-05,-0.00016142483218573034,-0.00011604884639382362,0.0,0.0,0.0,0.0,-0.0009017000556923449,0.002761957934126258,0.00026820655330084264,0.9985677003860474,0.0,0.0,0.0,0.11320625990629196,3.8957934379577637,0.8432150483131409,-20.490558624267578,0
889.8439999999991,1.3680610209121369e-05,-0.00021040858700871468,-0.00010279950947733596,0.0,0.0,0.0,0.0,-0.00043675440247170627,-0.0024013197980821133,0.00019334351236466318,0.9986470937728882,0.0,0.0,0.0,0.11297958344221115,3.8928306102752686,0.846599280834198,-20.449527740478516,0
899.7240000000002,4.197171074338257e-05,-0.00017514353385195136,-0.00013203643902670592,0.0,0.0,0.0,0.0,-0.0016454349970445037,-0.0024424605071544647,-0.0011569299967959523,0.9986953735351562,0.0,0.0,0.0,0.11359317600727081,3.8906257152557373,0.8654446005821228,-20.560590744018555,0
909.6139999999996,-2.010646312555764e-05,-0.00023543319548480213,-0.0001390028919558972,0.0,0.0,0.0,0.0,0.003807546105235815,0.0022728610783815384,0.003289315151050687,0.9996950626373291,0.0,0.0,0.0,0.11356204003095627,3.893428325653076,0.8714948296546936,-20.554954528808594,0
919.494999999999,-2.9788709070999175e-05,-0.0002488020109012723,-0.00013570983719546348,0.0,0.0,0.0,0.0,-0.00010562992247287184,0.003535493044182658,-0.0006550375837832689,1.0005322694778442,0.0,0.0,0.0,0.1149401143193245,3.885646104812622,0.8645485639572144,-20.80438995361328,0
929.3950000000004,-1.742672066029627e-05,-0.00027646563830785453,-0.00010953491437248886,0.0,0.0,0.0,0.0,-0.0014211718225851655,0.0013803928159177303,0.002214195905253291,0.9996939301490784,0.0,0.0,0.0,0.11439549922943115,3.8753180503845215,0.8568153977394104,-20.705812454223633,0
939.2749999999996,-1.617277303012088e-05,-0.00027300778310745955,-0.00010922384535660967,0.0,0.0,0.0,0.0,0.0013941170182079077,0.0017995972884818912,0.0004731837543658912,1.000761866569519,0.0,0.0,0.0,0.11478757858276367,3.8729190826416016,0.8530418276786804,-20.776779174804688,0
949.1759999999995,-6.897338607814163e-06,-0.00030068960040807724,-8.010063174879178e-05,0.0,0.0,0.0,0.0,0.0013999186921864748,0.0029642980080097914,-0.0010285573080182076,1.0016729831695557,0.0,0.0,0.0,0.1151648536324501,3.865649938583374,0.8436962962150574,-20.845067977905273,0
959.0429999999997,-8.039041858864948e-07,-0.0003014020330738276,-8.179592259693891e-05,0.0,0.0,0.0,0.0,0.0005622093449346721,0.0012400215491652489,0.002717470983043313,0.9986830353736877,0.0,0.0,0.0,0.11443416774272919,3.856307029724121,0.8307400941848755,-20.712812423706055,0
968.9409999999989,-9.481752931606025e-05,-0.00029674189863726497,-6.335980287985876e-05,0.0,0.0,0.0,0.0,0.0006633273442275822,0.0020175271201878786,-0.000803483126219362,1.0005748271942139,0.0,0.0,0.0,0.11467953771352768,3.8487250804901123,0.8280593156814575,-20.757225036621094,0
978.8159999999989,-0.0001090085570467636,-0.00032257993007078767,-4.582319888868369e-05,0.0,0.0,0.0,0.0,0.002630133181810379,-0.0021591128315776587,-0.0007947931298986077,1.0006858110427856,0.0,0.0,0.0,0.11469551920890808,3.846022844314575,0.8267197608947754,-20.760116577148438,0
988.7240000000002,-0.00012565231008920819,-0.0003031381929758936,4.5516699174186215e-06,0.0,0.0,0.0,0.0,-0.002028950024396181,-0.00177859072573483,-0.0012941377935931087,1.0018219947814941,0.0,0.0,0.0,0.11439242959022522,3.8402397632598877,0.8273947238922119,-20.705257415771484,0
998.5949999999993,-0.0001241024147020653,-0.0003252732858527452,1.0234812179987784e-05,0.0,0.0,0.0,0.0,0.0031979724299162626,0.0018716513877734542,0.003648292738944292,1.0007498264312744,0.0,0.0,0.0,0.11409769207239151,3.840632438659668,0.8302990198135376,-20.65190887451172,0
1008.4899999999998,-0.00013162597315385938,-0.0003264516999479383,5.8117988373851404e-05,0.0,0.0,0.0,0.0,-0.0009394142543897033,-0.0017601720755919814,0.006632440723478794,1.0009312629699707,0.0,0.0,0.0,0.11478129774332047,3.834937334060669,0.8301433324813843,-20.775644302368164,0
1018.366,-6.924853369127959e-05,-0.0002713494177442044,8.721661288291216e-06,0.0,0.0,0.0,0.0,-0.0021873086225241423,-0.001724262605421245,-0.00047171354526653886,0.9990944862365723,0.0,0.0,0.0,0.11566444486379623,3.8326263427734375,0.8397377729415894,-20.93549346923828,0
1028.2669999999998,-0.00010658260725904256,-0.0002780974027700722,4.4429689296521246e-05,0.0,0.0,0.0,0.0,0.0024749175645411015,-0.0035047056153416634,-0.0012031941441819072,0.9993327260017395,0.0,0.0,0.0,0.11569814383983612,3.83048152923584,0.8404971957206726,-20.941593170166016,0
1038.1389999999992,-5.871986286365427e-05,-0.0002373666357016191,7.090721737768035e-06,0.0,0.0,0.0,0.0,0.001967604970559478,-9.807125752558932e-05,0.0014716426376253366,0.9980067014694214,0.0,0.0,0.0,0.11624211817979813,3.828831911087036,0.8438234925270081,-21.040054321289062,0
1048.045,-0.00010528462735237554,-0.00025162362726405263,3.0874180083628744e-05,0.0,0.0,0.0,0.0,-0.00015253640594892204,0.00018315593479201198,0.00249120919033885,0.998707115650177,0.0,0.0,0.0,0.11619529128074646,3.817519426345825,0.8433312773704529,-21.031578063964844,0
1057.9159999999993,-0.00011764086229959503,-0.00032933143666014075,3.878035204252228e-05,0.0,0.0,0.0,0.0,-0.004924561828374863,-0.0006156917661428452,0.0007476823520846665,1.0013667345046997,0.0,0.0,0.0,0.11651454865932465,3.816084384918213,0.8430718183517456,-21.089365005493164,0
1067.8089999999993,-1.808390334190335e-05,-0.0002112311340169981,-5.871278699487448e-05,0.0,0.0,0.0,0.0,-2.0122291971347295e-05,0.002892719116061926,2.88354840449756e-05,1.0008689165115356,0.0,0.0,0.0,0.11728403717279434,3.8612558841705322,0.8637372255325317,-21.22864532470703,0
1077.691999999999,-2.4012731955735944e-05,-0.0002827444695867598,-5.70008996874094e-05,0.0,0.0,0.0,0.0,0.000342684070346877,0.002898869337514043,-0.0024961582385003567,1.0034599304199219,0.0,0.0,0.0,0.117999367415905,3.858053684234619,0.8573554158210754,-21.35811996459961,0
1087.5910000000003,-1.1001692655554507e-05,-0.0002690976543817669,-5.294603397487663e-05,0.0,0.0,0.0,0.0,-0.0028769196942448616,-0.0010712153743952513,0.0019870116375386715,1.0036015510559082,0.0,0.0,0.0,0.11721180379390717,3.852750539779663,0.8465489149093628,-21.21556854248047,0
1097.4709999999995,-1.4500028555630706e-05,-0.00034412273089401424,-4.5597607822855935e-05,0.0,0.0,0.0,0.0,-0.0023900738451629877,0.005368465092033148,0.005260482896119356,1.0005401372909546,0.0,0.0,0.0,0.11651065200567245,3.849517822265625,0.84893399477005,-21.088659286499023,0
1107.3689999999988,4.7738890316395555e-06,-0.00030742742819711566,-3.414554157643579e-05,0.0,0.0,0.0,0.0,-0.000813688850030303,0.002249873476102948,-0.00014029514568392187,0.9995092749595642,0.0,0.0,0.0,0.11184520274400711,3.884552240371704,0.8463798761367798,-20.244205474853516,0
1117.2389999999996,3.958426532335579e-06,-0.00038148087332956493,-2.4786448193481192e-05,0.0,0.0,0.0,0.0,-0.0013165867421776056,0.006934216246008873,0.0055733476765453815,0.9996342062950134,0.0,0.0,0.0,0.11112391203641891,3.8866922855377197,0.8463702201843262,-20.113651275634766,0
1127.1440000000002,7.198067760327831e-05,-0.0002695887233130634,-3.540852412697859e-05,0.0,0.0,0.0,0.0,0.0020091321785002947,-0.0006032616947777569,-0.0027391123585402966,0.9995468258857727,0.0,0.0,0.0,0.11323172599077225,3.951810121536255,0.8603094816207886,-20.495166778564453,0
1137.012999999999,7.872088463045657e-05,-0.00033290532883256674,-2.8839964215876535e-05,0.0,0.0,0.0,0.0,-0.00023315328871831298,-0.001643635448999703,-6.4638165895303246e-06,0.9986120462417603,0.0,0.0,0.0,0.11207850277423859,3.9447062015533447,0.851252019405365,-20.286434173583984,0
1146.9099999999999,8.886446448741481e-05,-0.0002932976349256933,4.138526492170058e-06,0.0,0.0,0.0,0.0,0.0016008764505386353,0.0005452933255583048,-0.0010978803038597107,0.9988366365432739,0.0,0.0,0.0,0.1110563650727272,3.977067470550537,0.8574581146240234,-20.101421356201172,0
1156.7870000000003,9.082489850698039e-05,-0.0003530678222887218,1.0456793461344205e-05,0.0,0.0,0.0,0.0,0.00024226224923040718,-0.004955745767802,0.0016630340833216906,1.003068447113037,0.0,0.0,0.0,0.10957116633653641,3.9662277698516846,0.8597431778907776,-19.832599639892578,0
1166.6900000000005,9.834067896008492e-05,-0.0003061362949665636,4.7186462325043976e-05,0.0,0.0,0.0,0.0,-0.0006928785587660968,0.0007086144760251045,-0.00012155595322838053,1.0018528699874878,0.0,0.0,0.0,0.11060082912445068,3.9999985694885254,0.8725851774215698,-20.018970489501953,0
1176.5609999999997,9.664784010965377e-05,-0.00036025699228048325,5.8888064813800156e-05,0.0,0.0,0.0,0.0,-0.0031698758248239756,-0.005747615825384855,-0.0038500649388879538,1.002610206604004,0.0,0.0,0.0,0.10980240255594254,3.9917211532592773,0.870307981967926,-19.874452590942383,0
1186.4629999999997,0.00010859273606911302,-0.0003621303476393223,7.9775920312386e-05,0.0,0.0,0.0,0.0,-0.0015595863806083798,-0.0008819191716611385,0.0007393598789349198,1.0001065731048584,0.0,0.0,0.0,0.10879137367010117,3.9899544715881348,0.8876127600669861,-19.69145393371582,0
1196.3349999999991,0.000105675557279028,-0.00041783429333008826,9.513989061815664e-05,0.0,0.0,0.0,0.0,0.00314340996555984,-0.0025524357333779335,0.002054636599496007,1.0008876323699951,0.0,0.0,0.0,0.10886522382497787,3.9906468391418457,0.9010116457939148,-19.70482063293457,0
1206.2430000000004,0.00013246556045487523,-0.00037497427547350526,0.00012611773854587227,0.0,0.0,0.0,0.0,9.16583085199818e-05,0.003033057786524296,-0.0014290367253124714,0.9990102052688599,0.0,0.0,0.0,0.11114777624607086,4.016523361206055,0.9215008616447449,-20.117971420288086,0
1216.1139999999996,0.00013016723096370697,-0.0004308591887820512,0.00014218334399629384,0.0,0.0,0.0,0.0,-0.002307748654857278,0.003456187667325139,0.00036382462712936103,1.0023298263549805,0.0,0.0,0.0,0.11061153560876846,4.011362075805664,0.9117462038993835,-20.02090835571289,0
1226.0059999999994,0.0001667664182605222,-0.00037731806514784694,0.0001709286734694615,0.0,0.0,0.0,0.0,0.0006397083052434027,-0.000942204671446234,-0.0017879599472507834,1.0026763677597046,0.0,0.0,0.0,0.10637333989143372,4.05320405960083,0.9147526621818542,-19.253787994384766,0
1235.8909999999996,0.00016358171706087887,-0.00043043066398240626,0.00018998824816662818,0.0,0.0,0.0,0.0,-0.0006072669639252126,-0.003705232869833708,0.0015905776526778936,1.000391960144043,0.0,0.0,0.0,0.10587698966264725,4.051578044891357,0.9133554100990295,-19.163944244384766,0
1245.786,0.00019149603031110018,-0.00041831331327557564,0.0002114210947183892,0.0,0.0,0.0,0.0,-0.0014830699656158686,-0.0028748204931616783,0.0007721121073700488,1.0010180473327637,0.0,0.0,0.0,0.10629996657371521,4.0513482093811035,0.9201037883758545,-19.24050521850586,0
1255.6579999999994,0.00018987085786648095,-0.00047161185648292303,0.0002323574008187279,0.0,0.0,0.0,0.0,0.0003999684122391045,0.0006048291688784957,0.004590169992297888,1.0019561052322388,0.0,0.0,0.0,0.10669323801994324,4.048771381378174,0.9256887435913086,-19.311687469482422,0
1265.5569999999989,0.0001880185736808926,-0.0005293845315463841,0.0002548954216763377,0.0,0.0,0.0,0.0,-0.000156421767314896,-0.008533142507076263,0.0016076562460511923,0.9978024363517761,0.0,0.0,0.0,0.10790670663118362,4.041924953460693,0.927291989326477,-19.531328201293945,0
1275.438,0.00018470310897100717,-0.0005913686472922564,0.00027736026095226407,0.0,0.0,0.0,0.0,-0.0012370120966807008,-0.007371589075773954,-9.273873729398474e-05,1.0006685256958008,0.0,0.0,0.0,0.10868712514638901,4.037457466125488,0.9358987808227539,-19.672584533691406,0
1285.33,0.00017991052300203592,-0.0006559762987308204,0.00029915961204096675,0.0,0.0,0.0,0.0,0.0003119592147413641,0.0024916380643844604,-0.004026717506349087,0.9996656179428101,0.0,0.0,0.0,0.10926100611686707,4.036301136016846,0.948146641254425,-19.776458740234375,0
1295.2060000000001,0.0001747096102917567,-0.0007223346037790179,0.00032112112967297435,0.0,0.0,0.0,0.0,0.0004672564100474119,-0.004865498747676611,0.0017007824499160051,0.999664306640625,0.0,0.0,0.0,0.10816223919391632,4.029881000518799,0.9416633248329163,-19.577579498291016,0
1305.107,-0.00010982014646288007,-0.0004645997832994908,0.0003274482733104378,0.0,0.0,0.0,0.0,0.0013619286473840475,0.002891331212595105,0.004066473804414272,1.0004734992980957,0.0,0.0,0.0,0.09962572902441025,4.116265773773193,0.9044281840324402,-18.032453536987305,0
1314.9809999999998,-0.0001255707029486075,-0.0005191884702071548,0.0003530257090460509,0.0,0.0,0.0,0.0,0.0013985680416226387,0.004954861477017403,-0.0012661340879276395,1.0003355741500854,0.0,0.0,0.0,0.10064270347356796,4.111985683441162,0.8953015804290771,-18.21653175354004,0
1324.8779999999988,-0.00014820920478086919,-0.000455385452369228,0.0004604546120390296,0.0,0.0,0.0,0.0,-0.0015788358869031072,0.005427688360214233,-0.00013711910287383944,1.0001505613327026,0.0,0.0,0.0,0.09349831938743591,4.139378547668457,0.8848771452903748,-16.923381805419922,0
1334.7549999999992,-0.00016459994367323816,-0.0005106567987240851,0.0004914189339615405,0.0,0.0,0.0,0.0,0.0028171867597848177,-0.0019252341007813811,0.001783590530976653,0.9992370009422302,0.0,0.0,0.0,0.09400247782468796,4.142935752868652,0.880785346031189,-17.01463508605957,0
1344.6489999999994,-0.00018542150792200118,-0.0004887708346359432,0.000564302783459425,0.0,0.0,0.0,0.0,0.001347482088021934,-0.0017064281273633242,0.00015839554544072598,0.9992167949676514,0.0,0.0,0.0,0.09421544522047043,4.137959957122803,0.8933854103088379,-17.05318260192871,0
1354.527,-0.0002017380902543664,-0.0005440478562377393,0.0005968797486275434,0.0,0.0,0.0,0.0,-0.0015973846893757582,0.00225590611808002,-0.002182438736781478,0.9978101253509521,0.0,0.0,0.0,0.09478843212127686,4.131206035614014,0.898052453994751,-17.15689468383789,0
1364.4269999999997,-0.00019903448992408812,-0.0005353455781005323,0.0006605535163544118,0.0,0.0,0.0,0.0,-0.003113331040367484,0.0007006354862824082,-0.0006647564587183297,0.9989149570465088,0.0,0.0,0.0,0.0873471274971962,4.148093223571777,0.89482581615448,-15.810004234313965,0
1374.2999999999993,-0.00021527645003516227,-0.0005910911131650209,0.0006928745424374938,0.0,0.0,0.0,0.0,1.1901702237082645e-06,-0.0047546615824103355,0.00047384609933942556,0.9989257454872131,0.0,0.0,0.0,0.08681026101112366,4.147086143493652,0.8859415650367737,-15.71282958984375,0
1384.2099999999991,-0.00011368530977051705,-0.0005929781473241746,0.0007497263723053038,0.0,0.0,0.0,0.0,-0.0010168867884203792,0.0024382895790040493,-0.00034564657835289836,0.9980723857879639,0.0,0.0,0.0,0.08693891018629074,4.142380237579346,0.8846668004989624,-15.736114501953125,0
1394.074999999999,-0.00012969928502570838,-0.0006496126297861338,0.000782205315772444,0.0,0.0,0.0,0.0,-0.0019143216777592897,0.004757033195346594,-0.0002046253503067419,0.9997506141662598,0.0,0.0,0.0,0.08640903979539871,4.140736103057861,0.878491997718811,-15.64020824432373,0
1403.9709999999995,-0.00010194133210461587,-0.0006522749899886549,0.0008431473397649825,0.0,0.0,0.0,0.0,-0.00279238005168736,-0.005379092413932085,-0.0017767655663192272,1.0005773305892944,0.0,0.0,0.0,0.0860288068652153,4.144805431365967,0.8722497224807739,-15.57138442993164,0
1413.8529999999992,-0.00011886302672792226,-0.0007099202484823763,0.0008778299088589847,0.0,0.0,0.0,0.0,-0.0020363968797028065,0.003621900686994195,0.002015168545767665,1.0010786056518555,0.0,0.0,0.0,0.0857800543308258,4.144748687744141,0.8886139988899231,-15.526360511779785,0
1423.7510000000002,-0.00011720608017640188,-0.0007022396894171834,0.0009493000688962638,0.0,0.0,0.0,0.0,-5.161212357052136e-06,-0.00537097966298461,0.0007420464535243809,0.9993358254432678,0.0,0.0,0.0,0.08650027960538864,4.145236492156982,0.8722155690193176,-15.656722068786621,0
1433.625,-0.00013333416427485645,-0.0007588507141917944,0.0009882320882752538,0.0,0.0,0.0,0.0,-0.0018341896357014775,-0.0009755016653798521,0.0032010560389608145,0.9988846182823181,0.0,0.0,0.0,0.08604083210229874,4.14192533493042,0.8825312852859497,-15.57356071472168,0
1443.5190000000002,-0.00011150951468152925,-0.0007315672701224685,0.0010692619252949953,0.0,0.0,0.0,0.0,-0.0024879551492631435,0.003838260192424059,-0.0007111471495591104,0.9990480542182922,0.0,0.0,0.0,0.08134245872497559,4.174810886383057,0.8823120594024658,-14.72314739227295,0
1453.396999999999,-0.00012643258378375322,-0.0007835446740500629,0.0011103476863354445,0.0,0.0,0.0,0.0,-0.0017910413444042206,-0.0019131473964080215,0.0020420041400939226,1.0013229846954346,0.0,0.0,0.0,0.0815499871969223,4.177361965179443,0.8772529363632202,-14.760708808898926,0
1463.2929999999997,-0.00013717645197175443,-0.0007731294608674943,0.0011855856282636523,0.0,0.0,0.0,0.0,-0.0004951755399815738,0.0008706768276169896,0.001523985993117094,1.0009349584579468,0.0,0.0,0.0,0.08195848017930984,4.179932117462158,0.8883190751075745,-14.834647178649902,0
1473.1710000000003,-0.00015355688810814172,-0.0008208427461795509,0.0012314536143094301,0.0,0.0,0.0,0.0,-0.003918380010873079,-0.0027374005876481533,0.0021044218447059393,0.9995223879814148,0.0,0.0,0.0,0.08167493343353271,4.178285121917725,0.886537492275238,-14.783324241638184,0
1483.0679999999993,-0.00019684433937072754,-0.0008172127418220043,0.001305019366554916,0.0,0.0,0.0,0.0,0.0008437721990048885,-0.0001523201644886285,-0.00014326575910672545,1.0019524097442627,0.0,0.0,0.0,0.08177800476551056,4.1801557540893555,0.8907594084739685,-14.801981925964355,0
1492.946,-0.00021957997523713857,-0.0008105030283331871,0.0013791003730148077,0.0,0.0,0.0,0.0,-0.0028764891903847456,-0.0035658846609294415,-0.00557992048561573,1.0004181861877441,0.0,0.0,0.0,0.08219049870967865,4.174491882324219,0.8891491293907166,-14.876644134521484,0
1502.8410000000003,2.1778592781629413e-05,-0.00018485663167666644,-0.00023434232571162283,0.0,0.0,0.0,0.0,3.218763231416233e-05,-0.001394971157424152,0.0008140549762174487,0.9989892244338989,0.0,0.0,0.0,0.08437491208314896,4.308774471282959,0.9346925020217896,-15.272027015686035,0
1512.7189999999991,-6.266228592721745e-05,-0.00012684905959758908,-0.0002405733393970877,0.0,0.0,0.0,0.0,-0.0022074764128774405,-0.002306226408109069,-0.0020443592220544815,1.000290036201477,0.0,0.0,0.0,0.07932328432798386,4.3198442459106445,0.9346877336502075,-14.357671737670898,0
1522.6149999999998,-5.260463512968272e-05,-5.805972250527702e-05,-0.0002801840892061591,0.0,0.0,0.0,0.0,0.0018305598059669137,0.0009228488779626787,0.0016517039621248841,0.9986752867698669,0.0,0.0,0.0,0.07923390716314316,4.316840648651123,0.9433857798576355,-14.3414945602417,0
1532.4939999999988,-6.672344170510769e-05,-7.561170787084848e-05,-0.0002873375196941197,0.0,0.0,0.0,0.0,8.675169374328107e-05,0.00024707120610401034,0.00311653851531446,0.9991939067840576,0.0,0.0,0.0,0.07931894809007645,4.309184551239014,0.9419775009155273,-14.356887817382812,0
1542.4030000000002,-0.00010794864647323266,-9.379041148349643e-05,-0.00023076593060977757,0.0,0.0,0.0,0.0,0.0014192245434969664,-0.0015925734769552946,0.001596326008439064,1.0002521276474,0.0,0.0,0.0,0.0899086445569992,4.309443473815918,0.9363139271736145,-16.273643493652344,0
1552.2729999999992,-0.00012562496704049408,-0.00011634056136244908,-0.00023568293545395136,0.0,0.0,0.0,0.0,-0.0003759042883757502,0.0011420240625739098,-0.0036563375033438206,0.9976770877838135,0.0,0.0,0.0,0.0903133898973465,4.305450916290283,0.9414863586425781,-16.34690284729004,0
1562.1639999999989,-0.00014588251360692084,-0.00010655254300218076,-0.00022514602460432798,0.0,0.0,0.0,0.0,0.0011292669223621488,0.005467550363391638,-6.858114647911862e-05,0.9998089075088501,0.0,0.0,0.0,0.08909416198730469,4.302663803100586,0.9374163150787354,-16.126218795776367,0
1572.045,-0.00016294991655740887,-0.00013035090523771942,-0.00023062566469889134,0.0,0.0,0.0,0.0,0.0015562900807708502,0.0010133933974429965,0.0032422898802906275,1.0000340938568115,0.0,0.0,0.0,0.08989918231964111,4.296748638153076,0.9228351712226868,-16.271930694580078,0
1581.9480000000003,-0.00020813956507481635,-0.00015751399041619152,-0.0001798426965251565,0.0,0.0,0.0,0.0,0.003676398191601038,0.00036617161822505295,0.000997216789983213,1.0006144046783447,0.0,0.0,0.0,0.09151384979486465,4.289614677429199,0.9118676781654358,-16.564189910888672,0
1591.825999999999,-0.00022770075884182006,-0.00018773865303955972,-0.0001807961380109191,0.0,0.0,0.0,0.0,-0.0010525790276005864,-0.007928420789539814,-0.0011973133077844977,1.000158429145813,0.0,0.0,0.0,0.09165982902050018,4.281384468078613,0.9016865491867065,-16.590612411499023,0
1601.723,-0.0002587789495009929,-0.00018330765306018293,-0.00014882760297041386,0.0,0.0,0.0,0.0,0.003764344612136483,0.002179543487727642,-0.00024968443904072046,1.000887393951416,0.0,0.0,0.0,0.09126967936754227,4.282115459442139,0.919028103351593,-16.519994735717773,0
1611.5990000000002,-0.00028112815925851464,-0.00021983600163366646,-0.00014615854888688773,0.0,0.0,0.0,0.0,9.27720611798577e-05,-0.003070412902161479,-0.0027664024382829666,0.9998665452003479,0.0,0.0,0.0,0.09188544005155563,4.271652698516846,0.916407585144043,-16.631446838378906,0
1621.4939999999988,-0.0003014420799445361,-0.00022410135716199875,-0.00013427333033178002,0.0,0.0,0.0,0.0,0.0008031133911572397,0.00028950872365385294,0.0021365100983530283,1.0013734102249146,0.0,0.0,0.0,0.09115906059741974,4.270145416259766,0.9187399744987488,-16.49997329711914,0
1631.3680000000004,-0.000325557281030342,-0.000265001377556473,-0.0001296671252930537,0.0,0.0,0.0,0.0,0.0009711603634059429,0.001162797911092639,-0.0023733722046017647,1.0024502277374268,0.0,0.0,0.0,0.09203214943408966,4.264012813568115,0.9163106083869934,-16.658002853393555,0
1641.2729999999992,-0.0002575518738012761,-0.00018851194181479514,-0.00017646905325818807,0.0,0.0,0.0,0.0,0.00022184690169524401,0.0012532782275229692,0.002821550238877535,1.00236177444458,0.0,0.0,0.0,0.1022854670882225,4.297479152679443,0.9566059708595276,-18.513872146606445,0
1651.1389999999992,-0.0002711759298108518,-0.00022607954451814294,-0.00017317898164037615,0.0,0.0,0.0,0.0,-0.0001972932950593531,-0.009113471955060959,0.0029841349460184574,1.0021812915802002,0.0,0.0,0.0,0.1032615527510643,4.292267799377441,0.9544830322265625,-18.6905460357666,0
1661.036,-0.00021689722780138254,-0.0001829863467719406,-0.00019607854483183473,0.0,0.0,0.0,0.0,0.002764673437923193,0.0008107820758596063,0.000990703352726996,1.0009433031082153,0.0,0.0,0.0,0.10323480516672134,4.291204452514648,0.980522871017456,-18.685705184936523,0
1670.9159999999993,-0.00022260665718931705,-0.0002194008557125926,-0.00019253183563705534,0.0,0.0,0.0,0.0,-0.001814663759432733,3.7322374737414066e-06,-0.0027435841038823128,1.0001413822174072,0.0,0.0,0.0,0.10315987467765808,4.28363037109375,0.97884601354599,-18.672142028808594,0
1680.8089999999993,-0.00015928411448840052,-0.00020015750487800688,-0.00022026033548172563,0.0,0.0,0.0,0.0,0.003988961223512888,-0.002164877485483885,-0.0009876360418274999,1.0015541315078735,0.0,0.0,0.0,0.10325922816991806,4.285113334655762,0.9729481339454651,-18.69012451171875,0
1690.6890000000003,-0.00015748674923088402,-0.00023562867136206478,-0.00021895630925428122,0.0,0.0,0.0,0.0,-0.0004417979798745364,0.002687230473384261,0.0017038800287991762,1.0007569789886475,0.0,0.0,0.0,0.10315565764904022,4.278024673461914,0.9728829860687256,-18.67137908935547,0
1700.5869999999995,-0.00010269640188198537,-0.00017546080925967544,-0.00020656664855778217,0.0,0.0,0.0,0.0,-0.0006996676675044,0.0021387713495641947,-0.0001880752679426223,0.9995821714401245,0.0,0.0,0.0,0.10106141120195389,4.315229892730713,0.9880663156509399,-18.29231834411621,0
1710.464,-9.907555795507506e-05,-0.0002077609533444047,-0.00020453636534512043,0.0,0.0,0.0,0.0,-0.001962331123650074,-0.003299964591860771,-0.0007816186407580972,1.001521110534668,0.0,0.0,0.0,0.10077708959579468,4.309293746948242,0.9750574827194214,-18.240854263305664,0
1720.3709999999992,-5.777212936664e-05,-0.00019690903718583286,-0.00020510231843218207,0.0,0.0,0.0,0.0,-0.00041927731945179403,0.002837844891473651,-0.0006765112630091608,1.0004360675811768,0.0,0.0,0.0,0.10077937692403793,4.305306911468506,0.9742434024810791,-18.241268157958984,0
1730.235999999999,-5.2209219575161114e-05,-0.00022876288858242333,-0.00020263268379494548,0.0,0.0,0.0,0.0,0.001276557333767414,-0.003424299182370305,0.0008018247899599373,1.0014078617095947,0.0,0.0,0.0,0.1000974252820015,4.299015045166016,0.9677534699440002,-18.11783218383789,0
1740.1369999999988,-2.149091051251162e-05,-0.0002161031006835401,-0.00019150058506056666,0.0,0.0,0.0,0.0,8.018269727472216e-05,0.0021502829622477293,-0.0008428519940935075,1.000215768814087,0.0,0.0,0.0,0.10014594346284866,4.290862083435059,0.9695512652397156,-18.12661361694336,0
1750.009,-1.546185558254365e-05,-0.0002478836686350405,-0.0001869547413662076,0.0,0.0,0.0,0.0,-0.0019366424530744553,-0.0010459303157404065,-0.005337909329682589,1.0009703636169434,0.0,0.0,0.0,0.10051612555980682,4.284582138061523,0.96451336145401,-18.19361686706543,0
1759.9139999999989,-9.387113095726818e-06,-0.0002831223246175796,-0.00018182117491960526,0.0,0.0,0.0,0.0,-9.937577124219388e-05,0.006426265928894281,0.00030482670990750194,0.9987462759017944,0.0,0.0,0.0,0.09951552748680115,4.280666351318359,0.9578719139099121,-18.012508392333984,0
1769.786,-2.7627188501355704e-06,-0.00032226447365246713,-0.00017688173102214932,0.0,0.0,0.0,0.0,2.7942482120124623e-05,0.0010435446165502071,-0.0010765243787318468,0.9992967844009399,0.0,0.0,0.0,0.09918411076068878,4.27842378616333,0.9375942945480347,-17.9525203704834,0
1779.682999999999,4.38003280578414e-06,-0.0003650572616606951,-0.00017289438983425498,0.0,0.0,0.0,0.0,0.00046483665937557817,-0.002287915674969554,0.0022269084583967924,0.9995757937431335,0.0,0.0,0.0,0.0985904186964035,4.2752532958984375,0.9345875382423401,-17.845062255859375,0
1789.5599999999995,4.2081788706127554e-05,-0.0002984805032610893,-4.128507862333208e-05,0.0,0.0,0.0,0.0,0.0026945783756673336,-0.00022566311236005276,5.441833855002187e-05,1.000844120979309,0.0,0.0,0.0,0.0932520404458046,4.3138604164123535,0.9402508735656738,-16.878807067871094,0
1799.4629999999997,5.026103463023901e-05,-0.00033766261185519397,-3.0874754884280264e-05,0.0,0.0,0.0,0.0,-0.0013884861255064607,-0.005484364926815033,0.001951779006049037,1.0001516342163086,0.0,0.0,0.0,0.09318555146455765,4.3071465492248535,0.9422599077224731,-16.866769790649414,0
1809.3359999999993,8.980794518720359e-06,-0.00029611491481773555,1.57997365022311e-05,0.0,0.0,0.0,0.0,0.00026097873342223465,0.0049696313217282295,-1.4265523532230873e-05,1.0006166696548462,0.0,0.0,0.0,0.09357219189405441,4.308596611022949,0.9546043872833252,-16.93675422668457,0
1819.2349999999988,1.5248962881742045e-05,-0.00033323303796350956,2.9326149160624482e-05,0.0,0.0,0.0,0.0,0.002517761429771781,-0.004043004475533962,-0.0007003920618444681,1.001176118850708,0.0,0.0,0.0,0.09357274323701859,4.30857515335083,0.9451658129692078,-16.936851501464844,0
1829.107,-3.1189279980026186e-05,-0.0002574713435024023,9.582550410414115e-05,0.0,0.0,0.0,0.0,0.0013386158971115947,-0.0027579416055232286,-0.001092443591915071,1.0015568733215332,0.0,0.0,0.0,0.09321770817041397,4.302572250366211,0.9556770324707031,-16.87259292602539,0
1839.0059999999994,-2.612872231111396e-05,-0.0002942636201623827,0.00011498542880872265,0.0,0.0,0.0,0.0,0.002082578372210264,0.0005737160099670291,0.0009616200695745647,1.001964807510376,0.0,0.0,0.0,0.09335053712129593,4.296240329742432,0.9631709456443787,-16.89663314819336,0
1848.8919999999998,-1.2280690498300828e-05,-0.0002982980804517865,0.00015275203622877598,0.0,0.0,0.0,0.0,0.0006286424468271434,0.009087005630135536,-0.0025935720186680555,1.0000907182693481,0.0,0.0,0.0,0.0934891551733017,4.292769432067871,0.9638416767120361,-16.921722412109375,0
1858.7749999999996,-8.202272510970943e-06,-0.00033972866367548704,0.00017618032870814204,0.0,0.0,0.0,0.0,0.004239643923938274,0.005805869586765766,-0.0002765376993920654,1.0002214908599854,0.0,0.0,0.0,0.09239847958087921,4.294934272766113,0.9485454559326172,-16.72430992126465,0
1868.6589999999997,-6.764556746929884e-05,-0.00032805526279844344,0.00022444501519203186,0.0,0.0,0.0,0.0,0.0011089231120422482,-0.0027759771328419447,0.0005868829903192818,0.999450147151947,0.0,0.0,0.0,0.08573752641677856,4.301706314086914,0.9283167719841003,-15.51866340637207,0
1878.5589999999993,-6.348062743199989e-05,-0.00037218077341094613,0.00024993461556732655,0.0,0.0,0.0,0.0,-6.54391769785434e-05,0.002517135813832283,0.0014543303987011313,1.001450777053833,0.0,0.0,0.0,0.08602966368198395,4.294829845428467,0.9272622466087341,-15.571540832519531,0
1888.429,-0.00011891485337400809,-0.00037318558315746486,0.00029901679954491556,0.0,0.0,0.0,0.0,-0.0012405691668391228,-0.0024080434814095497,-0.001980218105018139,1.0023998022079468,0.0,0.0,0.0,0.08651839196681976,4.290042400360107,0.916709303855896,-15.660000801086426,0
1898.324999999999,-0.00011494268983369693,-0.0004181420081295073,0.00032904025283642113,0.0,0.0,0.0,0.0,0.0003835061506833881,0.001307102502323687,-0.0001427921961294487,1.002713680267334,0.0,0.0,0.0,0.08616331964731216,4.2928876876831055,0.9168146252632141,-15.595732688903809,0
1908.2099999999991,-0.00013543864770326763,-0.00040469467057846487,0.0003954631683882326,0.0,0.0,0.0,0.0,-0.0007911973516456783,-0.0019803664181381464,0.00392940454185009,1.001461386680603,0.0,0.0,0.0,0.08694131672382355,4.290070533752441,0.9095388650894165,-15.736551284790039,0
1918.0990000000002,-0.0001339228474535048,-0.0004456118622329086,0.0004330181691329926,0.0,0.0,0.0,0.0,0.002183273434638977,0.0026981912087649107,0.0005914471112191677,1.0009468793869019,0.0,0.0,0.0,0.0886947512626648,4.288584232330322,0.9145187139511108,-16.053926467895508,0
1927.9779999999992,-0.00014318669855128974,-0.00043736613588407636,0.0005020792596042156,0.0,0.0,0.0,0.0,0.0032065524719655514,0.00284199183806777,-0.00014814516180194914,1.0002034902572632,0.0,0.0,0.0,0.08839122951030731,4.280786991119385,0.9113689661026001,-15.998988151550293,0
1937.8779999999988,-0.0001431022974429652,-0.00047676567919552326,0.0005439040833152831,0.0,0.0,0.0,0.0,-0.0015980569878593087,0.0016530868597328663,-0.002088064793497324,1.000540018081665,0.0,0.0,0.0,0.08837421238422394,4.272277355194092,0.9051575064659119,-15.9959077835083,0
1947.7529999999988,-0.00011290431575616822,-0.0004422158526722342,0.0006291782483458519,0.0,0.0,0.0,0.0,0.0008428559522144496,0.001620371825993061,0.004847964737564325,1.002077579498291,0.0,0.0,0.0,0.08773873001337051,4.272607326507568,0.9026061296463013,-15.880884170532227,0
1957.646999999999,-0.00011451875616330653,-0.0004797806323040277,0.0006766678998246789,0.0,0.0,0.0,0.0,-0.002141568809747696,-0.0005851765163242817,-0.0037364161107689142,0.9996756315231323,0.0,0.0,0.0,0.08849439024925232,4.265390872955322,0.899848222732544,-16.01766014099121,0
1967.5259999999998,-0.0001275386312045157,-0.0004822304181288928,0.0007431035046465695,0.0,0.0,0.0,0.0,0.0013035120209679008,-0.004371636547148228,-0.0036712936125695705,1.0006192922592163,0.0,0.0,0.0,0.08728349953889847,4.264142990112305,0.9066160321235657,-15.798486709594727,0
1977.4279999999999,-0.00013004575157538056,-0.0005206793430261314,0.0007935083121992648,0.0,0.0,0.0,0.0,-0.002519424306228757,-0.002321037696674466,0.0006180962081998587,0.9997742772102356,0.0,0.0,0.0,0.08670701831579208,4.256197452545166,0.9167016744613647,-15.694143295288086,0
1987.2999999999993,-0.00011477195948828012,-0.0005052200285717845,0.0008713831193745136,0.0,0.0,0.0,0.0,0.0006687442073598504,-0.0013907995307818055,-0.0016551984008401632,0.999426007270813,0.0,0.0,0.0,0.08801722526550293,4.256644248962402,0.917107880115509,-15.931292533874512,0
1997.2070000000003,1.128887106460752e-05,-0.00019300590793136507,4.8516332753933966e-05,0.0,0.0,0.0,0.0,0.0014823608798906207,-0.001567305182106793,0.0035165920853614807,1.003047227859497,0.0,0.0,0.0,0.08636219054460526,4.317354679107666,0.9264819622039795,-15.631729125976562,0
2007.075999999999,1.215238262375351e-05,-0.0002115757524734363,8.204864570870996e-05,0.0,0.0,0.0,0.0,-0.00018730558804236352,0.003398112952709198,0.002910010050982237,1.000607967376709,0.0,0.0,0.0,0.08735375851392746,4.308993339538574,0.9285039305686951,-15.811203002929688,0
2016.9759999999987,3.23294079862535e-05,-0.00016835439600981772,5.877346484339796e-05,0.0,0.0,0.0,0.0,-0.002507827477529645,-0.0009236403275281191,0.00442878995090723,0.9996084570884705,0.0,0.0,0.0,0.08790545910596848,4.304890155792236,0.9261118769645691,-15.911062240600586,0
2026.8599999999988,2.1953745090286247e-05,-0.00019940827041864395,8.068629540503025e-05,0.0,0.0,0.0,0.0,0.0009601876372471452,0.000408791791414842,-0.00036132181412540376,0.9991812109947205,0.0,0.0,0.0,0.089035764336586,4.305140495300293,0.9306278228759766,-16.115650177001953,0
2036.7489999999998,4.695451207226142e-05,-0.00016608157602604479,7.33378401491791e-05,0.0,0.0,0.0,0.0,-0.0016382790636271238,-0.003982725087553263,0.001898216432891786,0.9996750354766846,0.0,0.0,0.0,0.08886265754699707,4.300144195556641,0.9301506876945496,-16.084318161010742,0
2046.6229999999996,2.570196556916926e-05,-0.00019988795975223184,9.085975761990994e-05,0.0,0.0,0.0,0.0,0.0012975463178008795,0.003040350042283535,-0.0028194438200443983,1.0000404119491577,0.0,0.0,0.0,0.09037889540195465,4.302887439727783,0.9397214651107788,-16.358760833740234,0
2056.5190000000002,8.874084596754983e-05,-0.00017184161697514355,3.4869430237449706e-05,0.0,0.0,0.0,0.0,-0.0007712942315265536,6.754354399163276e-05,-0.002842252142727375,0.999550998210907,0.0,0.0,0.0,0.08992837369441986,4.298805236816406,0.9349523782730103,-16.27721405029297,0
2066.396999999999,-1.736053491185885e-06,-0.0002119811251759529,2.706920167838689e-05,0.0,0.0,0.0,0.0,-0.00023705906642135233,-0.002072398317977786,-0.0033001964911818504,0.9986042380332947,0.0,0.0,0.0,0.09003962576389313,4.298173904418945,0.9430559873580933,-16.29734992980957,0
2076.2919999999995,5.047310332884081e-05,-0.0001813986455090344,-1.049199272529222e-05,0.0,0.0,0.0,0.0,-0.0009649164858274162,-0.0010871893027797341,0.0004866809176746756,0.999186098575592,0.0,0.0,0.0,0.09890265017747879,4.301614761352539,0.9558573365211487,-17.90157699584961,0
2086.1710000000003,8.087759852060117e-06,-0.0002126703766407445,-2.048387614195235e-06,0.0,0.0,0.0,0.0,-0.0014177095144987106,-0.002307681832462549,0.0002732436405494809,1.0020921230316162,0.0,0.0,0.0,0.09129376709461212,4.300095081329346,0.9515987038612366,-16.52435302734375,0
2096.071,2.959376070066355e-05,-0.00018895276298280805,-4.3479194573592395e-06,0.0,0.0,0.0,0.0,-0.0010836267611011863,-0.0046529341489076614,0.0016269617481157184,1.0001922845840454,0.0,0.0,0.0,0.09172282367944717,4.297301769256592,0.9564833641052246,-16.602012634277344,0
