timestamp,stateEstimate.x,stateEstimate.y,stateEstimate.z,controller.cmd_thrust,controller.cmd_roll,controller.cmd_pitch,controller.cmd_yaw,controller.r_roll,controller.r_pitch,controller.r_yaw,controller.accelz,controller.actuatorThrust,controller.roll,controller.pitch,controller.yaw,controller.rollRate,controller.pitchRate,controller.yawRate,controller.ctr_yaw
0.0,-0.01955767162144184,-0.0011491125915199518,-0.00036993902176618576,0.0,0.0,0.0,0.0,-0.002880026353523135,0.0006739819073118269,0.0005093548679724336,0.9988961219787598,0.0,0.0,0.0,15.788583755493164,5.224809169769287,0.710203230381012,-2857.764892578125,0
9.89600000000064,-0.01954496279358864,-0.0011719551403075457,-0.00036775716580450535,0.0,0.0,0.0,0.0,1.1313225513731595e-05,-0.0015281563391909003,0.0013389945961534977,0.9990110993385315,0.0,0.0,0.0,15.772285461425781,5.227485656738281,0.7069793939590454,-2854.815185546875,0
19.77400000000125,-0.0195333119481802,-0.0011576671386137605,-0.00034635665360838175,0.0,0.0,0.0,0.0,0.00012025333126075566,-0.0010054945014417171,-0.004007090348750353,0.9990954399108887,0.0,0.0,0.0,15.783921241760254,5.234161376953125,0.7073423266410828,-2856.921142578125,0
29.6820000000007,-0.019523005932569504,-0.0011806883849203587,-0.00034446868812665343,0.0,0.0,0.0,0.0,-0.0009613439906388521,0.0008065483416430652,-0.0011503442656248808,1.0015089511871338,0.0,0.0,0.0,15.76696491241455,5.230443477630615,0.7031257748603821,-2853.85205078125,0
39.54700000000048,-0.01954198256134987,-0.001166149158962071,-0.0003177171456627548,0.0,0.0,0.0,0.0,-1.4599163478123955e-05,-0.006343644578009844,0.0008775278693065047,1.000031590461731,0.0,0.0,0.0,15.778255462646484,5.240662097930908,0.7023548483848572,-2855.8955078125,0
49.455000000001746,-0.019507190212607384,-0.0011394161265343428,-0.0003829986380878836,0.0,0.0,0.0,0.0,-0.000496120483148843,0.005919354036450386,0.0008460544049739838,1.0011563301086426,0.0,0.0,0.0,15.792022705078125,5.237143039703369,0.7147696614265442,-2858.387451171875,0
59.327000000001135,-0.019530385732650757,-0.0011188919888809323,-0.00039071039645932615,0.0,0.0,0.0,0.0,-0.0011227414943277836,-0.0011138084810227156,-0.006673555355519056,1.0017074346542358,0.0,0.0,0.0,15.803245544433594,5.237936019897461,0.6907116770744324,-2860.4189453125,0
69.22600000000057,-0.019517729058861732,-0.0011399831855669618,-0.0003874496615026146,0.0,0.0,0.0,0.0,0.0030879999976605177,0.0071393451653420925,-0.0011929627507925034,1.0006963014602661,0.0,0.0,0.0,15.78575611114502,5.234450817108154,0.6901861429214478,-2857.253173828125,0
79.09700000000157,-0.019611207768321037,-0.0011048422893509269,-0.0003720588574651629,0.0,0.0,0.0,0.0,0.0006393748917616904,-0.0028271384071558714,0.0006737980293110013,0.9997096061706543,0.0,0.0,0.0,15.800647735595703,5.239688873291016,0.6693602204322815,-2859.94873046875,0
89.0,-0.019598988816142082,-0.0011247156653553247,-0.0003666217380668968,0.0,0.0,0.0,0.0,-0.002138214884325862,0.0011872216127812862,0.0010625243885442615,0.9985502362251282,0.0,0.0,0.0,15.785364151000977,5.236567974090576,0.6798770427703857,-2857.18212890625,0
98.86700000000019,-0.019642865285277367,-0.0010962837841361761,-0.0003446674672886729,0.0,0.0,0.0,0.0,-0.0008431969908997416,-0.0034212381578981876,0.0019492707215249538,0.9990437030792236,0.0,0.0,0.0,15.799553871154785,5.24603796005249,0.6816446185112,-2859.75048828125,0
108.76900000000023,-0.01963323913514614,-0.0011135463137179613,-0.000339535647071898,0.0,0.0,0.0,0.0,-0.0015827531460672617,0.0009226619731634855,0.0019213705090805888,0.9983940124511719,0.0,0.0,0.0,15.784533500671387,5.241281032562256,0.6840499043464661,-2857.031982421875,0
118.64100000000144,-0.019669808447360992,-0.0011042967671528459,-0.00032498070504516363,0.0,0.0,0.0,0.0,0.00017323331849183887,0.0018477747216820717,0.0004089500871486962,0.9980595111846924,0.0,0.0,0.0,15.798068046569824,5.245274543762207,0.6696174740791321,-2859.481689453125,0
128.53500000000167,-0.019660865887999535,-0.0011216294951736927,-0.00032145564910024405,0.0,0.0,0.0,0.0,-0.0013688490726053715,0.0016626085853204131,0.002481326926499605,0.9999499320983887,0.0,0.0,0.0,15.782647132873535,5.2426300048828125,0.6653046607971191,-2856.6904296875,0
138.41500000000087,-0.01960637792944908,-0.0011345032835379243,-0.00031901264446787536,0.0,0.0,0.0,0.0,-0.00039285956881940365,-7.666167221032083e-06,0.001954377396032214,1.0000967979431152,0.0,0.0,0.0,15.797286033630371,5.241347312927246,0.6789919137954712,-2859.340087890625,0
148.3100000000013,-0.019593792036175728,-0.001154347904957831,-0.0003156092425342649,0.0,0.0,0.0,0.0,0.002329411217942834,0.0029282260220497847,0.0029235773254185915,0.9999648332595825,0.0,0.0,0.0,15.781620979309082,5.235147476196289,0.6771585941314697,-2856.504638671875,0
158.19400000000132,-0.019638901576399803,-0.001136831589974463,-0.0002939425176009536,0.0,0.0,0.0,0.0,0.0017110832268372178,0.0021722749806940556,-0.0026976498775184155,1.000314712524414,0.0,0.0,0.0,15.799437522888184,5.2437238693237305,0.6750591993331909,-2859.7294921875,0
168.08800000000156,-0.019628096371889114,-0.0011554702650755644,-0.0002882066182792187,0.0,0.0,0.0,0.0,0.0018698122585192323,-0.004514175932854414,0.00021652384020853788,0.9988583326339722,0.0,0.0,0.0,15.78270149230957,5.236871719360352,0.6656976938247681,-2856.700439453125,0
177.96800000000076,-0.019530531018972397,-0.0011588589986786246,-0.00027324550319463015,0.0,0.0,0.0,0.0,0.00019554074970073998,-0.0006688625435344875,0.0003768652386497706,1.0006892681121826,0.0,0.0,0.0,15.795487403869629,5.2291178703308105,0.6851250529289246,-2859.014404296875,0
187.8640000000014,-0.01949070766568184,-0.001115111168473959,-0.0003712924080900848,0.0,0.0,0.0,0.0,-0.0007320884033106267,-1.3586083014160977e-06,0.0038896098267287016,1.0017056465148926,0.0,0.0,0.0,15.810257911682129,5.23069953918457,0.6995907425880432,-2861.688232421875,0
197.7380000000012,-0.019608257338404655,-0.0010781851597130299,-0.00042051845230162144,0.0,0.0,0.0,0.0,-0.0018142705084756017,-0.005400094669312239,-0.00016711973876226693,1.0000790357589722,0.0,0.0,0.0,15.822408676147461,5.236535549163818,0.690333366394043,-2863.8876953125,0
207.63400000000001,-0.019596194848418236,-0.0010906222742050886,-0.00041877490002661943,0.0,0.0,0.0,0.0,0.0005769741837866604,0.0011808376293629408,-0.00024086509074550122,0.9981294870376587,0.0,0.0,0.0,15.806313514709473,5.23797607421875,0.704600989818573,-2860.97412109375,0
217.51300000000083,-0.019581511616706848,-0.001089665456674993,-0.00041496165795251727,0.0,0.0,0.0,0.0,0.0009332977351732552,0.0007322162273339927,-0.0022681185510009527,0.9991955757141113,0.0,0.0,0.0,15.813055038452148,5.233445644378662,0.7075523734092712,-2862.194580078125,0
227.41300000000047,-0.01956658437848091,-0.001101915491744876,-0.0004149435553699732,0.0,0.0,0.0,0.0,-0.0026580647099763155,-0.001132305944338441,0.0030394697096198797,0.9994422197341919,0.0,0.0,0.0,15.796746253967285,5.2280049324035645,0.7106056213378906,-2859.242431640625,0
237.29300000000148,-0.019523052498698235,-0.0010852463310584426,-0.0004044039233122021,0.0,0.0,0.0,0.0,0.0016554659232497215,0.0035837541799992323,0.001998675987124443,1.0013456344604492,0.0,0.0,0.0,15.81032943725586,5.231149196624756,0.7233604192733765,-2861.701416015625,0
247.1780000000017,-0.019504917785525322,-0.001096334308385849,-0.0004036531026940793,0.0,0.0,0.0,0.0,0.0005885468563064933,-0.0052158948965370655,0.0005421331734396517,1.0012648105621338,0.0,0.0,0.0,15.795178413391113,5.221562385559082,0.7191218733787537,-2858.95849609375,0
257.0560000000005,-0.019520096480846405,-0.0010814297711476684,-0.00039029965410009027,0.0,0.0,0.0,0.0,-0.00017805727839004248,0.0032075524795800447,0.002448409330099821,0.9998733997344971,0.0,0.0,0.0,15.804973602294922,5.225415229797363,0.727306604385376,-2860.7314453125,0
266.95300000000134,-0.019501319155097008,-0.001092498074285686,-0.00038685096660628915,0.0,0.0,0.0,0.0,0.0013678191462531686,0.0007427727687172592,0.002857872052118182,0.999805212020874,0.0,0.0,0.0,15.789591789245605,5.218574523925781,0.7204174995422363,-2857.947509765625,0
276.83000000000175,-0.019463907927274704,-0.0011137912515550852,-0.0003898113500326872,0.0,0.0,0.0,0.0,-0.0010538704227656126,0.0006578945321962237,0.0030170660465955734,0.9997248649597168,0.0,0.0,0.0,15.805015563964844,5.207212924957275,0.7246133685112,-2860.739013671875,0
286.7320000000018,-0.019443251192569733,-0.0011258996091783047,-0.000386988278478384,0.0,0.0,0.0,0.0,0.0009473703685216606,-0.0013934405287727714,0.0030977933201938868,0.9999008178710938,0.0,0.0,0.0,15.789417266845703,5.203757286071777,0.7252427339553833,-2857.916015625,0
296.603000000001,-0.019517894834280014,-0.0011184185277670622,-0.0003723877598531544,0.0,0.0,0.0,0.0,0.002184495097026229,-0.002523748902603984,0.0015661794459447265,0.9992355704307556,0.0,0.0,0.0,15.800487518310547,5.213857173919678,0.7193479537963867,-2859.91943359375,0
306.4970000000012,-0.019502542912960052,-0.001128552365116775,-0.0003693073522299528,0.0,0.0,0.0,0.0,0.0008240978349931538,-0.003218932542949915,0.0025674623902887106,1.0008816719055176,0.0,0.0,0.0,15.78482723236084,5.206469535827637,0.7247361540794373,-2857.0849609375,0
316.3780000000006,-0.01958005502820015,-0.0011053432244807482,-0.00034338783007115126,0.0,0.0,0.0,0.0,-0.0002386954438406974,0.0036496517714112997,-0.00012681340740527958,1.0003111362457275,0.0,0.0,0.0,15.801950454711914,5.215210914611816,0.7181204557418823,-2860.184326171875,0
326.27100000000064,-0.01957046054303646,-0.0011145091848447919,-0.00033825269201770425,0.0,0.0,0.0,0.0,0.002189223887398839,0.001937058405019343,0.0017419203650206327,0.996248185634613,0.0,0.0,0.0,15.785950660705566,5.209076404571533,0.7118297219276428,-2857.28857421875,0
336.16200000000026,-0.01960807479918003,-0.0011084259022027254,-0.00032379309413954616,0.0,0.0,0.0,0.0,0.00013877406308893114,0.005784720182418823,-0.0018014928791671991,0.9987972378730774,0.0,0.0,0.0,15.801382064819336,5.209012508392334,0.7063711285591125,-2860.08154296875,0
346.0500000000011,-0.019600391387939453,-0.001118394429795444,-0.0003216446493752301,0.0,0.0,0.0,0.0,-0.0021387843880802393,-0.005697269458323717,0.00044175449875183403,0.9992652535438538,0.0,0.0,0.0,15.785276412963867,5.197906017303467,0.6858700513839722,-2857.166259765625,0
355.9240000000009,-0.019639024510979652,-0.0011113026412203908,-0.0003084887866862118,0.0,0.0,0.0,0.0,-0.0020737540908157825,0.0006296184146776795,-0.0052153873257339,0.9981886148452759,0.0,0.0,0.0,15.801230430603027,5.204722881317139,0.697014331817627,-2860.053955078125,0
365.8190000000013,-0.019633449614048004,-0.0011197238927707076,-0.00030746939592063427,0.0,0.0,0.0,0.0,0.0011838009813800454,-0.0017824050737544894,-0.0003645687538664788,0.9973273277282715,0.0,0.0,0.0,15.784744262695312,5.204545974731445,0.6921115517616272,-2857.070068359375,0
375.71100000000115,-0.01957504078745842,-0.0011044859420508146,-0.00028815222322009504,0.0,0.0,0.0,0.0,0.00221438379958272,0.0034113784786313772,-0.0016343611059710383,0.9978589415550232,0.0,0.0,0.0,15.796117782592773,5.204471111297607,0.7014014720916748,-2859.128662109375,0
385.6060000000016,-0.019568590447306633,-0.00111234444193542,-0.0002897744707297534,0.0,0.0,0.0,0.0,0.0011716510634869337,0.0002361232036491856,-1.8218038349004928e-06,0.9992377161979675,0.0,0.0,0.0,15.780435562133789,5.195557117462158,0.6899436712265015,-2856.2900390625,0
395.4730000000018,-0.01955309323966503,-0.0010998885845765471,-0.00027713950839824975,0.0,0.0,0.0,0.0,0.0028427941724658012,-2.2987612737779273e-06,0.0012263837270438671,1.0005890130996704,0.0,0.0,0.0,15.789961814880371,5.198076248168945,0.6854561567306519,-2858.014404296875,0
405.3690000000006,-0.01953446865081787,-0.0011111767962574959,-0.00032869866117835045,0.0,0.0,0.0,0.0,-0.00024246718385256827,-0.0012971971882507205,0.0006476899143308401,1.0023125410079956,0.0,0.0,0.0,15.80213737487793,5.177226543426514,0.6839455962181091,-2860.218017578125,0
415.2470000000012,-0.019481820985674858,-0.001130560995079577,-0.00031523327925242484,0.0,0.0,0.0,0.0,0.0015473971143364906,0.004058279097080231,-5.169615178601816e-06,1.0000653266906738,0.0,0.0,0.0,15.81478500366211,5.171024322509766,0.6917918920516968,-2862.507568359375,0
425.15000000000146,-0.019470181316137314,-0.0011439345544204116,-0.0003158736217301339,0.0,0.0,0.0,0.0,-0.0034138609189540148,-0.007190183736383915,0.0018325125565752387,1.0001863241195679,0.0,0.0,0.0,15.798420906066895,5.159706115722656,0.680406391620636,-2859.54541015625,0
435.01800000000003,-0.019486699253320694,-0.0011508273892104626,-0.0003207516565453261,0.0,0.0,0.0,0.0,0.0005604876205325127,-0.002649694448336959,0.00034296989906579256,1.0007904767990112,0.0,0.0,0.0,15.811491012573242,5.163163661956787,0.6977766752243042,-2861.911376953125,0
444.9230000000007,-0.019475534558296204,-0.0011658085277304053,-0.0003208026464562863,0.0,0.0,0.0,0.0,-0.0021016502287238836,0.0005256172735244036,0.0009160324698314071,1.0004099607467651,0.0,0.0,0.0,15.796073913574219,5.15871524810791,0.7006669640541077,-2859.12060546875,0
454.7910000000011,-0.01949111744761467,-0.0011651408858597279,-0.00031573354499414563,0.0,0.0,0.0,0.0,-0.0018378639360889792,-0.004222876392304897,-0.0013217026134952903,0.9999422430992126,0.0,0.0,0.0,15.80992317199707,5.16343879699707,0.7052791118621826,-2861.6279296875,0
464.6910000000007,-0.01948101632297039,-0.0011828105198219419,-0.0003146355738863349,0.0,0.0,0.0,0.0,-0.00024581432808190584,-0.0007855731528252363,-0.003225943073630333,1.0003752708435059,0.0,0.0,0.0,15.794181823730469,5.16071081161499,0.7167864441871643,-2858.7783203125,0
474.5680000000011,-0.019546279683709145,-0.001151363248936832,-0.0002905180735979229,0.0,0.0,0.0,0.0,-0.0001899911876535043,-0.0009014180977828801,0.0021913235541433096,1.0007953643798828,0.0,0.0,0.0,15.803079605102539,5.174972057342529,0.7171065211296082,-2860.388916015625,0
484.45900000000074,-0.01954091526567936,-0.0011664294870570302,-0.00028649435262195766,0.0,0.0,0.0,0.0,0.0002647905785124749,0.0040030283853411674,0.0038825171068310738,0.9995547533035278,0.0,0.0,0.0,15.788201332092285,5.169771194458008,0.7164525985717773,-2857.69580078125,0
494.33900000000176,-0.01955920271575451,-0.0011505713919177651,-0.00026372226420789957,0.0,0.0,0.0,0.0,-0.001450252952054143,-0.0014895477797836065,0.00017441538511775434,0.9992656707763672,0.0,0.0,0.0,15.802478790283203,5.175182819366455,0.7086356282234192,-2860.280029296875,0
504.2350000000006,-0.019554244354367256,-0.0011671383399516344,-0.00025836838176473975,0.0,0.0,0.0,0.0,-0.0002395474148215726,0.0022916647139936686,-0.0020778377074748278,1.0006052255630493,0.0,0.0,0.0,15.786663055419922,5.1676836013793945,0.7091121077537537,-2857.417236328125,0
514.1130000000012,-0.01960764452815056,-0.0011709047248587012,-0.0002473641943652183,0.0,0.0,0.0,0.0,0.000775375054217875,-0.0007768725627101958,0.0019608065485954285,1.0012623071670532,0.0,0.0,0.0,15.800101280212402,5.168294906616211,0.7038550972938538,-2859.849609375,0
524.0020000000004,-0.019602095708251,-0.001189783331938088,-0.00023991460329852998,0.0,0.0,0.0,0.0,-0.0035688970237970352,-0.002041018335148692,0.00333179859444499,1.001531958580017,0.0,0.0,0.0,15.784708023071289,5.160351753234863,0.7086183428764343,-2857.0634765625,0
533.8870000000006,-0.01964663341641426,-0.0011836588382720947,-0.00021314276091288775,0.0,0.0,0.0,0.0,-0.0009883098537102342,-0.0013625120045617223,-0.003118307562544942,0.999108612537384,0.0,0.0,0.0,15.799712181091309,5.174422264099121,0.7043783068656921,-2859.779296875,0
543.7840000000015,-0.019590679556131363,-0.0010903431102633476,-0.00043632840970531106,0.0,0.0,0.0,0.0,-0.0014471651520580053,0.0012026280164718628,0.0021058584097772837,0.999016284942627,0.0,0.0,0.0,15.809327125549316,5.183570384979248,0.7156311273574829,-2861.519775390625,0
553.6600000000017,-0.01965850405395031,-0.001028540194965899,-0.0004419276083353907,0.0,0.0,0.0,0.0,-0.000474533619126305,0.002335706725716591,-0.0018485250184312463,1.0001403093338013,0.0,0.0,0.0,15.821107864379883,5.19443416595459,0.7138256430625916,-2863.65234375,0
563.5550000000003,-0.019659128040075302,-0.0010411494877189398,-0.00044232208165340126,0.0,0.0,0.0,0.0,-0.0032187546603381634,0.0007393143023364246,0.0015899899881333113,1.0017762184143066,0.0,0.0,0.0,15.804474830627441,5.187321186065674,0.7079177498817444,-2860.641357421875,0
573.4390000000003,-0.019668443128466606,-0.0010159412631765008,-0.0004267341864760965,0.0,0.0,0.0,0.0,0.004378204699605703,0.005306588020175695,-0.002029903931543231,1.0007078647613525,0.0,0.0,0.0,15.816375732421875,5.196559429168701,0.7071740627288818,-2862.79541015625,0
583.3240000000005,-0.019669758155941963,-0.001028737286105752,-0.0004236888780724257,0.0,0.0,0.0,0.0,-0.00015618583711329848,0.002890345174819231,-0.004738010466098785,1.0010640621185303,0.0,0.0,0.0,15.800738334655762,5.185121059417725,0.6974216103553772,-2859.96484375,0
593.2090000000007,-0.01963217742741108,-0.0010399316670373082,-0.0004202219715807587,0.0,0.0,0.0,0.0,0.001382974674925208,-0.002279204549267888,-0.0010654855286702514,1.000241994857788,0.0,0.0,0.0,15.814156532287598,5.181636810302734,0.6999380588531494,-2862.39404296875,0
603.1020000000008,-0.019615646451711655,-0.0010400906903669238,-0.0004497879126574844,0.0,0.0,0.0,0.0,-0.0028863956686109304,0.0016098428750410676,0.00131193024571985,0.9992144107818604,0.0,0.0,0.0,15.823952674865723,5.17338228225708,0.707582950592041,-2864.1669921875,0
612.9900000000016,-0.01964055933058262,-0.00101264170370996,-0.0004363575135357678,0.0,0.0,0.0,0.0,-0.0018953653052449226,-0.0030828723683953285,0.0020508021116256714,0.9999528527259827,0.0,0.0,0.0,15.839077949523926,5.174931526184082,0.70591139793396,-2866.904541015625,0
622.8810000000012,-0.01963929273188114,-0.0010285743046551943,-0.0004334444529376924,0.0,0.0,0.0,0.0,-0.0006909323274157941,-0.0013673546491190791,0.0016675159567967057,0.9974132180213928,0.0,0.0,0.0,15.824594497680664,5.170726776123047,0.7188581228256226,-2864.283203125,0
632.7620000000006,-0.019597601145505905,-0.0010521624935790896,-0.00043383947922848165,0.0,0.0,0.0,0.0,-0.0012404922163113952,0.0027416464872658253,0.0018869327614083886,0.9988992214202881,0.0,0.0,0.0,15.834636688232422,5.159605503082275,0.7307268381118774,-2866.100830078125,0
642.6450000000004,-0.019592922180891037,-0.001071140170097351,-0.0004339884326327592,0.0,0.0,0.0,0.0,-0.003325854428112507,-0.0031220747623592615,0.001895928755402565,1.0004373788833618,0.0,0.0,0.0,15.818853378295898,5.158292293548584,0.7262939810752869,-2863.243896484375,0
652.5380000000005,-0.0195782408118248,-0.001094620325602591,-0.00043754492071457207,0.0,0.0,0.0,0.0,0.0007093104650266469,0.001547049731016159,-0.0007582983234897256,0.9999276995658875,0.0,0.0,0.0,15.832512855529785,5.157506465911865,0.7385239005088806,-2865.71630859375,0
662.4310000000005,-0.019572682678699493,-0.0011167930206283927,-0.0004376901488285512,0.0,0.0,0.0,0.0,-0.002837371313944459,0.0007122070528566837,0.001626371406018734,1.0011399984359741,0.0,0.0,0.0,15.816263198852539,5.147909164428711,0.7323192358016968,-2862.775390625,0
672.3040000000001,-0.019553029909729958,-0.001117782318033278,-0.000429750420153141,0.0,0.0,0.0,0.0,0.0003322749398648739,0.0012034701649099588,-0.0007828358211554587,0.9988546371459961,0.0,0.0,0.0,15.831698417663574,5.150970458984375,0.7343343496322632,-2865.56884765625,0
682.1980000000003,-0.019548090174794197,-0.0011413188185542822,-0.0004286823095753789,0.0,0.0,0.0,0.0,-0.0005782879306934774,0.00037518766475841403,-0.0017164441524073482,0.9984715580940247,0.0,0.0,0.0,15.816237449645996,5.145613670349121,0.7326841950416565,-2862.7705078125,0
692.0780000000013,-0.019503548741340637,-0.0011496134102344513,-0.00042026294977404177,0.0,0.0,0.0,0.0,0.0003216185432393104,0.00046226641279645264,0.0013223200803622603,0.9997588396072388,0.0,0.0,0.0,15.825944900512695,5.140402317047119,0.7465560436248779,-2864.527587890625,0
701.9670000000006,-0.01949544996023178,-0.0011742380447685719,-0.0004199109098408371,0.0,0.0,0.0,0.0,0.002915406133979559,-0.001731000724248588,0.0003825679887086153,1.0023207664489746,0.0,0.0,0.0,15.810249328613281,5.131170749664307,0.7534371614456177,-2861.686767578125,0
711.8510000000006,-0.019474875181913376,-0.0011702035553753376,-0.00039986285264603794,0.0,0.0,0.0,0.0,-0.0003724428825080395,0.0040541659109294415,-0.00030473305378109217,1.0003671646118164,0.0,0.0,0.0,15.819466590881348,5.1311211585998535,0.7604247331619263,-2863.35498046875,0
721.7520000000004,-0.019464651122689247,-0.0011937747476622462,-0.00039560990990139544,0.0,0.0,0.0,0.0,-0.0003419015265535563,-0.006098816636949778,0.0013326777843758464,0.9991227984428406,0.0,0.0,0.0,15.802886962890625,5.129757881164551,0.7518352270126343,-2860.353759765625,0
731.6240000000016,-0.01953362673521042,-0.0011767434189096093,-0.0003629016864579171,0.0,0.0,0.0,0.0,-0.0016585075063630939,-0.0005947345052845776,0.0011070424225181341,0.9983726739883423,0.0,0.0,0.0,15.81678581237793,5.149241924285889,0.7581380009651184,-2862.86962890625,0
741.5160000000014,-0.019525643438100815,-0.001197421457618475,-0.0003579191688913852,0.0,0.0,0.0,0.0,0.0020359549671411514,-0.0007911744178272784,0.0009289586450904608,0.9985566139221191,0.0,0.0,0.0,15.802046775817871,5.144356727600098,0.7567747831344604,-2860.20166015625,0
751.398000000001,-0.01950250007212162,-0.0011977902613580227,-0.0003401205176487565,0.0,0.0,0.0,0.0,0.001722685876302421,0.004085027612745762,-0.0056360443122684956,1.0001407861709595,0.0,0.0,0.0,15.814005851745605,5.148162841796875,0.7615365982055664,-2862.36669921875,0
761.2890000000007,-0.019493069499731064,-0.0012177940225228667,-0.00033631292171776295,0.0,0.0,0.0,0.0,0.0014246422797441483,-0.0034011397510766983,0.006046142894774675,0.9994940161705017,0.0,0.0,0.0,15.795892715454102,5.1433024406433105,0.7501634955406189,-2859.087890625,0
771.1720000000005,-0.019547181203961372,-0.0011916165240108967,-0.00029917192296124995,0.0,0.0,0.0,0.0,-0.0025700379628688097,0.0007663159631192684,-0.00039054136141203344,0.9995375275611877,0.0,0.0,0.0,15.809102058410645,5.160886287689209,0.7545374631881714,-2861.47900390625,0
781.0700000000015,-0.019541757181286812,-0.001205237116664648,-0.00029329696553759277,0.0,0.0,0.0,0.0,0.0020243010949343443,0.0030896884854882956,-0.002014902886003256,0.9984829425811768,0.0,0.0,0.0,15.79313850402832,5.160292148590088,0.7519413828849792,-2858.58935546875,0
790.9450000000015,-0.01956207863986492,-0.0011757032480090857,-0.00025817155255936086,0.0,0.0,0.0,0.0,0.00041499899816699326,-0.00033339709625579417,0.001019953633658588,1.0004949569702148,0.0,0.0,0.0,15.801997184753418,5.169227600097656,0.7448462247848511,-2860.19287109375,0
800.8510000000006,-0.019561350345611572,-0.0011846711859107018,-0.00025122330407612026,0.0,0.0,0.0,0.0,-0.0010686391033232212,-0.0019318133126944304,-0.002941249869763851,1.001456618309021,0.0,0.0,0.0,15.7870512008667,5.164491176605225,0.7418215870857239,-2857.48779296875,0
810.7180000000008,-0.019635792821645737,-0.00116965442430228,-0.0002318574406672269,0.0,0.0,0.0,0.0,-0.00047842221101745963,-0.004117518197745085,0.0007673103827983141,1.001390814781189,0.0,0.0,0.0,15.801416397094727,5.174802303314209,0.7358407378196716,-2860.087890625,0
820.6150000000016,-0.019636845216155052,-0.0011789120035246015,-0.000221708178287372,0.0,0.0,0.0,0.0,-0.0025353613309562206,0.0012624753871932626,0.00045802287058904767,0.9991962313652039,0.0,0.0,0.0,15.786263465881348,5.166855335235596,0.7428587079048157,-2857.344970703125,0
830.4930000000004,-0.019655002281069756,-0.0011651599779725075,-0.00020412589947227389,0.0,0.0,0.0,0.0,-0.0020368918776512146,0.0054996726103127,0.002514968626201153,0.998954176902771,0.0,0.0,0.0,15.799439430236816,5.174846649169922,0.7407263517379761,-2859.729736328125,0
840.3990000000013,-0.019654691219329834,-0.0011755031300708652,-0.0001939823996508494,0.0,0.0,0.0,0.0,-0.0018292026361450553,-0.005215947516262531,0.0033286851830780506,1.0013477802276611,0.0,0.0,0.0,15.784342765808105,5.172614574432373,0.7328180074691772,-2856.997314453125,0
850.2700000000004,-0.019671089947223663,-0.0011564017040655017,-0.00018178265599999577,0.0,0.0,0.0,0.0,0.002257980639114976,-0.0026185596361756325,0.0017160952556878328,1.0017670392990112,0.0,0.0,0.0,15.802997589111328,5.180969715118408,0.7491604685783386,-2860.373779296875,0
860.1660000000011,-0.0196688212454319,-0.001167732523754239,-0.0001691842480795458,0.0,0.0,0.0,0.0,0.0010956767946481705,0.0015457926783710718,0.002346685156226158,0.9996870756149292,0.0,0.0,0.0,15.787870407104492,5.172426223754883,0.7564972043037415,-2857.635986328125,0
870.0370000000003,-0.01968766748905182,-0.0011485697468742728,-0.0001435566518921405,0.0,0.0,0.0,0.0,-0.000314091652398929,0.0005134553648531437,-0.001517430180683732,0.999704897403717,0.0,0.0,0.0,15.79837703704834,5.177071571350098,0.7480931878089905,-2859.53759765625,0
879.9480000000003,-0.01968514733016491,-0.0011578265111893415,-0.00012914955732412636,0.0,0.0,0.0,0.0,-0.0015366728184744716,0.0009923761244863272,0.0013320149155333638,0.9992655515670776,0.0,0.0,0.0,15.782727241516113,5.168618679046631,0.7392114996910095,-2856.704833984375,0
889.8100000000013,-0.01967211440205574,-0.0011671135434880853,-0.00011733899009414017,0.0,0.0,0.0,0.0,0.0004158447845838964,0.0009262454695999622,0.0023639420978724957,0.9997339248657227,0.0,0.0,0.0,15.800414085388184,5.169302463531494,0.7417880892753601,-2859.90625,0
899.7070000000003,-0.01966487057507038,-0.0011763670481741428,-0.0001035398745443672,0.0,0.0,0.0,0.0,0.0036555305123329163,-0.0011237715370953083,-0.003828725777566433,0.9999227523803711,0.0,0.0,0.0,15.785640716552734,5.1651434898376465,0.7391144037246704,-2857.232177734375,0
909.5840000000007,-0.019653938710689545,-0.0011699615279212594,-9.436360414838418e-05,0.0,0.0,0.0,0.0,-9.489318472333252e-05,-0.0024959207512438297,-0.0012662258232012391,1.0013833045959473,0.0,0.0,0.0,15.79819393157959,5.157077789306641,0.743961751461029,-2859.50439453125,0
919.4800000000014,-0.019645530730485916,-0.001179975806735456,-7.971314335009083e-05,0.0,0.0,0.0,0.0,0.00037830593646503985,0.0028732619248330593,-0.0017627441557124257,0.999918520450592,0.0,0.0,0.0,15.781852722167969,5.1501264572143555,0.7422587871551514,-2856.546630859375,0
929.3580000000002,-0.019616425037384033,-0.0011998881818726659,-6.588688847841695e-05,0.0,0.0,0.0,0.0,0.0009227246628142893,0.005945638287812471,0.0017051838804036379,0.998291552066803,0.0,0.0,0.0,15.793350219726562,5.138577938079834,0.7404093146324158,-2858.627685546875,0
939.268,-0.01960681565105915,-0.0012154417345300317,-5.178253195481375e-05,0.0,0.0,0.0,0.0,-0.0012752863112837076,0.005827723070979118,-0.0015139721799641848,0.9984516501426697,0.0,0.0,0.0,15.777620315551758,5.133626461029053,0.7336685061454773,-2855.780517578125,0
949.1330000000016,-0.01963360607624054,-0.0012008174089714885,-6.064442277420312e-05,0.0,0.0,0.0,0.0,-0.00031059887260198593,0.0010623678099364042,0.00346582243219018,0.9986520409584045,0.0,0.0,0.0,15.794791221618652,5.145286560058594,0.7221825122833252,-2858.888427734375,0
959.0320000000011,-0.01957128755748272,-0.001063321833498776,-0.0004405628424137831,0.0,0.0,0.0,0.0,0.004007553681731224,0.0010403671767562628,-0.0014787028776481748,0.9991777539253235,0.0,0.0,0.0,15.807790756225586,5.159149646759033,0.7292956709861755,-2861.241455078125,0
968.9120000000003,-0.019533513113856316,-0.0010489498963579535,-0.0004227347671985626,0.0,0.0,0.0,0.0,0.0022047990933060646,-2.297122591699008e-05,0.0008166804909706116,1.0010418891906738,0.0,0.0,0.0,15.816936492919922,5.149935722351074,0.732425332069397,-2862.89697265625,0
978.8000000000011,-0.019520066678524017,-0.0010586909484118223,-0.0004224058357067406,0.0,0.0,0.0,0.0,0.001841941149905324,-0.0016876787412911654,-0.002506498247385025,1.0001718997955322,0.0,0.0,0.0,15.80130672454834,5.141022205352783,0.7250114679336548,-2860.06787109375,0
988.6830000000009,-0.01951839216053486,-0.0010542452801018953,-0.00042091275099664927,0.0,0.0,0.0,0.0,-0.0029228513594716787,0.0003745158901438117,0.0008399716462008655,0.9990646243095398,0.0,0.0,0.0,15.814933776855469,5.136645317077637,0.7210437059402466,-2862.53466796875,0
998.5800000000017,-0.0195059385150671,-0.0010628580348566175,-0.0004202372510917485,0.0,0.0,0.0,0.0,0.0005488774040713906,-0.0028634474147111177,-0.002396863419562578,0.9994749426841736,0.0,0.0,0.0,15.799553871154785,5.137629508972168,0.7180843949317932,-2859.75048828125,0
1008.4630000000016,-0.019535571336746216,-0.0010518552735447884,-0.000414897600421682,0.0,0.0,0.0,0.0,-0.0015345272840932012,-0.0013741899747401476,0.0006842995062470436,1.0014671087265015,0.0,0.0,0.0,15.809247016906738,5.1407318115234375,0.7181001305580139,-2861.505126953125,0
1018.3520000000008,-0.019523732364177704,-0.0010620600078254938,-0.0004136038769502193,0.0,0.0,0.0,0.0,-0.0007262334111146629,-0.005412023514509201,0.000686656916514039,0.9984337687492371,0.0,0.0,0.0,15.793082237243652,5.142609596252441,0.7257100343704224,-2858.5791015625,0
1028.2260000000006,-0.019528090953826904,-0.0010563870891928673,-0.00040498084854334593,0.0,0.0,0.0,0.0,0.000890724768396467,0.00840061902999878,-0.004624580033123493,0.9995279908180237,0.0,0.0,0.0,15.803506851196289,5.14715051651001,0.740349531173706,-2860.466064453125,0
1038.1220000000012,-0.019513100385665894,-0.0010685606393963099,-0.00040375947719439864,0.0,0.0,0.0,0.0,0.0012079577427357435,0.0005417840438894928,-0.0006322477711364627,0.9999905824661255,0.0,0.0,0.0,15.786477088928223,5.140074729919434,0.7199891209602356,-2857.383544921875,0
1048.0040000000008,-0.019521307200193405,-0.001084198709577322,-0.00040419798460789025,0.0,0.0,0.0,0.0,0.004543136339634657,0.002623872132971883,-0.003221486695110798,0.9987506866455078,0.0,0.0,0.0,15.798344612121582,5.132361888885498,0.714250385761261,-2859.53173828125,0
1057.9000000000015,-0.019507551565766335,-0.0011010859161615372,-0.00040356008685193956,0.0,0.0,0.0,0.0,0.0021791337057948112,-0.0008994688396342099,0.0029795023147016764,0.9985151290893555,0.0,0.0,0.0,15.782325744628906,5.120797634124756,0.7056916952133179,-2856.63232421875,0
1067.773000000001,-0.019591346383094788,-0.0011013594921678305,-0.0003949808597099036,0.0,0.0,0.0,0.0,0.0035844985395669937,0.003019788069650531,2.4187485905713402e-05,0.9968832731246948,0.0,0.0,0.0,15.795178413391113,5.124839782714844,0.6969642639160156,-2858.95849609375,0
1077.675000000001,-0.019582394510507584,-0.0011187741765752435,-0.00039700997876934707,0.0,0.0,0.0,0.0,-0.000424038473283872,7.771708624204621e-05,0.0008810905274003744,0.9985427260398865,0.0,0.0,0.0,15.780050277709961,5.115861415863037,0.6905442476272583,-2856.220458984375,0
1087.549000000001,-0.01962118223309517,-0.001115847728215158,-0.0003868754138238728,0.0,0.0,0.0,0.0,-0.0005953304353170097,-0.0013104003155604005,-0.000822851259727031,1.0013872385025024,0.0,0.0,0.0,15.79311752319336,5.122249126434326,0.6869118213653564,-2858.585693359375,0
1097.4450000000015,-0.019612884148955345,-0.0011342025827616453,-0.0003893024695571512,0.0,0.0,0.0,0.0,-0.0015438077971339226,0.0008292424026876688,-0.0005207121139392257,1.000198245048523,0.0,0.0,0.0,15.77765941619873,5.116825580596924,0.6858892440795898,-2855.78759765625,0
1107.3240000000005,-0.01964099146425724,-0.0011148322373628616,-0.0003649154386948794,0.0,0.0,0.0,0.0,-0.0003864049504045397,-0.007424145471304655,-0.0034116189926862717,0.9978539347648621,0.0,0.0,0.0,15.789928436279297,5.132004737854004,0.6874520182609558,-2858.00830078125,0
1117.2230000000018,-0.01963331364095211,-0.001130785676650703,-0.0003651914594229311,0.0,0.0,0.0,0.0,0.004469058010727167,-0.00046574557200074196,-0.0003440279688220471,0.997852087020874,0.0,0.0,0.0,15.773335456848145,5.132474899291992,0.70163893699646,-2855.005126953125,0
1127.1010000000006,-0.019629783928394318,-0.0011199292493984103,-0.0003482800384517759,0.0,0.0,0.0,0.0,-0.0044053299352526665,-0.005565210245549679,-0.0009461320005357265,1.0019235610961914,0.0,0.0,0.0,15.783574104309082,5.1353840827941895,0.7077483534812927,-2856.858154296875,0
1136.9890000000014,-0.019601397216320038,-0.0010800095042213798,-0.0004525283584371209,0.0,0.0,0.0,0.0,0.0032120973337441683,0.004414164461195469,-0.00029932268080301583,1.0001906156539917,0.0,0.0,0.0,15.792661666870117,5.14518928527832,0.7169516086578369,-2858.5029296875,0
1146.8770000000004,-0.01954367384314537,-0.0010721990838646889,-0.00042072345968335867,0.0,0.0,0.0,0.0,0.001209452748298645,0.0011554418597370386,-0.00306042586453259,1.0010089874267578,0.0,0.0,0.0,15.805371284484863,5.135126113891602,0.7078188061714172,-2860.803466796875,0
1156.7660000000014,-0.019536267966032028,-0.0010873593855649233,-0.0004214924992993474,0.0,0.0,0.0,0.0,0.0016066328389570117,0.00023965364380273968,0.0018167952075600624,1.0016076564788818,0.0,0.0,0.0,15.788715362548828,5.129973411560059,0.6961112022399902,-2857.788818359375,0
1166.6510000000017,-0.019542576745152473,-0.0010585039854049683,-0.000406923471018672,0.0,0.0,0.0,0.0,-0.0017563102301210165,-0.00041960307862609625,-8.825382246868685e-05,1.0006775856018066,0.0,0.0,0.0,15.797835350036621,5.132907867431641,0.6956312656402588,-2859.439697265625,0
1176.5420000000013,-0.019536754116415977,-0.0010727187618613243,-0.00040392816299572587,0.0,0.0,0.0,0.0,0.00012809135660063475,-0.001361538772471249,0.0001186353838420473,0.9995396733283997,0.0,0.0,0.0,15.782174110412598,5.131873607635498,0.7004914879798889,-2856.60498046875,0
1186.429,-0.019569681957364082,-0.0011065196013078094,-0.0004125047707930207,0.0,0.0,0.0,0.0,0.001069436315447092,-0.00025057329912669957,-3.506866278257803e-06,1.000905156135559,0.0,0.0,0.0,15.799657821655273,5.12281608581543,0.7026954889297485,-2859.769287109375,0
1196.3100000000013,-0.019566120579838753,-0.0011250136885792017,-0.0004097941564396024,0.0,0.0,0.0,0.0,0.0036153942346572876,-0.0032874427270144224,-0.0014762801583856344,0.9991350769996643,0.0,0.0,0.0,15.784477233886719,5.11706018447876,0.697425901889801,-2857.021728515625,0
1206.1970000000001,-0.01950671523809433,-0.0011480773100629449,-0.00041006028186529875,0.0,0.0,0.0,0.0,0.00042569858487695456,-0.00424130680039525,0.0025042234919965267,1.000793695449829,0.0,0.0,0.0,15.798943519592285,5.101675987243652,0.7108004689216614,-2859.64013671875,0
1216.0920000000006,-0.019497407600283623,-0.0011718575842678547,-0.00040709658060222864,0.0,0.0,0.0,0.0,0.0016133779427036643,0.0006091026007197797,-0.0002990989596582949,1.0013115406036377,0.0,0.0,0.0,15.783183097839355,5.0919508934021,0.7181200981140137,-2856.787353515625,0
1225.9720000000016,-0.01953761838376522,-0.0011673304252326488,-0.0003922661708202213,0.0,0.0,0.0,0.0,-0.0013892309507355094,0.0006194944144226611,-0.0017570311902090907,0.9992545247077942,0.0,0.0,0.0,15.797361373901367,5.093273639678955,0.7159278392791748,-2859.353759765625,0
1235.8600000000006,-0.019526110962033272,-0.0011930868495255709,-0.00038706345367245376,0.0,0.0,0.0,0.0,-0.0007310914807021618,-0.0037985516246408224,0.002688011387363076,1.000670075416565,0.0,0.0,0.0,15.780606269836426,5.09316873550415,0.7127700448036194,-2856.321044921875,0
1245.746000000001,-0.01956833153963089,-0.0011996820103377104,-0.00037269716267473996,0.0,0.0,0.0,0.0,-0.001083803828805685,2.9047072530374862e-05,0.0007484368979930878,1.0004974603652954,0.0,0.0,0.0,15.79365062713623,5.100306987762451,0.7184883952140808,-2858.68212890625,0
1255.6350000000002,-0.019556652754545212,-0.0012260903604328632,-0.00036609897506423295,0.0,0.0,0.0,0.0,0.0036824580747634172,-0.0024856082163751125,0.002449516672641039,0.9986276626586914,0.0,0.0,0.0,15.777754783630371,5.0992655754089355,0.7153671979904175,-2855.804931640625,0
1265.5240000000013,-0.019642319530248642,-0.0012081670574843884,-0.000333353818859905,0.0,0.0,0.0,0.0,-0.0011531398631632328,0.0007685348973609507,-0.0002851957979146391,0.9995611906051636,0.0,0.0,0.0,15.794435501098633,5.108731269836426,0.7109570503234863,-2858.82421875,0
1275.416000000001,-0.019632142037153244,-0.0012340592220425606,-0.00032561778789386153,0.0,0.0,0.0,0.0,-0.0013978382339701056,0.002649084897711873,0.0035626471508294344,1.000869631767273,0.0,0.0,0.0,15.778264999389648,5.106325149536133,0.7060794830322266,-2855.8974609375,0
1285.2920000000013,-0.01965823769569397,-0.0012173540890216827,-0.0002896118676289916,0.0,0.0,0.0,0.0,-0.00018577591981738806,-0.0018381302943453193,-0.00012900526053272188,1.001395344734192,0.0,0.0,0.0,15.793170928955078,5.127633094787598,0.7056012749671936,-2858.59521484375,0
1295.183000000001,-0.01964973285794258,-0.0012438831618055701,-0.0002779028727672994,0.0,0.0,0.0,0.0,0.0008631859091110528,-0.0052733635529875755,0.0017042476683855057,0.9980093836784363,0.0,0.0,0.0,15.777510643005371,5.126110553741455,0.7145484685897827,-2855.7607421875,0
1305.0720000000001,-0.019701380282640457,-0.0012463191524147987,-0.0002516726963222027,0.0,0.0,0.0,0.0,0.00016547356790397316,0.003448415780439973,0.0002678883320186287,0.9998931884765625,0.0,0.0,0.0,15.794977188110352,5.135049819946289,0.7291271090507507,-2858.922119140625,0
1314.9580000000005,-0.019693346694111824,-0.001273185247555375,-0.00023978971876204014,0.0,0.0,0.0,0.0,-0.0029650197830051184,-0.002877494553104043,0.0010427896631881595,1.000746488571167,0.0,0.0,0.0,15.778883934020996,5.13686466217041,0.7218010425567627,-2856.00927734375,0
1324.8510000000006,-0.019649600610136986,-0.0012506968341767788,-0.00019651440379675478,0.0,0.0,0.0,0.0,0.00048265219083987176,0.0026282474864274263,-0.0032343892380595207,0.9989321231842041,0.0,0.0,0.0,15.790857315063477,5.156210422515869,0.7412939071655273,-2858.176513671875,0
1334.7290000000012,-0.019588734954595566,-0.0011392866726964712,-0.0004872105782851577,0.0,0.0,0.0,0.0,0.001473596435971558,-0.004693446680903435,-0.005580826662480831,0.9993162155151367,0.0,0.0,0.0,15.798111915588379,5.170700550079346,0.74238121509552,-2859.489501953125,0
1344.6160000000018,-0.01963123120367527,-0.001086116535589099,-0.000464528682641685,0.0,0.0,0.0,0.0,0.0017470117891207337,-0.005360552575439215,-0.005458059720695019,1.0001213550567627,0.0,0.0,0.0,15.812050819396973,5.174635410308838,0.7550144195556641,-2862.0126953125,0
1354.5080000000016,-0.019620537757873535,-0.0011078957468271255,-0.00046137807657942176,0.0,0.0,0.0,0.0,-0.001070448779501021,0.0021183404605835676,-0.0018655144376680255,0.9989760518074036,0.0,0.0,0.0,15.795737266540527,5.170350074768066,0.7706964015960693,-2859.059814453125,0
1364.3910000000014,-0.019623329862952232,-0.0010730881476774812,-0.0004359392332844436,0.0,0.0,0.0,0.0,0.0015768531011417508,-0.005278708413243294,0.0021302332170307636,1.0010284185409546,0.0,0.0,0.0,15.807339668273926,5.176514148712158,0.7722312808036804,-2861.15966796875,0
1374.2780000000002,-0.01963554322719574,-0.0011544874869287014,-0.0003567950625438243,0.0,0.0,0.0,0.0,-0.0038465121760964394,0.003472627606242895,-0.0009106492507271469,1.0000362396240234,0.0,0.0,0.0,15.816024780273438,5.156680107116699,0.7829861044883728,-2862.732177734375,0
1384.161,-0.01959480345249176,-0.0011596201220527291,-0.0003289255255367607,0.0,0.0,0.0,0.0,-0.000601534266024828,-0.002754543675109744,-0.0013967001577839255,1.0010257959365845,0.0,0.0,0.0,15.826957702636719,5.153339862823486,0.7816216945648193,-2864.7109375,0
1394.0600000000013,-0.019573209807276726,-0.0011874642223119736,-0.00031861106981523335,0.0,0.0,0.0,0.0,0.0027608226519078016,0.0007318152929656208,-7.592629845021293e-05,1.0004736185073853,0.0,0.0,0.0,15.81070327758789,5.151235103607178,0.7826258540153503,-2861.768798828125,0
1403.9370000000017,-0.019571049138903618,-0.0011311512207612395,-0.0002819745277520269,0.0,0.0,0.0,0.0,0.0012419901322573423,0.0013499935157597065,0.0020683244802057743,0.999352753162384,0.0,0.0,0.0,15.820904731750488,5.153990745544434,0.7775939106941223,-2863.615478515625,0
1413.8210000000017,-0.019513439387083054,-0.0011137984693050385,-0.0003367895551491529,0.0,0.0,0.0,0.0,-0.003036763519048691,-0.00021857302635908127,-0.002743102377280593,0.9992755055427551,0.0,0.0,0.0,15.827827453613281,5.1487717628479,0.7796881198883057,-2864.868408203125,0
1423.7060000000001,-0.019526375457644463,-0.0010811625979840755,-0.0003211378934793174,0.0,0.0,0.0,0.0,0.00062191067263484,-0.0012209982378408313,-0.001885709585621953,0.9996329545974731,0.0,0.0,0.0,15.83252239227295,5.157347202301025,0.776491641998291,-2865.718017578125,0
1433.5970000000016,-0.019506631419062614,-0.00110828026663512,-0.00031185807893052697,0.0,0.0,0.0,0.0,0.0014110308839008212,-0.003285091370344162,-0.00029841356445103884,0.9987581372261047,0.0,0.0,0.0,15.815889358520508,5.148311138153076,0.7758533954620361,-2862.70751953125,0
1443.4810000000016,-0.019519619643688202,-0.0011080962140113115,-0.0002998862764798105,0.0,0.0,0.0,0.0,-0.0014656786806881428,0.000608098809607327,-6.113301787991077e-05,1.001021146774292,0.0,0.0,0.0,15.826751708984375,5.14394998550415,0.783036470413208,-2864.673583984375,0
1453.380000000001,-0.01950138993561268,-0.001136869192123413,-0.0002908712485805154,0.0,0.0,0.0,0.0,0.0005145218456164002,-0.0016071329591795802,0.0020624001044780016,1.0021394491195679,0.0,0.0,0.0,15.811182022094727,5.141142845153809,0.7828459143638611,-2861.855712890625,0
1463.2580000000016,-0.019519461318850517,-0.0011334316805005074,-0.0002720874617807567,0.0,0.0,0.0,0.0,0.0024033114314079285,-0.0003808688197750598,0.0006018195999786258,1.0001742839813232,0.0,0.0,0.0,15.82040786743164,5.144303798675537,0.7815107107162476,-2863.525390625,0
1473.143,-0.019503189250826836,-0.0011638114228844643,-0.0002594533725641668,0.0,0.0,0.0,0.0,-0.0005816672346554697,-0.0006604912923648953,-0.0019669760949909687,1.0007472038269043,0.0,0.0,0.0,15.804664611816406,5.137150764465332,0.7762793898582458,-2860.675537109375,0
1483.0290000000005,-0.019535744562745094,-0.001168039278127253,-0.0002383323444519192,0.0,0.0,0.0,0.0,0.0004997925134375691,-0.007903962396085262,0.0010093824239447713,1.0015078783035278,0.0,0.0,0.0,15.81389045715332,5.143168926239014,0.7714882493019104,-2862.345703125,0
1492.9280000000017,-0.01951933465898037,-0.0011994973756372929,-0.00022269718465395272,0.0,0.0,0.0,0.0,7.82407951191999e-05,0.003313198685646057,-0.001288867206312716,1.0016018152236938,0.0,0.0,0.0,15.79842472076416,5.135356426239014,0.7860102653503418,-2859.546142578125,0
1502.8010000000013,-0.019575737416744232,-0.0012405235320329666,-0.00021087433560751379,0.0,0.0,0.0,0.0,0.0022454531863331795,0.00039684123476035893,0.0017038622172549367,0.9984689354896545,0.0,0.0,0.0,15.812585830688477,5.130446434020996,0.7719937562942505,-2862.109619140625,0
1512.688,-0.019504794850945473,-0.0011761677451431751,-0.00036151811946183443,0.0,0.0,0.0,0.0,-0.0004821996553801,0.003243766026571393,0.00040565014933235943,1.000120759010315,0.0,0.0,0.0,15.827613830566406,5.1349639892578125,0.7900369167327881,-2864.82958984375,0
1522.5800000000017,-0.019621938467025757,-0.001115343882702291,-0.00036662654019892216,0.0,0.0,0.0,0.0,-0.00024125078925862908,-0.0024595288559794426,0.001101321424357593,0.9991973042488098,0.0,0.0,0.0,15.838838577270508,5.148951530456543,0.7777647972106934,-2866.861328125,0
1532.4630000000016,-0.01960703730583191,-0.0011440111557021737,-0.00036023790016770363,0.0,0.0,0.0,0.0,0.0017769463593140244,-0.0008312816498801112,0.0009594890289008617,0.9979472756385803,0.0,0.0,0.0,15.823771476745605,5.145693302154541,0.7802590727806091,-2864.13427734375,0
1542.3480000000018,-0.0196063295006752,-0.0011588982306420803,-0.0003543630591593683,0.0,0.0,0.0,0.0,-0.0015011741779744625,0.0025582234375178814,0.001890067826025188,1.0002129077911377,0.0,0.0,0.0,15.834288597106934,5.135125160217285,0.7796034812927246,-2866.037841796875,0
1552.2390000000014,-0.01959005557000637,-0.0011879083467647433,-0.00034967955434694886,0.0,0.0,0.0,0.0,-0.0009328225278295577,0.0007512546726502478,0.0022934896405786276,1.0011075735092163,0.0,0.0,0.0,15.818046569824219,5.130212783813477,0.7723756432533264,-2863.097900390625,0
1562.1260000000002,-0.019635139033198357,-0.0011782634537667036,-0.00033236239687539637,0.0,0.0,0.0,0.0,4.11959808843676e-05,-0.0006519238231703639,0.0008609951473772526,0.9995384812355042,0.0,0.0,0.0,15.83133602142334,5.135203838348389,0.7580309510231018,-2865.50341796875,0
1572.0100000000002,-0.01962369866669178,-0.0012058995198458433,-0.00032589564216323197,0.0,0.0,0.0,0.0,0.0016079474007710814,-0.0035573963541537523,-0.0018439373234286904,0.998881995677948,0.0,0.0,0.0,15.816267013549805,5.132098197937012,0.7489861249923706,-2862.776123046875,0
1581.902,-0.019559279084205627,-0.0011781540233641863,-0.00029556770459748805,0.0,0.0,0.0,0.0,0.0018177804304286838,0.006950105540454388,0.00018264002574142069,1.0018402338027954,0.0,0.0,0.0,15.826069831848145,5.137173175811768,0.7648433446884155,-2864.55029296875,0
1591.7840000000015,-0.019546309486031532,-0.0012048226781189442,-0.0002868031442631036,0.0,0.0,0.0,0.0,0.0005250718677416444,0.0011020081583410501,-0.001532516092993319,1.001359462738037,0.0,0.0,0.0,15.810937881469727,5.132209777832031,0.746031641960144,-2861.8115234375,0
1601.6720000000005,-0.019553814083337784,-0.0011773467995226383,-0.00024864665465429425,0.0,0.0,0.0,0.0,0.0007194442441686988,-0.0021300597582012415,0.0017185548786073923,0.9994593858718872,0.0,0.0,0.0,15.8177490234375,5.151018142700195,0.7363318800926208,-2863.044189453125,0
1611.5560000000005,-0.01949171908199787,-0.001083887880668044,-0.00039490891504101455,0.0,0.0,0.0,0.0,5.0946073315571994e-05,0.003156228456646204,-0.001524825464002788,0.9978593587875366,0.0,0.0,0.0,15.834228515625,5.160560131072998,0.7521619200706482,-2866.02685546875,0
1621.4410000000007,-0.019518790766596794,-0.001058202120475471,-0.0003933490952476859,0.0,0.0,0.0,0.0,0.0019035477889701724,0.00031262708944268525,-0.00010694463708205149,0.9992086291313171,0.0,0.0,0.0,15.84248161315918,5.163919925689697,0.7467775940895081,-2867.520751953125,0
1631.3300000000017,-0.01950709894299507,-0.0010884072398766875,-0.0003785011940635741,0.0,0.0,0.0,0.0,-0.0014798654010519385,-0.0012037731939926744,-0.0006061961175873876,0.9996490478515625,0.0,0.0,0.0,15.847532272338867,5.151484489440918,0.7578020691871643,-2868.434814453125,0
1641.2230000000018,-0.01962009258568287,-0.001062850933521986,-0.00040219162474386394,0.0,0.0,0.0,0.0,-0.0007274207309819758,-0.0027430423069745302,-0.0012819148832932115,1.0007035732269287,0.0,0.0,0.0,15.861209869384766,5.15736722946167,0.7495889067649841,-2870.910400390625,0
1651.1070000000018,-0.019609834998846054,-0.0010872515849769115,-0.0004001929482910782,0.0,0.0,0.0,0.0,0.002281212480738759,-0.005119900684803724,-0.0010316927218809724,1.0035067796707153,0.0,0.0,0.0,15.845595359802246,5.156885623931885,0.7576786279678345,-2868.084228515625,0
1660.996000000001,-0.01963082142174244,-0.0010884125949814916,-0.0003933885018341243,0.0,0.0,0.0,0.0,-0.000458202266599983,-0.002852398669347167,0.0010883669601753354,1.0015844106674194,0.0,0.0,0.0,15.854326248168945,5.154064655303955,0.7715243697166443,-2869.66455078125,0
1670.8790000000008,-0.019620312377810478,-0.001117101521231234,-0.00038633967051282525,0.0,0.0,0.0,0.0,0.0009742092806845903,0.003969062119722366,-0.0013238968094810843,0.9994564056396484,0.0,0.0,0.0,15.838379859924316,5.149533748626709,0.7799447774887085,-2866.7783203125,0
1680.7620000000006,-0.019560201093554497,-0.0010986874112859368,-0.000362978782504797,0.0,0.0,0.0,0.0,-8.461537800030783e-05,0.0010368962539359927,-0.0015730902086943388,0.998257577419281,0.0,0.0,0.0,15.845962524414062,5.148995876312256,0.7820574045181274,-2868.150634765625,0
1690.6510000000017,-0.0195452980697155,-0.0011316824238747358,-0.0003549249959178269,0.0,0.0,0.0,0.0,0.0011769459815695882,0.005317247472703457,0.0021112330723553896,0.998184859752655,0.0,0.0,0.0,15.829445838928223,5.142356872558594,0.7805547714233398,-2865.1611328125,0
1700.5400000000009,-0.01953398808836937,-0.0011300236219540238,-0.0003376393287908286,0.0,0.0,0.0,0.0,0.002572364639490843,0.002801964757964015,0.004367990884929895,1.0012390613555908,0.0,0.0,0.0,15.837324142456055,5.145448207855225,0.7652771472930908,-2866.587158203125,0
1710.4310000000005,-0.019517013803124428,-0.0011627012863755226,-0.00033012943458743393,0.0,0.0,0.0,0.0,-0.0024989088997244835,-0.0013065357925370336,0.00165509560611099,1.0005881786346436,0.0,0.0,0.0,15.822598457336426,5.1348161697387695,0.7495949268341064,-2863.921875,0
1720.3120000000017,-0.019632786512374878,-0.001149019575677812,-0.0003063638287130743,0.0,0.0,0.0,0.0,-0.0030744425021111965,0.00040602550143375993,-0.002714394126087427,1.001311182975769,0.0,0.0,0.0,15.835172653198242,5.1508402824401855,0.7332711219787598,-2866.19775390625,0
1730.1960000000017,-0.019619908183813095,-0.0011790537973865867,-0.00029580152477137744,0.0,0.0,0.0,0.0,0.00424508610740304,0.001708194729872048,-0.0013909777626395226,0.9984570741653442,0.0,0.0,0.0,15.818611145019531,5.15265417098999,0.7194750905036926,-2863.2001953125,0
1740.085000000001,-0.01963084191083908,-0.001177157973870635,-0.000271030847216025,0.0,0.0,0.0,0.0,-0.0010890953708440065,-0.004108580760657787,-0.0049329944886267185,1.0014526844024658,0.0,0.0,0.0,15.830094337463379,5.154087066650391,0.7114600539207458,-2865.278564453125,0
1749.9700000000012,-0.01961839571595192,-0.001209408976137638,-0.0002592614328023046,0.0,0.0,0.0,0.0,-0.0012803968274965882,0.0012895689578726888,0.0023508979938924313,1.0018656253814697,0.0,0.0,0.0,15.813862800598145,5.152145862579346,0.720238983631134,-2862.3408203125,0
1759.8610000000008,-0.019664138555526733,-0.0012014785315841436,-0.00022727133182343096,0.0,0.0,0.0,0.0,0.0008175813709385693,-0.0038074487820267677,0.00247493339702487,1.0012993812561035,0.0,0.0,0.0,15.828680992126465,5.169538497924805,0.7147493362426758,-2865.02294921875,0
1769.7480000000014,-0.019654614850878716,-0.0012326042633503675,-0.00021074542019050568,0.0,0.0,0.0,0.0,-0.0014930058969184756,0.004877268336713314,0.0004239590198267251,1.0005730390548706,0.0,0.0,0.0,15.813664436340332,5.162304878234863,0.7141855955123901,-2862.304931640625,0
1779.6420000000016,-0.019571315497159958,-0.0012347095180302858,-0.0001768535003066063,0.0,0.0,0.0,0.0,0.00265247724018991,-0.004321609158068895,-0.003320410382002592,1.000924825668335,0.0,0.0,0.0,15.823596954345703,5.169452667236328,0.7141252160072327,-2864.102783203125,0
1789.523000000001,-0.019557064399123192,-0.0012631569989025593,-0.00015719683142378926,0.0,0.0,0.0,0.0,-0.0007479093037545681,4.213229476590641e-05,-0.0009820138802751899,1.0005769729614258,0.0,0.0,0.0,15.806991577148438,5.159491539001465,0.7086772918701172,-2861.096923828125,0
1799.4040000000005,-0.019623059779405594,-0.0012588525423780084,-0.00011915538925677538,0.0,0.0,0.0,0.0,0.0009111904073506594,-0.0038006091490387917,-0.00016202148981392384,1.0026055574417114,0.0,0.0,0.0,15.820382118225098,5.177121639251709,0.6965133547782898,-2863.52099609375,0
1809.304,-0.019609173759818077,-0.001287063816562295,-9.562063496559858e-05,0.0,0.0,0.0,0.0,-0.0002346874971408397,0.001866539241746068,0.0012482204474508762,1.0006463527679443,0.0,0.0,0.0,15.805699348449707,5.170975208282471,0.703942060470581,-2860.86279296875,0
1819.1870000000017,-0.019677501171827316,-0.0012663545785471797,-4.8590511141810566e-05,0.0,0.0,0.0,0.0,3.129128162981942e-05,0.002143146703019738,0.0008922403212636709,0.9999843239784241,0.0,0.0,0.0,15.819043159484863,5.188289165496826,0.7009462118148804,-2863.2783203125,0
1829.0650000000005,-0.019663020968437195,-0.0012901605805382133,-2.0961662812624127e-05,0.0,0.0,0.0,0.0,-0.0013700431445613503,-0.006286288145929575,0.0003524849598761648,1.000772476196289,0.0,0.0,0.0,15.803272247314453,5.188055038452148,0.7023730278015137,-2860.423583984375,0
1838.9570000000003,-0.019665632396936417,-0.0012684366665780544,2.5613411708036438e-05,0.0,0.0,0.0,0.0,8.39573476696387e-05,0.002916706260293722,-0.0028542291838675737,0.9992597103118896,0.0,0.0,0.0,15.818967819213867,5.2059645652771,0.7242550253868103,-2863.2646484375,0
1848.8460000000014,-0.01965162716805935,-0.0012907221680507064,5.553942537517287e-05,0.0,0.0,0.0,0.0,-0.001988337142392993,-0.003358740359544754,-0.0009895490948110819,1.001237392425537,0.0,0.0,0.0,15.803122520446777,5.202395915985107,0.7198739647865295,-2860.396728515625,0
1858.728000000001,-0.019702991470694542,-0.0012780949473381042,9.601675265002996e-05,0.0,0.0,0.0,0.0,-0.003445225302129984,-0.0033396484795957804,0.00247111264616251,1.0000815391540527,0.0,0.0,0.0,15.814301490783691,5.217599868774414,0.722260057926178,-2862.420166015625,0
1868.6170000000002,-0.019691839814186096,-0.0013019557809457183,0.00012807328312192112,0.0,0.0,0.0,0.0,-0.0019811317324638367,-0.004484805278480053,0.0014653487596660852,0.9998772740364075,0.0,0.0,0.0,15.798646926879883,5.219581127166748,0.7255380749702454,-2859.586669921875,0
1878.5,-0.01960977539420128,-0.0012930858647450805,0.00017986433522310108,0.0,0.0,0.0,0.0,-0.004434754140675068,0.0034315104130655527,0.0013493747683241963,1.0002577304840088,0.0,0.0,0.0,15.808656692504883,5.228023052215576,0.7541714906692505,-2861.398681640625,0
1888.4010000000017,-0.019596192985773087,-0.0013209672179073095,0.00021414189541246742,0.0,0.0,0.0,0.0,-0.0011067158775404096,-0.0022948409896343946,-0.002846597461029887,0.9981203079223633,0.0,0.0,0.0,15.792527198791504,5.223588943481445,0.7513386607170105,-2858.478759765625,0
1898.2690000000002,-0.01958560198545456,-0.0013325614854693413,0.0002554008678998798,0.0,0.0,0.0,0.0,-0.0005285362713038921,0.005550220608711243,0.0003020469448529184,0.9995611310005188,0.0,0.0,0.0,15.805055618286133,5.221614837646484,0.7635710835456848,-2860.746337890625,0
1908.1650000000009,-0.019573399797081947,-0.0013624144485220313,0.00028901445330120623,0.0,0.0,0.0,0.0,-0.0011450661113485694,-0.0022198359947651625,0.0008227645885199308,0.9994886517524719,0.0,0.0,0.0,15.789931297302246,5.215621471405029,0.7558653950691223,-2858.0087890625,0
1918.0380000000005,-0.019587738439440727,-0.0013649225002154708,0.000334211130393669,0.0,0.0,0.0,0.0,0.0004561213427223265,0.0017272192053496838,-0.00011163271847181022,0.9992932081222534,0.0,0.0,0.0,15.80347728729248,5.225857734680176,0.7552865147590637,-2860.460693359375,0
1927.938,-0.01957583799958229,-0.001392341568134725,0.0003681954985950142,0.0,0.0,0.0,0.0,0.0002787048870231956,-0.007239216472953558,-0.0003635734901763499,1.0004395246505737,0.0,0.0,0.0,15.788479804992676,5.220993995666504,0.7521690726280212,-2857.746337890625,0
1937.8180000000011,-0.019569087773561478,-0.0014134806115180254,0.00040703429840505123,0.0,0.0,0.0,0.0,-0.0015315235359594226,-0.0033273627050220966,-0.0014231727691367269,0.9985063672065735,0.0,0.0,0.0,15.799517631530762,5.219002723693848,0.76906418800354,-2859.743896484375,0
1947.7150000000001,-0.019559742882847786,-0.00143894599750638,0.000441014242824167,0.0,0.0,0.0,0.0,-0.00026472893659956753,-0.0025463728234171867,-0.0005370803992263973,0.9988076686859131,0.0,0.0,0.0,15.78390884399414,5.218217849731445,0.7715709805488586,-2856.918701171875,0
1957.594000000001,-0.019569681957364082,-0.0014467336004599929,0.0004778331785928458,0.0,0.0,0.0,0.0,-0.0011780373752117157,-0.0020999417174607515,0.0005205379566177726,0.9973447918891907,0.0,0.0,0.0,15.794769287109375,5.223860263824463,0.7758248448371887,-2858.884521484375,0
1967.4910000000018,-0.01956288330256939,-0.001469782437197864,0.0005092152860015631,0.0,0.0,0.0,0.0,-0.00013985674013383687,0.0024514771066606045,0.0009486555936746299,0.996555507183075,0.0,0.0,0.0,15.778837203979492,5.225171089172363,0.7875922918319702,-2856.0009765625,0
1977.3590000000004,-0.01957596093416214,-0.0014754581497982144,0.0005413382314145565,0.0,0.0,0.0,0.0,0.000293585064355284,-0.002827951218932867,-0.0016720088897272944,1.0017142295837402,0.0,0.0,0.0,15.792250633239746,5.226052284240723,0.7884728908538818,-2858.4287109375,0
1987.264000000001,-0.019571145996451378,-0.0015009312191978097,0.0005699449684470892,0.0,0.0,0.0,0.0,-0.0020070630125701427,-0.0013602444669231772,0.001243029604665935,0.9998258948326111,0.0,0.0,0.0,15.776359558105469,5.219448089599609,0.7958903312683105,-2855.552490234375,0
1997.1320000000014,-0.01961311511695385,-0.001487476984038949,0.0006005335017107427,0.0,0.0,0.0,0.0,-0.0011825686087831855,0.0022158410865813494,0.0018061138689517975,0.9985836148262024,0.0,0.0,0.0,15.793067932128906,5.231805324554443,0.7992823123931885,-2858.57666015625,0
2007.0260000000017,-0.019609231501817703,-0.0015112003311514854,0.0006301712710410357,0.0,0.0,0.0,0.0,-0.0019457676680758595,-0.003977973945438862,0.00026497614453546703,0.9985430836677551,0.0,0.0,0.0,15.77822494506836,5.22786808013916,0.7900664806365967,-2855.89013671875,0
2016.907000000001,-0.01969299279153347,-0.0015003891894593835,0.000647242646664381,0.0,0.0,0.0,0.0,0.0027379747480154037,0.0038889325223863125,-0.0014317333698272705,0.9996322393417358,0.0,0.0,0.0,15.795351028442383,5.243901252746582,0.7790412306785583,-2858.989990234375,0
2026.8110000000015,-0.01969148777425289,-0.0015239131171256304,0.0006751833134330809,0.0,0.0,0.0,0.0,-0.0014740044716745615,-0.001468939590267837,-0.0027955390978604555,0.9986034035682678,0.0,0.0,0.0,15.77942180633545,5.233215808868408,0.7722922563552856,-2856.106689453125,0
2036.6890000000003,-0.01973794773221016,-0.0014862366952002048,0.000691755092702806,0.0,0.0,0.0,0.0,0.0025802929885685444,0.001255059614777565,-0.00030372204491868615,0.9986631274223328,0.0,0.0,0.0,15.794657707214355,5.254471778869629,0.7715500593185425,-2858.864501953125,0
2046.5740000000005,-0.019737528637051582,-0.0015079386066645384,0.0007194581557996571,0.0,0.0,0.0,0.0,0.0005732852732762694,0.0011671518441289663,0.00037816487019881606,1.0008735656738281,0.0,0.0,0.0,15.778246879577637,5.245486259460449,0.7654877305030823,-2855.89404296875,0
2056.4530000000013,-0.01973244734108448,-0.0015105053316801786,0.0007340939482674003,0.0,0.0,0.0,0.0,0.0007993819308467209,-0.0013449350371956825,-0.0008396878838539124,1.0006732940673828,0.0,0.0,0.0,15.795127868652344,5.243340492248535,0.75946444272995,-2858.949462890625,0
2066.3470000000016,-0.019731011241674423,-0.0015328458976000547,0.0007625996950082481,0.0,0.0,0.0,0.0,0.001171549898572266,-0.0019726213067770004,0.0022127635311335325,1.0005991458892822,0.0,0.0,0.0,15.778912544250488,5.2351837158203125,0.7614607214927673,-2856.0146484375,0
2076.2350000000006,-0.019739829003810883,-0.0015217481413856149,0.0007684119627811015,0.0,0.0,0.0,0.0,-0.0027684757951647043,-0.00836652610450983,-0.0011739247711375356,0.9990019202232361,0.0,0.0,0.0,15.794631004333496,5.236879348754883,0.7650116086006165,-2858.859619140625,0
2086.1330000000016,-0.019737867638468742,-0.0015447394689545035,0.0007977368659339845,0.0,0.0,0.0,0.0,0.0012829084880650043,0.0029052456375211477,0.0009148630779236555,0.9989648461341858,0.0,0.0,0.0,15.777877807617188,5.23708438873291,0.7759273648262024,-2855.8271484375,0
2096.0210000000006,-0.01970204897224903,-0.001550376764498651,0.0008111990173347294,0.0,0.0,0.0,0.0,0.0013500251807272434,-0.001386754447594285,0.0015590779948979616,0.9993217587471008,0.0,0.0,0.0,15.790701866149902,5.232268333435059,0.7806816697120667,-2858.148193359375,0
2105.8960000000006,-0.019695304334163666,-0.0015741742681711912,0.0008391162846237421,0.0,0.0,0.0,0.0,0.00180551887024194,-9.53162889345549e-05,-0.0002722543431445956,1.0010950565338135,0.0,0.0,0.0,15.775680541992188,5.224847316741943,0.7870168089866638,-2855.429443359375,0
2115.7830000000013,-0.019669976085424423,-0.0015542187029495835,0.0008529772749170661,0.0,0.0,0.0,0.0,0.0037008782383054495,0.0012835016241297126,0.0028321524150669575,1.0023571252822876,0.0,0.0,0.0,15.790887832641602,5.230024814605713,0.7998538017272949,-2858.181884765625,0
2125.6690000000017,-0.01965862512588501,-0.00157430290710181,0.0008841243106871843,0.0,0.0,0.0,0.0,-0.0022141861263662577,-0.0003678241919260472,0.0035589588806033134,0.9996042847633362,0.0,0.0,0.0,15.775447845458984,5.217798709869385,0.7967407703399658,-2855.38720703125,0
