timestamp,stateEstimate.x,stateEstimate.y,stateEstimate.z,controller.cmd_thrust,controller.cmd_roll,controller.cmd_pitch,controller.cmd_yaw,controller.r_roll,controller.r_pitch,controller.r_yaw,controller.accelz,controller.actuatorThrust,controller.roll,controller.pitch,controller.yaw,controller.rollRate,controller.pitchRate,controller.yawRate,controller.ctr_yaw
0.0,-0.009142324328422546,-0.01669430360198021,0.00018425278540235013,0.0,0.0,0.0,0.0,-0.0032435767352581024,-0.007321983575820923,0.001361844944767654,0.9997051954269409,0.0,0.0,0.0,-1.3142772912979126,5.975001811981201,0.9056317210197449,237.8867950439453,0
9.8799999999992,-0.009123657830059528,-0.016660595312714577,0.00024545195628888905,0.0,0.0,0.0,0.0,0.0023974054493010044,0.0018239455530419946,-0.00020115741062909365,0.999193012714386,0.0,0.0,0.0,-1.311889410018921,5.974531650543213,0.9233113527297974,237.45460510253906,0
19.77799999999843,-0.009025495499372482,-0.016559559851884842,0.00014990348427090794,0.0,0.0,0.0,0.0,0.0016801011515781283,-0.005540244281291962,0.0033793579787015915,0.9985561966896057,0.0,0.0,0.0,-1.3099335432052612,5.962159633636475,0.9170684814453125,237.1005859375,0
29.65299999999843,-0.009122243151068687,-0.01661091111600399,0.00012296099157538265,0.0,0.0,0.0,0.0,-0.0018423822475597262,-0.003435369348153472,0.00043752690544351935,0.9984159469604492,0.0,0.0,0.0,-1.3074820041656494,5.956138610839844,0.9293802380561829,236.65684509277344,0
39.55400000000009,-0.009103772230446339,-0.016596095636487007,9.401855641044676e-05,0.0,0.0,0.0,0.0,-0.0023006554692983627,-0.005759534891694784,0.0009622557554394007,1.0000730752944946,0.0,0.0,0.0,-1.299625039100647,5.969706058502197,0.940532922744751,235.23471069335938,0
49.425999999999476,-0.009120265953242779,-0.016651082783937454,8.859217632561922e-05,0.0,0.0,0.0,0.0,-0.000977418851107359,0.0012038329150527716,0.0029562872368842363,0.9989424347877502,0.0,0.0,0.0,-1.2977287769317627,5.967533588409424,0.9568957686424255,234.89149475097656,0
59.31999999999971,-0.009106574580073357,-0.016626300290226936,6.0392449086066335e-05,0.0,0.0,0.0,0.0,0.0030941239092499018,-0.0031976529862731695,0.0021553682163357735,0.9995652437210083,0.0,0.0,0.0,-1.2954769134521484,5.963626861572266,0.9595308303833008,234.48388671875,0
69.19999999999891,-0.009123126044869423,-0.016682853922247887,5.272018461255357e-05,0.0,0.0,0.0,0.0,0.00024150896933861077,0.005609231535345316,-0.0006648162379860878,1.0019149780273438,0.0,0.0,0.0,-1.2933398485183716,5.953708648681641,0.9644437432289124,234.09710693359375,0
79.09399999999914,-0.009091430343687534,-0.016639593988656998,5.940068149357103e-06,0.0,0.0,0.0,0.0,-0.001115713850595057,0.0020497944205999374,-0.002983312588185072,0.99967360496521,0.0,0.0,0.0,-1.2919634580612183,5.948494911193848,0.9605756998062134,233.8479461669922,0
88.97899999999936,-0.009140628390014172,-0.016641957685351372,-9.264376785722561e-06,0.0,0.0,0.0,0.0,0.002265520393848419,-0.002686326391994953,0.0011078470852226019,0.998065173625946,0.0,0.0,0.0,-1.2901585102081299,5.947787761688232,0.9673979878425598,233.52125549316406,0
98.87699999999859,-0.009135428816080093,-0.01665879599750042,-3.4874534321716055e-05,0.0,0.0,0.0,0.0,-0.0013521885266527534,-0.0021804049611091614,-0.00391644099727273,0.9984025955200195,0.0,0.0,0.0,-1.2877548933029175,5.9419426918029785,0.9776850938796997,233.08621215820312,0
108.7489999999998,-0.009151616133749485,-0.01664871908724308,-2.7336738639860414e-05,0.0,0.0,0.0,0.0,0.00167707575019449,-0.00027666878304444253,0.0018560289172455668,1.0003821849822998,0.0,0.0,0.0,-1.2873660326004028,5.9415283203125,0.9801695346832275,233.0158233642578,0
118.64099999999962,-0.009135900065302849,-0.016614731401205063,-5.348325430531986e-05,0.0,0.0,0.0,0.0,-0.0011426274431869388,0.0037069881800562143,0.00034658785443753004,0.9979386925697327,0.0,0.0,0.0,-1.2848122119903564,5.932526111602783,0.9798319339752197,232.55355834960938,0
128.52299999999923,-0.009137000888586044,-0.01662064529955387,-4.975086631020531e-05,0.0,0.0,0.0,0.0,-0.0007989393197931349,-0.00021200854098424315,-0.0007097924826666713,1.0003849267959595,0.0,0.0,0.0,-1.2833776473999023,5.928360939025879,0.9767367243766785,232.2938995361328,0
138.42199999999866,-0.00912527646869421,-0.016600675880908966,-7.471238495782018e-05,0.0,0.0,0.0,0.0,-0.00351786520332098,-0.0021659070625901222,-0.003275748807936907,0.9984127283096313,0.0,0.0,0.0,-1.2820932865142822,5.923786163330078,0.9795448780059814,232.0614471435547,0
148.29599999999846,-0.009114562533795834,-0.016546431928873062,-4.635838922695257e-05,0.0,0.0,0.0,0.0,0.0007834770367480814,-0.0014281737385317683,0.0021417965181171894,0.9994919300079346,0.0,0.0,0.0,-1.2893341779708862,5.937820911407471,0.9777728319168091,233.37205505371094,0
158.1880000000001,-0.009156279265880585,-0.016567062586545944,-8.942926797317341e-06,0.0,0.0,0.0,0.0,-0.0017478943336755037,0.0015602626372128725,-0.0025930290576070547,0.9999849796295166,0.0,0.0,0.0,-1.2878618240356445,5.92467737197876,0.9711564183235168,233.10556030273438,0
168.0749999999989,-0.009146660566329956,-0.0165591798722744,1.0478897820576094e-05,0.0,0.0,0.0,0.0,0.0012307679280638695,0.007870460860431194,-0.002097465330734849,0.9972569942474365,0.0,0.0,0.0,-1.2962329387664795,5.933455944061279,0.9662471413612366,234.62075805664062,0
177.96199999999953,-0.00916601438075304,-0.01657615415751934,2.6952879125019535e-05,0.0,0.0,0.0,0.0,-0.0037962631322443485,-0.012200049124658108,0.0018437925027683377,0.999987781047821,0.0,0.0,0.0,-1.2958711385726929,5.927379608154297,0.9497101306915283,234.5552520751953,0
187.84399999999914,-0.009202246554195881,-0.016563864424824715,3.373723666300066e-05,0.0,0.0,0.0,0.0,-0.00016345670155715197,-0.0044433437287807465,0.0015006258618086576,1.0013759136199951,0.0,0.0,0.0,-1.2940493822097778,5.927000045776367,0.9724524617195129,234.22552490234375,0
197.72799999999916,-0.009215723723173141,-0.016596617177128792,3.9294616726692766e-05,0.0,0.0,0.0,0.0,-0.003983149770647287,-0.0010029831901192665,-0.0007933446322567761,1.0005885362625122,0.0,0.0,0.0,-1.2924432754516602,5.920742988586426,0.9780473709106445,233.93479919433594,0
207.61499999999978,-0.009161634370684624,-0.016634022817015648,5.8352936321171e-05,0.0,0.0,0.0,0.0,0.00042991116060875356,-0.0027667400427162647,-0.0013674699002876878,1.0001673698425293,0.0,0.0,0.0,-1.291775107383728,5.923023223876953,0.9813653230667114,233.81385803222656,0
217.51699999999983,-0.009163516573607922,-0.016661465167999268,6.291174213401973e-05,0.0,0.0,0.0,0.0,-3.6335150070954114e-05,-0.0022694391664117575,-0.0016973908059298992,0.9991915225982666,0.0,0.0,0.0,-1.2910279035568237,5.915487766265869,0.9937692880630493,233.67861938476562,0
227.38999999999942,-0.009169168770313263,-0.016682442277669907,7.402885967167094e-05,0.0,0.0,0.0,0.0,-0.0005739284679293633,-0.000918457459192723,0.0013578757643699646,0.9973794221878052,0.0,0.0,0.0,-1.290581464767456,5.908158779144287,0.9997190237045288,233.59780883789062,0
237.27599999999984,-0.009118027985095978,-0.016640817746520042,2.6033714675577357e-05,0.0,0.0,0.0,0.0,0.0015439314302057028,0.004847689066082239,0.0005813358584418893,0.9997606873512268,0.0,0.0,0.0,-1.288616418838501,5.90121603012085,0.996283769607544,233.2421417236328,0
247.16299999999865,-0.009119194000959396,-0.01665131188929081,4.211796840536408e-05,0.0,0.0,0.0,0.0,-0.0005036788061261177,-0.00041040495852939785,-0.0017474559135735035,1.0012624263763428,0.0,0.0,0.0,-1.296074628829956,5.904026508331299,0.9923205375671387,234.5920867919922,0
257.0499999999993,-0.009087036363780499,-0.016618307679891586,1.4283396012615412e-05,0.0,0.0,0.0,0.0,0.0028924671933054924,-0.004198629409074783,0.001972045749425888,0.9988418221473694,0.0,0.0,0.0,-1.2953743934631348,5.899602890014648,0.9965682625770569,234.46536254882812,0
266.9429999999993,-0.009130522608757019,-0.0165999885648489,3.2759660825831816e-05,0.0,0.0,0.0,0.0,0.001869246712885797,-0.0018408101750537753,-0.0008811005391180515,0.9989607930183411,0.0,0.0,0.0,-1.3045363426208496,5.903090000152588,0.9975259900093079,236.12367248535156,0
276.8239999999987,-0.00907314382493496,-0.01658324897289276,-3.2463998650200665e-05,0.0,0.0,0.0,0.0,-0.0009129563695751131,-0.0015305242268368602,-0.0012441783910617232,0.9994338750839233,0.0,0.0,0.0,-1.3037571907043457,5.896931171417236,1.0020782947540283,235.98263549804688,0
286.7099999999991,-0.009123840369284153,-0.01658695377409458,-3.1935480365063995e-05,0.0,0.0,0.0,0.0,-0.0005592474481090903,-0.0029441823717206717,-0.0031327311880886555,0.9991274476051331,0.0,0.0,0.0,-1.3104420900344849,5.905345916748047,0.9940943121910095,237.192626953125,0
296.60799999999836,-0.00911768525838852,-0.01660306751728058,-4.4600790715776384e-05,0.0,0.0,0.0,0.0,-0.0042456104420125484,0.0026543764397501945,-0.0016541179502382874,0.9977893233299255,0.0,0.0,0.0,-1.309682846069336,5.898937702178955,1.0060375928878784,237.05519104003906,0
306.48499999999876,-0.009153706952929497,-0.01660330407321453,-3.9249949622899294e-05,0.0,0.0,0.0,0.0,-0.0015628007240593433,-0.0035519693046808243,0.0014165648026391864,0.9980544447898865,0.0,0.0,0.0,-1.3167699575424194,5.908829689025879,0.9947426915168762,238.33798217773438,0
316.3759999999984,-0.009139920584857464,-0.01660849153995514,-6.656728510279208e-05,0.0,0.0,0.0,0.0,0.00026696178247220814,0.003034299938008189,-7.277330587385222e-05,0.9966340065002441,0.0,0.0,0.0,-1.315229058265686,5.902213096618652,1.0036873817443848,238.05906677246094,0
326.2659999999996,-0.009158143773674965,-0.01661054976284504,-6.163795478641987e-05,0.0,0.0,0.0,0.0,0.001125337090343237,-0.0037454834673553705,0.0010566498385742307,0.9962337017059326,0.0,0.0,0.0,-1.3200485706329346,5.905461311340332,0.9916824698448181,238.93141174316406,0
336.14300000000003,-0.009196155704557896,-0.016665572300553322,-3.9578182622790337e-05,0.0,0.0,0.0,0.0,0.0007627496379427612,0.0010566039709374309,0.0002875058853533119,0.9983969330787659,0.0,0.0,0.0,-1.3182849884033203,5.895658016204834,0.9914986491203308,238.61221313476562,0
346.03199999999924,-0.009130187332630157,-0.016621718183159828,6.688977009616792e-06,0.0,0.0,0.0,0.0,-0.00257850787602365,-0.003606958081945777,0.0005970513448119164,1.000350832939148,0.0,0.0,0.0,-1.3231436014175415,5.902548789978027,0.9929438233375549,239.4916229248047,0
355.91599999999926,-0.009150722995400429,-0.01664237305521965,2.3848791897762567e-05,0.0,0.0,0.0,0.0,-0.0031207979191094637,0.0002718130126595497,-0.001068330486305058,1.000078558921814,0.0,0.0,0.0,-1.3223822116851807,5.902468204498291,0.9971538186073303,239.35382080078125,0
365.8079999999991,-0.009159783832728863,-0.016717761754989624,1.515867916168645e-05,0.0,0.0,0.0,0.0,-0.00024100462906062603,0.0009424547897651792,-0.0001973052421817556,0.9994349479675293,0.0,0.0,0.0,-1.321457028388977,5.901742935180664,0.9969446659088135,239.18634033203125,0
375.6909999999989,-0.009169116616249084,-0.01671738363802433,2.7315687475493178e-05,0.0,0.0,0.0,0.0,0.0011896493379026651,-0.002918462036177516,-0.0015737605281174183,1.000025749206543,0.0,0.0,0.0,-1.3201631307601929,5.894843578338623,0.9976298809051514,238.9521484375,0
385.5839999999989,-0.009125878103077412,-0.016656480729579926,0.00010500416829017922,0.0,0.0,0.0,0.0,-0.0001948246208485216,0.0022288328036665916,-0.0006179012707434595,0.9999404549598694,0.0,0.0,0.0,-1.3257957696914673,5.916590690612793,1.0150413513183594,239.97166442871094,0
395.47199999999975,-0.009122483432292938,-0.01665460132062435,0.00011366339458618313,0.0,0.0,0.0,0.0,-0.0018419353291392326,-0.001806742511689663,-0.00013890716945752501,0.9996609091758728,0.0,0.0,0.0,-1.3244147300720215,5.91474723815918,1.013054609298706,239.72171020507812,0
405.35199999999895,-0.009176784195005894,-0.01663142815232277,0.0001367444929201156,0.0,0.0,0.0,0.0,0.0021262578666210175,0.002568859839811921,-0.004106272477656603,0.9995312690734863,0.0,0.0,0.0,-1.3292351961135864,5.930225372314453,1.012237787246704,240.59420776367188,0
415.23699999999917,-0.009177870117127895,-0.01665516011416912,0.00013989229046273977,0.0,0.0,0.0,0.0,-0.0014480246463790536,-0.0013561915839090943,-6.75368937663734e-05,1.0011868476867676,0.0,0.0,0.0,-1.3219166994094849,5.924846649169922,1.0023926496505737,239.26954650878906,0
425.125,-0.009170095436275005,-0.01664801500737667,0.00017751401173882186,0.0,0.0,0.0,0.0,0.0003688082506414503,-0.004828755743801594,-0.0004935388569720089,0.9978529810905457,0.0,0.0,0.0,-1.3306143283843994,5.934689998626709,1.0011820793151855,240.84384155273438,0
435.0139999999992,-0.009154622443020344,-0.01666049100458622,0.00016574209439568222,0.0,0.0,0.0,0.0,-0.0009636487811803818,-0.00024572902475483716,0.00030346898711286485,1.000549077987671,0.0,0.0,0.0,-1.3214634656906128,5.934771537780762,1.0160086154937744,239.18751525878906,0
444.896999999999,-0.00916298944503069,-0.01666596531867981,0.00019108808191958815,0.0,0.0,0.0,0.0,0.000284290814306587,-0.0026922407560050488,0.0025196829810738564,1.0004780292510986,0.0,0.0,0.0,-1.3257533311843872,5.942143440246582,1.0125317573547363,239.9639892578125,0
454.78399999999965,-0.009094429202377796,-0.01662861928343773,0.00012462159793358296,0.0,0.0,0.0,0.0,-0.000164496130309999,-1.638992216612678e-05,-0.0012870131758973002,1.0000859498977661,0.0,0.0,0.0,-1.323758840560913,5.938033580780029,1.0168246030807495,239.60299682617188,0
464.6819999999989,-0.009138146415352821,-0.01662975363433361,0.00013719247363042086,0.0,0.0,0.0,0.0,-0.0015991214895620942,0.0007635797956027091,0.0007052748114801943,0.9995181560516357,0.0,0.0,0.0,-1.329319953918457,5.941029071807861,1.0168111324310303,240.60955810546875,0
474.5589999999993,-0.009060382843017578,-0.01660032384097576,5.6947319535538554e-05,0.0,0.0,0.0,0.0,0.0020739533938467503,-0.003502506762742996,0.000703646510373801,0.9999454021453857,0.0,0.0,0.0,-1.322141408920288,5.952978134155273,1.0306085348129272,239.3102264404297,0
484.4459999999999,-0.009134653955698013,-0.016627371311187744,4.204577999189496e-05,0.0,0.0,0.0,0.0,-0.0016896550077944994,-0.002235190011560917,-0.001075571053661406,1.0005784034729004,0.0,0.0,0.0,-1.3200424909591675,5.947015285491943,1.0351836681365967,238.93032836914062,0
494.33699999999953,-0.009099596180021763,-0.016617318615317345,9.728100849315524e-06,0.0,0.0,0.0,0.0,-0.0006647084373980761,-0.0005422214744612575,0.001153208315372467,0.9996486902236938,0.0,0.0,0.0,-1.3184622526168823,5.944215774536133,1.043450951576233,238.644287109375,0
504.22199999999975,-0.009090187959372997,-0.016580499708652496,4.1254555981140584e-05,0.0,0.0,0.0,0.0,-0.003703436581417918,0.002174445427954197,-0.0006641625659540296,0.9995829463005066,0.0,0.0,0.0,-1.3239738941192627,5.954391956329346,1.0397155284881592,239.6419219970703,0
514.1049999999996,-0.009042622521519661,-0.01656743697822094,-3.903703145624604e-06,0.0,0.0,0.0,0.0,-0.0014858623035252094,-0.0025579032953828573,0.0007474057492800057,0.9981955289840698,0.0,0.0,0.0,-1.3159821033477783,5.96257209777832,1.0363796949386597,238.19537353515625,0
523.9939999999988,-0.009122098796069622,-0.016561439260840416,-9.935974958352745e-06,0.0,0.0,0.0,0.0,-0.000614113814663142,-0.0038178295362740755,0.0027903029695153236,1.0009326934814453,0.0,0.0,0.0,-1.321398138999939,5.971962928771973,1.0273282527923584,239.17568969726562,0
533.8849999999984,-0.009150533005595207,-0.016601860523223877,2.6529160095378757e-05,0.0,0.0,0.0,0.0,-0.0024134358391165733,-0.000856960890814662,-0.00011624793114606291,0.9979960918426514,0.0,0.0,0.0,-1.3192671537399292,5.965517044067383,1.034903645515442,238.78997802734375,0
543.768,-0.009104124270379543,-0.016583776101469994,6.400127313099802e-05,0.0,0.0,0.0,0.0,0.0005032375338487327,0.004438481759279966,-0.004411105532199144,0.9993888735771179,0.0,0.0,0.0,-1.3260908126831055,5.9754743576049805,1.0397711992263794,240.0250701904297,0
553.6529999999984,-0.009120848961174488,-0.016604673117399216,9.240009967470542e-05,0.0,0.0,0.0,0.0,0.0010547519195824862,0.0008234128472395241,-0.0037713153287768364,0.9986806511878967,0.0,0.0,0.0,-1.3193103075027466,5.972536087036133,1.0307143926620483,238.7978057861328,0
563.5389999999989,-0.009086301550269127,-0.016616161912679672,0.00011769729462685063,0.0,0.0,0.0,0.0,0.0016819466836750507,-0.0008787574479356408,0.00038412841968238354,0.9967656135559082,0.0,0.0,0.0,-1.3185378313064575,5.968395233154297,1.030362606048584,238.657958984375,0
573.4259999999995,-0.009097674861550331,-0.016660258173942566,0.00013606325956061482,0.0,0.0,0.0,0.0,0.00096298404969275,-0.001726673566736281,-0.0012768965680152178,0.9993326663970947,0.0,0.0,0.0,-1.3167541027069092,5.959842681884766,1.0295031070709229,238.33511352539062,0
583.3149999999987,-0.009087997488677502,-0.016635220497846603,0.00017460118397139013,0.0,0.0,0.0,0.0,-0.0008438070071861148,-0.00021062380983494222,0.000744244025554508,0.9998902082443237,0.0,0.0,0.0,-1.3251597881317139,5.963988780975342,1.0281299352645874,239.85655212402344,0
593.1999999999989,-0.009120644070208073,-0.016691794618964195,0.00022498442558571696,0.0,0.0,0.0,0.0,-0.0018948449287563562,-0.003471944946795702,0.001159272505901754,0.9966784715652466,0.0,0.0,0.0,-1.3236383199691772,5.960421562194824,1.0245912075042725,239.5811767578125,0
603.0879999999997,-0.00911040510982275,-0.016694260761141777,0.0002544219314586371,0.0,0.0,0.0,0.0,0.002851590048521757,0.0010560608934611082,-0.001276153838261962,0.9981245398521423,0.0,0.0,0.0,-1.32182776927948,5.962352275848389,1.0360043048858643,239.2534637451172,0
612.973,-0.009077215567231178,-0.0166989304125309,0.00023339665494859219,0.0,0.0,0.0,0.0,0.0027392476331442595,-0.0031807776540517807,0.0004159051750320941,1.000840663909912,0.0,0.0,0.0,-1.3149198293685913,5.964929580688477,1.0389782190322876,238.00311279296875,0
622.8649999999998,-0.009145587682723999,-0.016683686524629593,0.0002501135168131441,0.0,0.0,0.0,0.0,0.0002506581658963114,-0.00377957196906209,-0.0010818258160725236,0.9982280731201172,0.0,0.0,0.0,-1.323078989982605,5.970776081085205,1.0328400135040283,239.4799346923828,0
632.7509999999984,-0.009104648604989052,-0.016650741919875145,0.00022600271040573716,0.0,0.0,0.0,0.0,-0.0015327470609918237,0.00065277807880193,0.002753058448433876,0.9997977614402771,0.0,0.0,0.0,-1.3157497644424438,5.979251384735107,1.0451278686523438,238.15333557128906,0
642.634,-0.009153729304671288,-0.016670947894454002,0.00022946528042666614,0.0,0.0,0.0,0.0,-0.0005529214395210147,-9.569775284035131e-05,-0.0016657677479088306,0.9995893836021423,0.0,0.0,0.0,-1.3194154500961304,5.983660697937012,1.0321691036224365,238.8168182373047,0
652.521999999999,-0.00907854363322258,-0.016626665368676186,0.0001612152555026114,0.0,0.0,0.0,0.0,0.002025674795731902,0.01107237208634615,-0.00157314317766577,1.000282645225525,0.0,0.0,0.0,-1.3122968673706055,5.996309757232666,1.041213870048523,237.52833557128906,0
662.4189999999999,-0.009125006385147572,-0.01666315272450447,0.00015126177459023893,0.0,0.0,0.0,0.0,-0.00041262051672674716,0.0010621310211718082,-0.0003938086738344282,0.9993053078651428,0.0,0.0,0.0,-1.3107407093048096,5.985137462615967,1.0173544883728027,237.24667358398438,0
672.2939999999999,-0.0090718362480402,-0.01662970893085003,0.00010935484897345304,0.0,0.0,0.0,0.0,0.0005585494800470769,0.001983235590159893,-0.00235034991055727,1.0022658109664917,0.0,0.0,0.0,-1.3094805479049683,5.980903625488281,1.0151840448379517,237.01858520507812,0
682.1809999999987,-0.009117651730775833,-0.016660131514072418,9.93480789475143e-05,0.0,0.0,0.0,0.0,-0.0002979074197355658,0.0012711487943306565,-0.0006433209055103362,1.0001904964447021,0.0,0.0,0.0,-1.3092519044876099,5.973483085632324,1.0096170902252197,236.97720336914062,0
692.0699999999997,-0.009067612700164318,-0.01663735695183277,6.09548224019818e-05,0.0,0.0,0.0,0.0,-0.002416122006252408,0.0037879482842981815,-0.002526844386011362,0.996742844581604,0.0,0.0,0.0,-1.3075060844421387,5.969847202301025,1.0015307664871216,236.6611785888672,0
701.9539999999997,-0.009122222661972046,-0.016664694994688034,4.464514859137125e-05,0.0,0.0,0.0,0.0,0.0006702035898342729,-0.001466468907892704,-0.00048249095561914146,0.9974249005317688,0.0,0.0,0.0,-1.3069870471954346,5.972170829772949,0.9915559887886047,236.56724548339844,0
711.8419999999987,-0.009077627211809158,-0.016646211966872215,3.483970431261696e-06,0.0,0.0,0.0,0.0,0.001098728273063898,-0.0009270043228752911,0.0014880996895954013,1.0007381439208984,0.0,0.0,0.0,-1.3060100078582764,5.962316036224365,0.9981145262718201,236.39039611816406,0
721.7339999999986,-0.009129231795668602,-0.01663036458194256,1.9003800844075158e-06,0.0,0.0,0.0,0.0,0.0003858413256239146,0.0012889207573607564,-0.0002994110982399434,1.0016359090805054,0.0,0.0,0.0,-1.3042103052139282,5.953042507171631,0.9993959665298462,236.0646514892578,0
731.616,-0.009062843397259712,-0.01657017692923546,-5.8694313338492066e-05,0.0,0.0,0.0,0.0,-0.000814397179055959,-0.0017938856035470963,-0.0006046058842912316,1.0014592409133911,0.0,0.0,0.0,-1.3030282258987427,5.945830821990967,0.9936395883560181,235.85072326660156,0
741.5009999999984,-0.009112535044550896,-0.016572173684835434,-6.62111269775778e-05,0.0,0.0,0.0,0.0,-0.003775782650336623,0.00298893335275352,-0.0013974510366097093,1.0016156435012817,0.0,0.0,0.0,-1.3112459182739258,5.9531989097595215,0.990644097328186,237.33811950683594,0
751.387999999999,-0.009061671793460846,-0.01652386784553528,-0.00010895034210989252,0.0,0.0,0.0,0.0,-0.0008278995519503951,0.002318612765520811,0.00018152876873500645,1.0023897886276245,0.0,0.0,0.0,-1.3040434122085571,5.974706649780273,0.991742730140686,236.03445434570312,0
761.2869999999984,-0.009121367707848549,-0.016530409455299377,-0.00011986397294094786,0.0,0.0,0.0,0.0,-0.0019094052258878946,-0.0022423795890063047,-0.002140120370313525,1.0010329484939575,0.0,0.0,0.0,-1.310374140739441,5.981810092926025,0.978908360004425,237.18031311035156,0
771.1709999999985,-0.009131289087235928,-0.016575757414102554,-0.00010903211659751832,0.0,0.0,0.0,0.0,-0.002129345666617155,-0.004097721539437771,0.001532017602585256,0.9999073147773743,0.0,0.0,0.0,-1.310462236404419,5.978481769561768,0.9819775819778442,237.19627380371094,0
781.0529999999999,-0.009133635088801384,-0.01654599793255329,-8.316095045302063e-05,0.0,0.0,0.0,0.0,0.00028066401137039065,0.005618181079626083,-0.0013455796288326383,0.999707043170929,0.0,0.0,0.0,-1.318739652633667,5.992702484130859,0.9906913638114929,238.69451904296875,0
790.9429999999993,-0.009174984879791737,-0.016592662781476974,-3.171810749336146e-05,0.0,0.0,0.0,0.0,0.0016012114938348532,0.0009969522943720222,-0.00014356599422171712,0.9993487596511841,0.0,0.0,0.0,-1.3174562454223633,5.982397079467773,0.9761267304420471,238.4622039794922,0
800.8299999999999,-0.009153900668025017,-0.016594015061855316,-4.160151092946762e-06,0.0,0.0,0.0,0.0,0.002208333695307374,0.0007888777763582766,0.0005829353467561305,1.0001375675201416,0.0,0.0,0.0,-1.3238651752471924,5.98374080657959,0.9728336930274963,239.6222381591797,0
810.7089999999989,-0.009164891205728054,-0.016598204150795937,2.2548429114976898e-05,0.0,0.0,0.0,0.0,0.0025793027598410845,0.0024549588561058044,-0.0017711118562147021,1.0003138780593872,0.0,0.0,0.0,-1.3224366903305054,5.976013660430908,0.9703892469406128,239.36366271972656,0
820.5959999999995,-0.009184272959828377,-0.016565192490816116,5.56145423615817e-05,0.0,0.0,0.0,0.0,0.0009892522357404232,0.00326928379945457,0.0003874446265399456,0.9996592998504639,0.0,0.0,0.0,-1.321153163909912,5.96493673324585,0.9661582708358765,239.13134765625,0
830.4899999999998,-0.009188059717416763,-0.016582204028964043,7.434900180669501e-05,0.0,0.0,0.0,0.0,-0.0012045262847095728,0.0023159326519817114,0.0018511144444346428,0.9991718530654907,0.0,0.0,0.0,-1.3192577362060547,5.9600830078125,0.9623860120773315,238.78826904296875,0
840.369999999999,-0.009159962646663189,-0.01659419946372509,0.00010802423639688641,0.0,0.0,0.0,0.0,0.002511519705876708,-0.0003165492962580174,0.0018920268630608916,0.999335527420044,0.0,0.0,0.0,-1.3249071836471558,5.964865207672119,0.9612997174263,239.8108367919922,0
850.2609999999986,-0.009159626439213753,-0.016627594828605652,0.00012183326907688752,0.0,0.0,0.0,0.0,-0.001319698989391327,-0.004292857833206654,0.0007800472085364163,1.0004897117614746,0.0,0.0,0.0,-1.3157422542572021,5.960585594177246,0.9624473452568054,238.15196228027344,0
860.1449999999986,-0.00916028581559658,-0.016640985384583473,0.0001474204327678308,0.0,0.0,0.0,0.0,-0.0007280341815203428,-0.005393668543547392,0.0025915210135281086,0.9997146725654602,0.0,0.0,0.0,-1.3215436935424805,5.967973232269287,0.9649171233177185,239.2020263671875,0
870.0339999999997,-0.009094570763409138,-0.01660183072090149,9.812363714445382e-05,0.0,0.0,0.0,0.0,0.0025503281503915787,9.226832480635494e-05,-0.0023506772704422474,0.9987277388572693,0.0,0.0,0.0,-1.313599705696106,5.979970932006836,0.9787980914115906,237.76414489746094,0
879.9219999999987,-0.009125734679400921,-0.016595622524619102,0.00011913248454220593,0.0,0.0,0.0,0.0,0.00035737938014790416,0.00017811112047638744,0.0017142841825261712,0.9998560547828674,0.0,0.0,0.0,-1.32229483127594,5.98167610168457,0.9659359455108643,239.33799743652344,0
889.8130000000001,-0.009126802906394005,-0.016637630760669708,0.00013345021579880267,0.0,0.0,0.0,0.0,0.002579876920208335,0.0017941140104085207,0.0019354919204488397,0.9980345368385315,0.0,0.0,0.0,-1.3203853368759155,5.978104591369629,0.9677013754844666,238.99237060546875,0
899.7009999999991,-0.009110142476856709,-0.01660383678972721,0.00017706879589240998,0.0,0.0,0.0,0.0,-0.00046939816093072295,0.012444820255041122,-0.0016954413149505854,0.9985218644142151,0.0,0.0,0.0,-1.3266226053237915,5.983518123626709,0.9655102491378784,240.121337890625,0
909.5949999999993,-0.009067327715456486,-0.01661403477191925,0.00014577264664694667,0.0,0.0,0.0,0.0,0.0016193556366488338,0.003252339782193303,0.001470641465857625,0.9963775277137756,0.0,0.0,0.0,-1.3258556127548218,5.980260848999023,0.9398248195648193,239.98251342773438,0
919.4639999999999,-0.009099863469600677,-0.016581695526838303,0.00017222778114955872,0.0,0.0,0.0,0.0,-0.0014592059887945652,-0.0015557723818346858,0.0013358332216739655,0.9992386102676392,0.0,0.0,0.0,-1.332421064376831,5.992331504821777,0.9291107058525085,241.17086791992188,0
929.357,-0.009096520021557808,-0.016610175371170044,0.00018091029778588563,0.0,0.0,0.0,0.0,0.0021323272958397865,0.0017096030060201883,0.00024659823975525796,1.000101089477539,0.0,0.0,0.0,-1.3308334350585938,5.994351387023926,0.9375547170639038,240.8834991455078,0
939.241,-0.009118749760091305,-0.01657741330564022,0.00021011791250202805,0.0,0.0,0.0,0.0,0.00012661772780120373,-0.0053657242096960545,-0.001923468429595232,0.9988102316856384,0.0,0.0,0.0,-1.3375473022460938,6.001743316650391,0.9243949055671692,242.09872436523438,0
949.1359999999986,-0.009101980365812778,-0.016572874039411545,0.0002049202157650143,0.0,0.0,0.0,0.0,-0.0007537657511420548,0.004100543446838856,-0.0017134870868176222,0.999566912651062,0.0,0.0,0.0,-1.330326795578003,6.001834392547607,0.9345242381095886,240.79180908203125,0
959.0119999999988,-0.00914574135094881,-0.016597146168351173,0.00020605968893505633,0.0,0.0,0.0,0.0,0.00023821929062251002,-0.0046073091216385365,0.0014648260548710823,0.9998267292976379,0.0,0.0,0.0,-1.3362630605697632,6.004275798797607,0.9145292043685913,241.8662567138672,0
968.9089999999997,-0.009131091646850109,-0.016617972403764725,0.00019664422143250704,0.0,0.0,0.0,0.0,0.0009218570776283741,-0.001125034410506487,0.0012725561391562223,0.998873770236969,0.0,0.0,0.0,-1.326589584350586,6.00360631942749,0.9272139668464661,240.11534118652344,0
978.7849999999999,-0.009163791313767433,-0.016632817685604095,0.00020216875418554991,0.0,0.0,0.0,0.0,0.001291115302592516,-0.0032371270935982466,0.00359458290040493,0.9962528347969055,0.0,0.0,0.0,-1.3330552577972412,6.005245685577393,0.9232694506645203,241.28565979003906,0
988.6899999999987,-0.009097052738070488,-0.016581304371356964,0.00013748403580393642,0.0,0.0,0.0,0.0,-0.0015657085459679365,-0.0057739675976336,-0.001355014625005424,0.99900221824646,0.0,0.0,0.0,-1.3252460956573486,6.018122673034668,0.9429933428764343,239.87217712402344,0
998.5709999999999,-0.009089037775993347,-0.016570907086133957,0.0001549199951114133,0.0,0.0,0.0,0.0,0.0005438963999040425,-0.004230661317706108,-6.641951767960563e-05,0.9993611574172974,0.0,0.0,0.0,-1.332867980003357,6.02744197845459,0.9553741812705994,241.2517547607422,0
1008.4559999999983,-0.009045911021530628,-0.016557838767766953,0.00010923246009042487,0.0,0.0,0.0,0.0,-0.002990033244714141,-0.0027993610128760338,0.0037536188028752804,0.998892605304718,0.0,0.0,0.0,-1.3251008987426758,6.033718109130859,0.9657962918281555,239.8459014892578,0
1018.3409999999985,-0.009068574756383896,-0.016547633334994316,0.00011590520443860441,0.0,0.0,0.0,0.0,0.0011983236763626337,0.0008027796866372228,0.0012894825777038932,0.9994190335273743,0.0,0.0,0.0,-1.3318839073181152,6.043039798736572,0.9647756814956665,241.07363891601562,0
1028.226999999999,-0.009038317017257214,-0.01655224710702896,8.275601430796087e-05,0.0,0.0,0.0,0.0,-0.00171575543936342,0.0016187896253541112,-0.0004031539137940854,1.000006914138794,0.0,0.0,0.0,-1.3226081132888794,6.041161060333252,0.9602063894271851,239.3946990966797,0
1038.1149999999998,-0.009125916287302971,-0.01659446395933628,4.647681998903863e-05,0.0,0.0,0.0,0.0,0.0009479521540924907,-0.005266579799354076,0.005386000033468008,0.9998318552970886,0.0,0.0,0.0,-1.321589708328247,6.041268825531006,0.9554834365844727,239.21035766601562,0
1048.0009999999984,-0.009127490222454071,-0.016581758856773376,5.504248110810295e-05,0.0,0.0,0.0,0.0,0.0023096222430467606,0.0024010282941162586,-0.00031430466333404183,0.998514711856842,0.0,0.0,0.0,-1.318707823753357,6.034969329833984,0.9738889336585999,238.68873596191406,0
1057.8999999999996,-0.009141086600720882,-0.016614388674497604,4.511372389970347e-05,0.0,0.0,0.0,0.0,-0.000859496183693409,-0.0009023739257827401,0.004649830516427755,1.0019359588623047,0.0,0.0,0.0,-1.3177107572555542,6.027612686157227,0.9764928817749023,238.50827026367188,0
1067.7739999999994,-0.009100958704948425,-0.016589097678661346,1.3598446457763202e-06,0.0,0.0,0.0,0.0,-0.0012066974304616451,-0.0038980895187705755,-0.0007149021839722991,0.9994029402732849,0.0,0.0,0.0,-1.3148173093795776,6.0253167152404785,0.9809491038322449,237.9845428466797,0
1077.6629999999986,-0.009134790860116482,-0.016585951671004295,-1.251297362614423e-06,0.0,0.0,0.0,0.0,-0.0008180394070222974,-0.0007077940390445292,-0.001292408793233335,0.998662531375885,0.0,0.0,0.0,-1.3225027322769165,6.031980991363525,0.9784729480743408,239.37562561035156,0
1087.5479999999989,-0.009109116159379482,-0.016578612849116325,-2.9256507332320325e-05,0.0,0.0,0.0,0.0,0.0017987311584874988,-0.007771442178636789,-0.0022419935557991266,0.9994927644729614,0.0,0.0,0.0,-1.3215522766113281,6.025553226470947,0.9768096208572388,239.20359802246094,0
1097.4359999999997,-0.009089022874832153,-0.016538254916667938,-2.873527137126075e-06,0.0,0.0,0.0,0.0,0.001662973314523697,0.0006817836547270417,-0.0015520284650847316,1.0011966228485107,0.0,0.0,0.0,-1.3291341066360474,6.033095359802246,0.9960781931877136,240.57591247558594,0
1107.321,-0.009083948098123074,-0.016555598005652428,-7.22484037396498e-06,0.0,0.0,0.0,0.0,0.0012162980856373906,-0.004205160774290562,0.000494528328999877,0.9999166131019592,0.0,0.0,0.0,-1.3210492134094238,6.034208297729492,0.9962491393089294,239.112548828125,0
1117.2169999999987,-0.009082050062716007,-0.016610262915492058,-1.61341049533803e-05,0.0,0.0,0.0,0.0,-0.00019115536997560412,0.0011748155811801553,0.0013285778695717454,0.9998008608818054,0.0,0.0,0.0,-1.3196426630020142,6.029791831970215,1.0042247772216797,238.8579559326172,0
1127.0949999999993,-0.009075097739696503,-0.01661020889878273,-1.7822389054344967e-05,0.0,0.0,0.0,0.0,2.9824310331605375e-05,0.0019130489090457559,0.0027764118276536465,0.9986718893051147,0.0,0.0,0.0,-1.3109785318374634,6.040751934051514,1.007216215133667,237.28973388671875,0
1136.985999999999,-0.009102669544517994,-0.016618384048342705,-2.4771248718025163e-05,0.0,0.0,0.0,0.0,-0.003661191323772073,0.0003469374787528068,-0.003608554136008024,1.000789761543274,0.0,0.0,0.0,-1.3086825609207153,6.0364990234375,1.001782774925232,236.87416076660156,0
1146.8759999999984,-0.009083358570933342,-0.01660049334168434,-3.7752943171653897e-05,0.0,0.0,0.0,0.0,0.003029042622074485,0.0019023187924176455,-0.001972226658836007,0.9998800754547119,0.0,0.0,0.0,-1.3081432580947876,6.037260055541992,1.0050777196884155,236.77651977539062,0
1156.7609999999986,-0.009121612645685673,-0.016617512330412865,-4.800962778972462e-05,0.0,0.0,0.0,0.0,0.001484638312831521,0.0014245581114664674,-0.0005620692390948534,0.9986065030097961,0.0,0.0,0.0,-1.3066819906234741,6.026558876037598,0.9992973208427429,236.51202392578125,0
1166.6549999999988,-0.009156089276075363,-0.01665467396378517,-4.266264113539364e-06,0.0,0.0,0.0,0.0,0.0007334036054089665,0.0008545552846044302,-0.0002451552136335522,0.999788224697113,0.0,0.0,0.0,-1.2976444959640503,6.02091646194458,0.9864035248756409,234.87623596191406,0
1176.5339999999997,-0.0091414088383317,-0.01663915440440178,2.3105580112314783e-05,0.0,0.0,0.0,0.0,0.0007604816928505898,-0.00394180603325367,0.0012675521429628134,0.9987735152244568,0.0,0.0,0.0,-1.3018310070037842,6.027867317199707,0.9804289937019348,235.63400268554688,0
1186.42,-0.009152284823358059,-0.01665792614221573,4.583266127156094e-05,0.0,0.0,0.0,0.0,0.005103039555251598,-0.0006953811971470714,0.0011091465130448341,0.9989824295043945,0.0,0.0,0.0,-1.2923334836959839,6.0312323570251465,0.9908706545829773,233.9149169921875,0
1196.315999999999,-0.009243635460734367,-0.01658857800066471,6.141166522866115e-05,0.0,0.0,0.0,0.0,-0.002219138666987419,-0.004280826076865196,0.000937535020057112,0.9970242977142334,0.0,0.0,0.0,-1.2909903526306152,6.014842510223389,0.9975036978721619,233.67181396484375,0
1206.1970000000001,-0.009240660816431046,-0.016602924093604088,5.7924095017369837e-05,0.0,0.0,0.0,0.0,0.001058556605130434,0.0023425715044140816,-0.0004931376897729933,0.9972337484359741,0.0,0.0,0.0,-1.2833783626556396,6.01849889755249,1.0025659799575806,232.29403686523438,0
1216.0809999999983,-0.009166196919977665,-0.016622982919216156,8.847496064845473e-05,0.0,0.0,0.0,0.0,-0.0002927749010268599,0.00045654139830730855,0.003573027905076742,0.9983734488487244,0.0,0.0,0.0,-1.2889009714126587,6.0230937004089355,1.0042860507965088,233.2936248779297,0
1225.9709999999995,-0.009136486798524857,-0.01664029434323311,4.8218706069746986e-05,0.0,0.0,0.0,0.0,-0.006006700452417135,-0.000272696022875607,-0.0013289919588714838,1.0009682178497314,0.0,0.0,0.0,-1.2872178554534912,6.011584758758545,0.9960965514183044,232.98899841308594,0
1235.8629999999994,-0.009174996055662632,-0.016606001183390617,6.490327359642833e-05,0.0,0.0,0.0,0.0,-0.0015325797721743584,-0.0031882955227047205,-0.0009410054190084338,1.0021179914474487,0.0,0.0,0.0,-1.2928177118301392,6.024885177612305,0.9880428314208984,234.00257873535156,0
1245.7389999999996,-0.009136817418038845,-0.016588712111115456,2.6259280275553465e-05,0.0,0.0,0.0,0.0,-4.814942440134473e-05,0.001619790680706501,-0.0014214568072929978,1.0018655061721802,0.0,0.0,0.0,-1.285215139389038,6.037384033203125,1.0062509775161743,232.62649536132812,0
1255.6399999999994,-0.00913990568369627,-0.01658596470952034,4.515927139436826e-05,0.0,0.0,0.0,0.0,0.0017419705400243402,0.00261294050142169,-0.0007559600635431707,0.9989671111106873,0.0,0.0,0.0,-1.295540690422058,6.044791221618652,1.0041583776474,234.4954376220703,0
1265.5259999999998,-0.009118938818573952,-0.01658431626856327,3.1337360269390047e-05,0.0,0.0,0.0,0.0,0.0012143172789365053,-0.000552889599930495,0.00015242160588968545,1.0009257793426514,0.0,0.0,0.0,-1.287437915802002,6.044800758361816,1.0042823553085327,233.02882385253906,0
1275.402,-0.009137135930359364,-0.016629517078399658,2.4567079890402965e-05,0.0,0.0,0.0,0.0,-0.0007462883368134499,-0.002654742682352662,0.0006436460535041988,1.0002049207687378,0.0,0.0,0.0,-1.285995364189148,6.0350542068481445,0.9985931515693665,232.76773071289062,0
1285.2879999999986,-0.009105982258915901,-0.016605166718363762,2.042411779257236e-06,0.0,0.0,0.0,0.0,-0.0010635136859491467,0.005290686618536711,-0.0002126778126694262,0.9992315769195557,0.0,0.0,0.0,-1.2846282720565796,6.028644561767578,1.0045948028564453,232.52024841308594,0
1295.1779999999999,-0.00914097297936678,-0.016595466062426567,1.3441713235806674e-05,0.0,0.0,0.0,0.0,-0.0020902829710394144,0.0009124684147536755,0.0008964744629338384,0.99790358543396,0.0,0.0,0.0,-1.2920438051223755,6.032877445220947,0.9790908098220825,233.86248779296875,0
1305.065999999999,-0.009160838089883327,-0.016636885702610016,3.7210993468761444e-05,0.0,0.0,0.0,0.0,-0.0019209043821319938,-0.00042666486115194857,0.0010588968871161342,0.9997323155403137,0.0,0.0,0.0,-1.2911816835403442,6.028532981872559,0.9740543365478516,233.70645141601562,0
1314.9609999999993,-0.009130779653787613,-0.016653187572956085,6.193268927745521e-05,0.0,0.0,0.0,0.0,0.0011900268727913499,-0.004654683172702789,4.612940028891899e-05,0.9997098445892334,0.0,0.0,0.0,-1.3005423545837402,6.030555725097656,0.9740316271781921,235.40074157714844,0
1324.8329999999987,-0.009139555506408215,-0.016679683700203896,7.815215940354392e-05,0.0,0.0,0.0,0.0,0.003333308268338442,0.0007702048169448972,-0.0008651434327475727,0.999111533164978,0.0,0.0,0.0,-1.2991551160812378,6.022048473358154,0.9787139296531677,235.149658203125,0
1334.7279999999992,-0.009151047095656395,-0.016677699983119965,9.612739813746884e-05,0.0,0.0,0.0,0.0,-0.0011424263939261436,-0.00141450809314847,-0.002067257883027196,0.9993016719818115,0.0,0.0,0.0,-1.297614574432373,6.010136604309082,0.992243766784668,234.87081909179688,0
1344.6079999999984,-0.0091447364538908,-0.016680622473359108,9.933263208949938e-05,0.0,0.0,0.0,0.0,-0.00034220103407278657,0.00229804590344429,0.0008855200139805675,1.000236988067627,0.0,0.0,0.0,-1.2963593006134033,6.010526657104492,0.9901130795478821,234.64361572265625,0
1354.5009999999984,-0.00914789829403162,-0.016741713508963585,0.00010154621122637764,0.0,0.0,0.0,0.0,-5.215609780861996e-05,-0.0004129777371417731,0.0011737594613805413,0.9993138313293457,0.0,0.0,0.0,-1.2953906059265137,6.005531311035156,0.985069990158081,234.46826171875,0
1364.393,-0.00910140573978424,-0.016672559082508087,6.926971400389448e-05,0.0,0.0,0.0,0.0,0.0013622376136481762,0.0013807753566652536,0.002362400759011507,0.997539758682251,0.0,0.0,0.0,-1.2938497066497803,6.003623962402344,0.9848572611808777,234.18936157226562,0
1374.2759999999998,-0.009151964448392391,-0.016656573861837387,7.454066508216783e-05,0.0,0.0,0.0,0.0,0.0009935051202774048,-0.0015515084378421307,0.0019029786344617605,0.9959259629249573,0.0,0.0,0.0,-1.2921620607376099,6.000891208648682,0.9845061898231506,233.88389587402344,0
1384.161,-0.009069499559700489,-0.016560878604650497,-5.82671646043309e-06,0.0,0.0,0.0,0.0,-0.001296736067160964,-0.0054586827754974365,-7.367821581283351e-06,0.9990840554237366,0.0,0.0,0.0,-1.2906948328018188,5.997331142425537,0.9873648285865784,233.61834716796875,0
1394.0419999999995,-0.009148268029093742,-0.01653490960597992,-1.1482423360575922e-05,0.0,0.0,0.0,0.0,0.00037621165392920375,0.001982278423383832,-0.002506069839000702,0.999800980091095,0.0,0.0,0.0,-1.297426700592041,6.008908748626709,0.9775223731994629,234.83680725097656,0
1403.9279999999999,-0.009136736392974854,-0.016546577215194702,-3.415604805923067e-05,0.0,0.0,0.0,0.0,-0.0021899526473134756,-0.0054398877546191216,-0.0024089706130325794,0.9992703199386597,0.0,0.0,0.0,-1.2964637279510498,6.003142833709717,0.9835414290428162,234.66250610351562,0
1413.816999999999,-0.00914022047072649,-0.01657745987176895,-4.2683532228693366e-05,0.0,0.0,0.0,0.0,-0.002943555824458599,-0.0004366471548564732,0.0009408047189936042,0.9990682005882263,0.0,0.0,0.0,-1.295477032661438,6.001457691192627,1.0037139654159546,234.48391723632812,0
1423.7109999999993,-0.009167390875518322,-0.01661122404038906,-2.180230148951523e-05,0.0,0.0,0.0,0.0,0.0017670091474428773,0.0059471772983670235,0.0006045079790055752,0.9992914795875549,0.0,0.0,0.0,-1.2861807346343994,5.997290134429932,1.005517840385437,232.80128479003906,0
1433.5959999999995,-0.009170738980174065,-0.016661789268255234,-3.251556699979119e-05,0.0,0.0,0.0,0.0,-0.0017831596778705716,-0.0013570660958066583,0.0007024414953775704,0.9983946084976196,0.0,0.0,0.0,-1.2851232290267944,5.985593795776367,1.000882863998413,232.60984802246094,0
1443.476999999999,-0.009147748351097107,-0.016626659780740738,-5.362318916013464e-05,0.0,0.0,0.0,0.0,0.001728294650092721,0.0002999797579832375,-0.0028262638952583075,0.9997493028640747,0.0,0.0,0.0,-1.2836564779281616,5.98443603515625,1.0049465894699097,232.3443603515625,0
1453.369999999999,-0.009142585098743439,-0.016582468524575233,-2.0963876522728242e-05,0.0,0.0,0.0,0.0,0.001029872102662921,-1.2070665434293915e-05,0.0031386404298245907,0.9996193051338196,0.0,0.0,0.0,-1.2941945791244507,6.000663757324219,1.0080498456954956,234.2517852783203,0
1463.253999999999,-0.009123756550252438,-0.016566401347517967,-3.593139990698546e-05,0.0,0.0,0.0,0.0,-0.0011132971849292517,0.000670511566568166,0.0013588351430371404,0.9977576732635498,0.0,0.0,0.0,-1.2920914888381958,5.991959571838379,1.0003060102462769,233.87112426757812,0
1473.1419999999998,-0.009135942906141281,-0.01653473824262619,-1.8242710211779922e-05,0.0,0.0,0.0,0.0,-0.0029015671461820602,-0.0021151546388864517,-0.0020756935700774193,0.9999051690101624,0.0,0.0,0.0,-1.3008626699447632,5.999151229858398,0.9920113682746887,235.45872497558594,0
1483.021999999999,-0.009128672070801258,-0.016556549817323685,-3.0911593057680875e-05,0.0,0.0,0.0,0.0,0.005156135652214289,0.004817412234842777,-0.002658476121723652,0.9988914728164673,0.0,0.0,0.0,-1.2997690439224243,5.996146202087402,0.98870450258255,235.2607879638672,0
1492.9119999999984,-0.009130970574915409,-0.01656302995979786,-2.6724323106464e-05,0.0,0.0,0.0,0.0,-0.00034579820930957794,-0.0031767801847308874,-0.0018636527238413692,0.9979074001312256,0.0,0.0,0.0,-1.3085520267486572,5.992241859436035,0.9698578715324402,236.8505401611328,0
1502.8029999999999,-0.009118043817579746,-0.01656310446560383,-4.346999776316807e-05,0.0,0.0,0.0,0.0,0.000623474654275924,0.00039440076216124,-0.003520929953083396,0.9995023012161255,0.0,0.0,0.0,-1.3073654174804688,5.987434387207031,0.9783251285552979,236.6357421875,0
1512.688,-0.009131370112299919,-0.016546504572033882,-3.6045239539816976e-05,0.0,0.0,0.0,0.0,-0.001333122025243938,0.003078855574131012,-0.0020697477739304304,1.0002555847167969,0.0,0.0,0.0,-1.315577745437622,5.995926856994629,0.9714716672897339,238.12217712402344,0
1522.5739999999987,-0.009121257811784744,-0.016551274806261063,-4.898253610008396e-05,0.0,0.0,0.0,0.0,-0.0023163913283497095,0.00445264158770442,-0.0014148695627227426,1.0003433227539062,0.0,0.0,0.0,-1.3144745826721191,5.987260341644287,0.9550353288650513,237.92250061035156,0
1532.4669999999987,-0.009124212898314,-0.01658189855515957,-5.638357106363401e-05,0.0,0.0,0.0,0.0,-3.596920214476995e-05,-0.0012737804790958762,-0.003436639904975891,0.9994881749153137,0.0,0.0,0.0,-1.313434362411499,5.983052730560303,0.9404887557029724,237.73422241210938,0
1542.3409999999985,-0.00911578070372343,-0.016576046124100685,-6.379844853654504e-05,0.0,0.0,0.0,0.0,-0.004346576519310474,0.003685593605041504,-0.00235763075761497,1.0009578466415405,0.0,0.0,0.0,-1.3133124113082886,5.9720845222473145,0.9364855885505676,237.712158203125,0
1552.2299999999996,-0.009129057638347149,-0.01659196801483631,-6.70539156999439e-05,0.0,0.0,0.0,0.0,-0.0004608361632563174,-0.0018810923211276531,0.0024410963524132967,0.9988206624984741,0.0,0.0,0.0,-1.3130278587341309,5.973653793334961,0.9326289296150208,237.66065979003906,0
1562.1139999999996,-0.009120356291532516,-0.016584141179919243,-7.377499423455447e-05,0.0,0.0,0.0,0.0,0.0006042702007107437,-0.002997051691636443,-0.0015989887760952115,0.998755156993866,0.0,0.0,0.0,-1.3101794719696045,5.969716548919678,0.9358021020889282,237.14511108398438,0
1572.0049999999992,-0.00908440351486206,-0.01654323935508728,-4.1906838305294514e-05,0.0,0.0,0.0,0.0,0.0030361961107701063,-0.0005893106572329998,-0.0010196181247010827,1.0008994340896606,0.0,0.0,0.0,-1.3156081438064575,5.9772114753723145,0.9432625770568848,238.12767028808594,0
1581.8889999999992,-0.009122060611844063,-0.016566339880228043,4.150890163145959e-06,0.0,0.0,0.0,0.0,5.584764949162491e-05,0.0027339505031704903,0.0022770273499190807,1.000481367111206,0.0,0.0,0.0,-1.3147732019424438,5.9663262367248535,0.943505048751831,237.97657775878906,0
1591.777,-0.009140364825725555,-0.016592729836702347,4.196290774416411e-06,0.0,0.0,0.0,0.0,0.0019339508144184947,0.004378712736070156,-0.0038224656600505114,1.0005244016647339,0.0,0.0,0.0,-1.3130866289138794,5.964626789093018,0.939477801322937,237.67129516601562,0
1601.655999999999,-0.009164192713797092,-0.016628557816147804,3.1128249247558415e-05,0.0,0.0,0.0,0.0,0.0010838313028216362,0.0003684225957840681,-0.0012884814059361815,0.9994698762893677,0.0,0.0,0.0,-1.3129746913909912,5.957218170166016,0.9334900379180908,237.65103149414062,0
1611.5589999999993,-0.00916087906807661,-0.016610855236649513,5.8951824030373245e-05,0.0,0.0,0.0,0.0,-0.002827064134180546,-0.004075596109032631,-0.00018317335343454033,0.99949711561203,0.0,0.0,0.0,-1.3196067810058594,5.9611711502075195,0.9318004250526428,238.85145568847656,0
1621.4309999999987,-0.009171678684651852,-0.016630321741104126,7.501192158088088e-05,0.0,0.0,0.0,0.0,-0.0010418531019240618,-0.001331483363173902,-0.002092806389555335,0.9988672733306885,0.0,0.0,0.0,-1.311385989189148,5.966300010681152,0.9392864108085632,237.3634796142578,0
1631.324999999999,-0.009155413135886192,-0.016637925058603287,9.637675248086452e-05,0.0,0.0,0.0,0.0,-0.00014493589696940035,-0.0027996518183499575,-0.0009935703128576279,0.9999889731407166,0.0,0.0,0.0,-1.3107603788375854,5.963725566864014,0.9447832703590393,237.250244140625,0
1641.2149999999983,-0.009156838059425354,-0.01664534956216812,0.00010524989920668304,0.0,0.0,0.0,0.0,-0.002705083228647709,0.004077292513102293,0.0010065081296488643,1.001564383506775,0.0,0.0,0.0,-1.3037973642349243,5.962063789367676,0.954476535320282,235.98992919921875,0
1651.1029999999992,-0.009159551933407784,-0.016616743057966232,0.00014062658010516316,0.0,0.0,0.0,0.0,0.0012455381220206618,0.0005974472733214498,-0.004107266198843718,1.0017900466918945,0.0,0.0,0.0,-1.3097854852676392,5.974853515625,0.9500693678855896,237.07379150390625,0
1660.9869999999992,-0.009155272506177425,-0.016630927100777626,0.0001448216789867729,0.0,0.0,0.0,0.0,-0.003954366315156221,0.00023746555962134153,-0.0023400597274303436,1.0012058019638062,0.0,0.0,0.0,-1.3091858625411987,5.96527099609375,0.9484824538230896,236.9652557373047,0
1670.8779999999988,-0.00920142699033022,-0.016614576801657677,0.00016741474973969162,0.0,0.0,0.0,0.0,6.984469109738711e-06,0.001669371034950018,-0.0016629882156848907,1.00092351436615,0.0,0.0,0.0,-1.3083734512329102,5.962287425994873,0.946866512298584,236.8181915283203,0
1680.759,-0.009181572124361992,-0.016606837511062622,0.00016048262477852404,0.0,0.0,0.0,0.0,-0.0004218249814584851,-0.005759689025580883,-0.002412224654108286,1.0017856359481812,0.0,0.0,0.0,-1.3067405223846436,5.953537940979004,0.9399054646492004,236.5226287841797,0
1690.652,-0.009200254455208778,-0.01658630557358265,0.0001954269828274846,0.0,0.0,0.0,0.0,-0.0009986914228647947,-0.004264899995177984,-0.002721692668274045,1.0013622045516968,0.0,0.0,0.0,-1.3054797649383545,5.950662612915039,0.9555321335792542,236.29444885253906,0
1700.527,-0.009134731255471706,-0.016543284058570862,0.00014093397476244718,0.0,0.0,0.0,0.0,-0.0013237901730462909,-0.006043652538210154,-0.0006492366665042937,1.0000251531600952,0.0,0.0,0.0,-1.3043195009231567,5.9493513107299805,0.9656105637550354,236.0844268798828,0
1710.4179999999997,-0.009198726154863834,-0.016551245003938675,0.00014894414925947785,0.0,0.0,0.0,0.0,0.003972685895860195,-0.0014472129987552762,-0.0012234507594257593,0.9994739890098572,0.0,0.0,0.0,-1.3022726774215698,5.949878215789795,0.9825307130813599,235.7139434814453,0
1720.2999999999993,-0.009123348630964756,-0.01650973968207836,7.811297109583393e-05,0.0,0.0,0.0,0.0,-0.0009392912616021931,0.004104225896298885,-0.0008187542553059757,0.9993488192558289,0.0,0.0,0.0,-1.3019025325775146,5.9416890144348145,0.9818549156188965,235.64695739746094,0
1730.2079999999987,-0.009142718277871609,-0.016534311696887016,8.86632114998065e-05,0.0,0.0,0.0,0.0,0.0003744210407603532,-0.004933942575007677,0.0026746189687401056,1.0002458095550537,0.0,0.0,0.0,-1.3087422847747803,5.945549011230469,0.9707741141319275,236.88494873046875,0
1740.0809999999983,-0.009088190272450447,-0.01652146503329277,3.537618613336235e-05,0.0,0.0,0.0,0.0,-0.0025740284472703934,-0.0013106275582686067,1.0672471944417339e-05,0.9987836480140686,0.0,0.0,0.0,-1.306296706199646,5.9406232833862305,0.9786310195922852,236.4423065185547,0
1749.9759999999987,-0.009132389910519123,-0.01652887463569641,4.084061220055446e-05,0.0,0.0,0.0,0.0,-0.0016950747231021523,0.005422261077910662,0.00015023698506411165,1.0002808570861816,0.0,0.0,0.0,-1.3125066757202148,5.942468643188477,0.9732199311256409,237.56631469726562,0
1759.8599999999988,-0.009108196943998337,-0.016527581959962845,1.980520573852118e-05,0.0,0.0,0.0,0.0,-0.00023861051886342466,0.004798619542270899,0.002225864212960005,0.9994604587554932,0.0,0.0,0.0,-1.3115689754486084,5.936442852020264,0.9570244550704956,237.3966064453125,0
1769.7399999999998,-0.009127571247518063,-0.016541264951229095,2.8163729439256713e-05,0.0,0.0,0.0,0.0,-0.0022418496664613485,-0.002804621821269393,-0.0001239539560629055,0.9988029599189758,0.0,0.0,0.0,-1.3159223794937134,5.935540676116943,0.9403683543205261,238.1845703125,0
1779.6279999999988,-0.009104356169700623,-0.01653429865837097,1.0370330528530758e-05,0.0,0.0,0.0,0.0,-0.004249002784490585,0.0009611311252228916,0.0007243191357702017,0.9983886480331421,0.0,0.0,0.0,-1.3149044513702393,5.932384967803955,0.9470377564430237,238.0003204345703,0
1789.5139999999992,-0.00910657923668623,-0.01658722013235092,8.613390491518658e-06,0.0,0.0,0.0,0.0,0.0018844641745090485,0.004449471365660429,-0.0007043322548270226,0.9990076422691345,0.0,0.0,0.0,-1.3132556676864624,5.929044723510742,0.9499495029449463,237.70188903808594,0
1799.4049999999988,-0.009130962193012238,-0.016630562022328377,3.524449493852444e-05,0.0,0.0,0.0,0.0,0.00027812266489490867,0.00497754430398345,0.0007141749374568462,0.9990748167037964,0.0,0.0,0.0,-1.312182068824768,5.915855407714844,0.9384145736694336,237.507568359375,0
1809.286,-0.00913496594876051,-0.01668759249150753,3.403732625884004e-05,0.0,0.0,0.0,0.0,-0.0033172257244586945,-0.0001281801814911887,-0.0013222361449152231,0.9996902346611023,0.0,0.0,0.0,-1.3104488849639893,5.9072957038879395,0.9286423921585083,237.19386291503906,0
1819.1839999999993,-0.009179465472698212,-0.01669268123805523,9.544672502670437e-05,0.0,0.0,0.0,0.0,-0.0005311387940309942,-0.008671118877828121,-0.00040368581539951265,1.001442790031433,0.0,0.0,0.0,-1.30890953540802,5.907016277313232,0.9370289444923401,236.91522216796875,0
1829.0679999999993,-0.009109732694923878,-0.016666371375322342,0.0001729981740936637,0.0,0.0,0.0,0.0,0.000261747365584597,-0.0020904706325381994,0.0028947948012501,1.0000650882720947,0.0,0.0,0.0,-1.3084601163864136,5.897079944610596,0.9528655409812927,236.83389282226562,0
1838.9470000000001,-0.009141509421169758,-0.016731800511479378,0.00022490049013867974,0.0,0.0,0.0,0.0,0.0037804008461534977,-0.0017995807575061917,-0.004033755976706743,0.9994732737541199,0.0,0.0,0.0,-1.3061813116073608,5.891787528991699,0.9617007374763489,236.42141723632812,0
1848.8329999999987,-0.009136994369328022,-0.016733191907405853,0.00026037730276584625,0.0,0.0,0.0,0.0,-0.0013043663930147886,0.00166004104539752,0.0012800396652892232,1.0016555786132812,0.0,0.0,0.0,-1.3144183158874512,5.890257358551025,0.9601903557777405,237.9123077392578,0
1858.7339999999986,-0.009132470935583115,-0.01670761965215206,0.0002898339880630374,0.0,0.0,0.0,0.0,0.0036029068287461996,-0.0021292127203196287,-0.003148948075249791,1.0012260675430298,0.0,0.0,0.0,-1.3061273097991943,5.899623394012451,0.9513298869132996,236.41162109375,0
1868.6139999999996,-0.009118152782320976,-0.01666976697742939,0.0003469693474471569,0.0,0.0,0.0,0.0,0.003992737270891666,0.0032159890979528427,0.0012936745770275593,1.0000312328338623,0.0,0.0,0.0,-1.3129807710647583,5.908175945281982,0.9508912563323975,237.65213012695312,0
1878.5,-0.009027323685586452,-0.016605980694293976,0.00027141603641211987,0.0,0.0,0.0,0.0,0.0005107236793264747,-0.001732561388053,0.002381597412750125,1.0006579160690308,0.0,0.0,0.0,-1.3108642101287842,5.895846843719482,0.9505279660224915,237.26902770996094,0
1888.3849999999984,-0.009031049907207489,-0.01665765419602394,0.000287454342469573,0.0,0.0,0.0,0.0,-0.0012768590822815895,0.001627027173526585,-0.0012755199568346143,0.9991557002067566,0.0,0.0,0.0,-1.308502435684204,5.891866683959961,0.949052631855011,236.84153747558594,0
1898.2699999999986,-0.00898844562470913,-0.016630029305815697,0.00026014415198005736,0.0,0.0,0.0,0.0,0.0020267122890800238,-0.000563350971788168,-0.0012583136558532715,0.9991527199745178,0.0,0.0,0.0,-1.3072720766067505,5.891890525817871,0.9396032094955444,236.61883544921875,0
1908.1629999999986,-0.009125271812081337,-0.016622068360447884,0.00023944629356265068,0.0,0.0,0.0,0.0,0.0004149277228862047,0.0026145398151129484,-0.0008529713959433138,0.998750627040863,0.0,0.0,0.0,-1.3131401538848877,5.896003723144531,0.9145538806915283,237.6809844970703,0
1918.0549999999985,-0.009055869653820992,-0.016570966690778732,0.000174888496985659,0.0,0.0,0.0,0.0,0.0006126162479631603,0.0012644041562452912,0.00036016234662383795,0.9998436570167542,0.0,0.0,0.0,-1.3122447729110718,5.887879848480225,0.9095464944839478,237.5189208984375,0
1927.940999999999,-0.00914247427135706,-0.016608688980340958,0.00015381835692096502,0.0,0.0,0.0,0.0,-0.0009648515260778368,0.0014596815453842282,0.003975040279328823,0.9984358549118042,0.0,0.0,0.0,-1.3109081983566284,5.879302024841309,0.8953099250793457,237.2769775390625,0
1937.815999999999,-0.009096412919461727,-0.01658293418586254,0.0001041596187860705,0.0,0.0,0.0,0.0,0.001093581086024642,0.00206160475499928,-0.002092549344524741,0.9997360110282898,0.0,0.0,0.0,-1.3084038496017456,5.872457027435303,0.8875383138656616,236.8236846923828,0
1947.7069999999985,-0.009108257479965687,-0.016579803079366684,0.00011877077486133203,0.0,0.0,0.0,0.0,0.00015792599879205227,-0.0009921633172780275,-0.0007442557835020125,0.9988533854484558,0.0,0.0,0.0,-1.3078550100326538,5.867295742034912,0.8763784766197205,236.72434997558594,0
1957.6009999999987,-0.009074343368411064,-0.016567496582865715,8.066804002737626e-05,0.0,0.0,0.0,0.0,0.0010518423514440656,0.0059957196936011314,0.0015341290272772312,0.9993886351585388,0.0,0.0,0.0,-1.306532621383667,5.8587751388549805,0.8703291416168213,236.48501586914062,0
1967.4849999999988,-0.009140865877270699,-0.0166169460862875,5.6092678278218955e-05,0.0,0.0,0.0,0.0,-0.00015207390242721885,-0.0009599445620551705,-0.0028925356455147266,1.0005271434783936,0.0,0.0,0.0,-1.3048250675201416,5.850602626800537,0.8492160439491272,236.17591857910156,0
1977.366,-0.00911990087479353,-0.01660587266087532,3.322081101941876e-05,0.0,0.0,0.0,0.0,0.0003527165681589395,0.004867342300713062,0.0032931638415902853,1.0011097192764282,0.0,0.0,0.0,-1.3037965297698975,5.84515905380249,0.8518026471138,235.98977661132812,0
1987.25,-0.009164215065538883,-0.016610275954008102,3.3861844713101164e-05,0.0,0.0,0.0,0.0,0.0006773906061425805,-0.0033309583086520433,-0.00437120208516717,1.0023722648620605,0.0,0.0,0.0,-1.3010004758834839,5.842422008514404,0.8492685556411743,235.48367309570312,0
1997.1359999999986,-0.00916321575641632,-0.0166067723184824,3.7952351704007015e-05,0.0,0.0,0.0,0.0,0.0024196140002459288,-0.004096489865332842,0.0007284364546649158,0.9989522695541382,0.0,0.0,0.0,-1.3004906177520752,5.839536190032959,0.8596338033676147,235.39138793945312,0
2007.0319999999992,-0.009153472259640694,-0.016649119555950165,4.179422467132099e-05,0.0,0.0,0.0,0.0,-0.003413242055103183,0.0014411128358915448,-0.000915050448384136,0.9961169958114624,0.0,0.0,0.0,-1.2982763051986694,5.831338882446289,0.86614590883255,234.99058532714844,0
2016.9119999999984,-0.009079709649085999,-0.016581732779741287,-3.054273111047223e-05,0.0,0.0,0.0,0.0,-0.0021295640617609024,-0.006015211809426546,-0.0011465934803709388,0.9997367858886719,0.0,0.0,0.0,-1.2965086698532104,5.8335113525390625,0.8686140179634094,234.670654296875,0
2026.7969999999987,-0.009129957295954227,-0.01658562757074833,-3.4185126423835754e-05,0.0,0.0,0.0,0.0,0.001434103469364345,0.0008707758388482034,-0.0005261944606900215,1.0007801055908203,0.0,0.0,0.0,-1.295601725578308,5.830669403076172,0.8754497170448303,234.50648498535156,0
2036.6970000000001,-0.009160560555756092,-0.01664542965590954,-1.0969003596983384e-05,0.0,0.0,0.0,0.0,0.00011248024384258315,-0.002618430880829692,0.0002533291408326477,0.9971604347229004,0.0,0.0,0.0,-1.2945059537887573,5.8216776847839355,0.8719360828399658,234.3081512451172,0
2046.5879999999997,-0.009152994491159916,-0.016673803329467773,-5.463500201585703e-06,0.0,0.0,0.0,0.0,-0.00014469934103544801,0.0012961417669430375,0.0019531836733222008,1.0005215406417847,0.0,0.0,0.0,-1.2933886051177979,5.818188667297363,0.8809752464294434,234.1059112548828,0
2056.4699999999993,-0.00908506941050291,-0.016586661338806152,-6.991190457483754e-05,0.0,0.0,0.0,0.0,-0.0007269046036526561,-0.004812600091099739,0.0016936715692281723,0.9993203282356262,0.0,0.0,0.0,-1.2918561697006226,5.814205646514893,0.8800219297409058,233.8285369873047,0
2066.352999999999,-0.009134235791862011,-0.016576461493968964,-6.839096749899909e-05,0.0,0.0,0.0,0.0,-0.0002492858038749546,0.00012148112000431865,0.0003219532663933933,1.0015090703964233,0.0,0.0,0.0,-1.2975050210952759,5.820318698883057,0.8794921040534973,234.8509979248047,0
2076.2329999999984,-0.00916524138301611,-0.016619514673948288,-3.6990670196246356e-05,0.0,0.0,0.0,0.0,0.00047949235886335373,-0.00158276641741395,-0.0008571323705837131,0.9986431002616882,0.0,0.0,0.0,-1.2964104413986206,5.8123908042907715,0.8803988695144653,234.65286254882812,0
2086.1179999999986,-0.009102512151002884,-0.016592320054769516,6.580657100130338e-06,0.0,0.0,0.0,0.0,0.004656437784433365,-0.00248819962143898,-0.0018482512095943093,0.9975801706314087,0.0,0.0,0.0,-1.3043148517608643,5.8275017738342285,0.8878870606422424,236.08358764648438,0
2096.009,-0.009086265228688717,-0.01660177856683731,-8.552547114959452e-06,0.0,0.0,0.0,0.0,-0.0006771030020900071,0.0055968123488128185,0.000891254108864814,0.9993520975112915,0.0,0.0,0.0,-1.3035929203033447,5.812402248382568,0.8909963369369507,235.9529266357422,0
2105.895999999999,-0.009097738191485405,-0.016568781808018684,1.7046540961018763e-05,0.0,0.0,0.0,0.0,0.0004326628695707768,0.0039591239765286446,0.0008609027718193829,0.9990352392196655,0.0,0.0,0.0,-1.3111716508865356,5.82319450378418,0.8773828148841858,237.32469177246094,0
2115.7879999999986,-0.009069486521184444,-0.016521232202649117,7.026801540632732e-07,0.0,0.0,0.0,0.0,0.00030999426962807775,0.002628657268360257,0.0001449776318622753,1.0007820129394531,0.0,0.0,0.0,-1.3103357553482056,5.815730571746826,0.8656337857246399,237.1733856201172,0
2125.6659999999993,-0.009087999351322651,-0.016529936343431473,1.0229057807009667e-05,0.0,0.0,0.0,0.0,-0.00047570414608344436,-0.004865542519837618,-0.0013441669289022684,1.001092553138733,0.0,0.0,0.0,-1.3157705068588257,5.822836875915527,0.8542581796646118,238.1570587158203,0
2135.5559999999987,-0.009135819971561432,-0.01661481335759163,5.722549758502282e-05,0.0,0.0,0.0,0.0,0.0015877787955105305,-0.0006882317829877138,0.006302225403487682,1.0011967420578003,0.0,0.0,0.0,-1.3149529695510864,5.815831184387207,0.8597782254219055,238.00909423828125,0
