timestamp,stateEstimate.x,stateEstimate.y,stateEstimate.z,controller.cmd_thrust,controller.cmd_roll,controller.cmd_pitch,controller.cmd_yaw,controller.r_roll,controller.r_pitch,controller.r_yaw,controller.accelz,controller.actuatorThrust,controller.roll,controller.pitch,controller.yaw,controller.rollRate,controller.pitchRate,controller.yawRate,controller.ctr_yaw
0.0,-0.005458585452288389,-0.0006556536536663771,-8.632075332570821e-05,0.0,0.0,0.0,0.0,0.002465682802721858,0.010706478729844093,0.0014296845765784383,0.9980497360229492,0.0,0.0,0.0,1.7249904870986938,8.87394905090332,0.20894794166088104,-312.2267150878906,0
9.871999999999389,-0.005518993828445673,-0.0006596297607757151,-6.114995630923659e-05,0.0,0.0,0.0,0.0,0.002241551410406828,-0.0022602849639952183,0.0006777737871743739,1.00089430809021,0.0,0.0,0.0,1.7241175174713135,8.85778522491455,0.19433467090129852,-312.0686950683594,0
19.762000000000626,-0.005449298769235611,-0.0006741784163750708,-7.060435018502176e-05,0.0,0.0,0.0,0.0,0.0001670143537921831,-0.0004411698319017887,0.00237232050858438,0.9999963045120239,0.0,0.0,0.0,1.7228513956069946,8.842232704162598,0.1966923624277115,-311.8395080566406,0
29.641999999999825,-0.00551487784832716,-0.0006551134865731001,-3.172097058268264e-05,0.0,0.0,0.0,0.0,1.834198337746784e-05,0.00047083169920369983,-0.002272253856062889,1.000065565109253,0.0,0.0,0.0,1.7207478284835815,8.831527709960938,0.19887129962444305,-311.45880126953125,0
39.53700000000026,-0.005472603254020214,-0.0007269046036526561,-2.144359314115718e-05,0.0,0.0,0.0,0.0,2.1252384613035247e-05,-0.00018256991461385041,0.002558500040322542,0.9996857643127441,0.0,0.0,0.0,1.7183961868286133,8.820258140563965,0.1931682527065277,-311.03314208984375,0
49.41899999999987,-0.005535909906029701,-0.0007184616406448185,3.847753396257758e-05,0.0,0.0,0.0,0.0,0.0019933076109737158,-0.0006059389561414719,-0.0018552783876657486,0.9994465708732605,0.0,0.0,0.0,1.7173758745193481,8.811636924743652,0.18017809092998505,-310.84844970703125,0
59.310999999999694,-0.005494727287441492,-0.0007954394677653909,5.354714812710881e-05,0.0,0.0,0.0,0.0,-0.0006197774782776833,0.0004136937786825001,0.0001674488594289869,0.9989305138587952,0.0,0.0,0.0,1.7148513793945312,8.801102638244629,0.17539045214653015,-310.3914794921875,0
69.19100000000071,-0.005515990313142538,-0.0008053944329731166,0.00012755808711517602,0.0,0.0,0.0,0.0,0.001596186077222228,0.005051072686910629,0.0029286385979503393,0.9982087016105652,0.0,0.0,0.0,1.7128368616104126,8.795807838439941,0.1759447306394577,-310.02685546875,0
79.08300000000054,-0.005376570392400026,-0.0007434827857650816,2.312365722900722e-06,0.0,0.0,0.0,0.0,0.0010822938056662679,-0.0018990932730957866,0.0006304814014583826,1.001125693321228,0.0,0.0,0.0,1.7105236053466797,8.820691108703613,0.1751006692647934,-309.6081848144531,0
88.95800000000054,-0.005423590075224638,-0.0007206315058283508,6.47404303890653e-05,0.0,0.0,0.0,0.0,-0.003424095455557108,-0.004725352860987186,-5.6045755627565086e-05,1.0020123720169067,0.0,0.0,0.0,1.7088027000427246,8.812646865844727,0.18063704669475555,-309.29669189453125,0
98.85200000000077,-0.00538139883428812,-0.0007922447985038161,8.033484482439235e-05,0.0,0.0,0.0,0.0,0.001509403227828443,0.0013473910512402654,0.0026937213260680437,1.0024360418319702,0.0,0.0,0.0,1.7058168649673462,8.809345245361328,0.18081910908222198,-308.7562561035156,0
108.73099999999977,-0.005527209490537643,-0.0007817992009222507,0.00013776388368569314,0.0,0.0,0.0,0.0,0.0005195148987695575,0.0006536104483529925,-0.0004934248863719404,1.0010159015655518,0.0,0.0,0.0,1.7059423923492432,8.799432754516602,0.1883804351091385,-308.7789611816406,0
118.6319999999996,-0.005391939543187618,-0.0007120672962628305,2.9685865229112096e-05,0.0,0.0,0.0,0.0,0.001667026081122458,-0.002528840210288763,-0.0005134411621838808,1.0010777711868286,0.0,0.0,0.0,1.7091076374053955,8.824106216430664,0.19212324917316437,-309.35186767578125,0
128.50400000000081,-0.005512632429599762,-0.0006906383787281811,5.875567876501009e-05,0.0,0.0,0.0,0.0,-0.0004939704085700214,0.0025059350300580263,0.0029797726310789585,1.0006866455078125,0.0,0.0,0.0,1.7074886560440063,8.812337875366211,0.20025454461574554,-309.058837890625,0
138.40300000000025,-0.0054398649372160435,-0.000706804043147713,4.237486427882686e-05,0.0,0.0,0.0,0.0,-0.00015418579278048128,-5.476298611029051e-06,-0.00019715882081072778,1.0006674528121948,0.0,0.0,0.0,1.7148606777191162,8.813790321350098,0.20240603387355804,-310.3931579589844,0
148.27599999999984,-0.005525472108274698,-0.0006889833603054285,7.908744009910151e-05,0.0,0.0,0.0,0.0,-0.002439151518046856,-0.005887157283723354,0.0005335418391041458,1.0018644332885742,0.0,0.0,0.0,1.7127001285552979,8.806838989257812,0.19693969190120697,-310.00213623046875,0
158.17000000000007,-0.005408891476690769,-0.0006450691726058722,2.7584897907217965e-05,0.0,0.0,0.0,0.0,0.0011246352223679423,-0.005644327960908413,0.0011090997140854597,1.0008379220962524,0.0,0.0,0.0,1.71146821975708,8.797789573669434,0.19412025809288025,-309.7791442871094,0
168.0490000000009,-0.005511010065674782,-0.0006328060990199447,5.662185503751971e-05,0.0,0.0,0.0,0.0,0.003403490176424384,0.00046532717533409595,-0.001094780396670103,0.9988495111465454,0.0,0.0,0.0,1.7095125913619995,8.786197662353516,0.2023361176252365,-309.4251708984375,0
177.94700000000012,-0.005396396853029728,-0.0005844675470143557,1.4952311175875366e-05,0.0,0.0,0.0,0.0,0.0012362232664600015,-0.00023741889162920415,-0.0016595068154856563,1.0012402534484863,0.0,0.0,0.0,1.7081053256988525,8.774578094482422,0.201135516166687,-309.1704406738281,0
187.82200000000012,-0.0054952604696154594,-0.0005752242868766189,3.940294118365273e-05,0.0,0.0,0.0,0.0,-0.0008288794197142124,0.0032637438271194696,0.003623178694397211,1.002173900604248,0.0,0.0,0.0,1.7005146741867065,8.77965259552002,0.1796828806400299,-307.7965393066406,0
197.72800000000097,-0.005406451877206564,-0.0005889513995498419,1.1011444257746916e-05,0.0,0.0,0.0,0.0,0.0020492810290306807,0.00010243438009638339,0.0002320686908205971,0.9985045790672302,0.0,0.0,0.0,1.6994054317474365,8.77068042755127,0.16784147918224335,-307.59576416015625,0
207.59599999999955,-0.005498277489095926,-0.0005928826285526156,3.194595774402842e-05,0.0,0.0,0.0,0.0,0.0023939330130815506,-0.0013280424755066633,-0.0016647535376250744,0.9997242093086243,0.0,0.0,0.0,1.6975221633911133,8.75674057006836,0.17337311804294586,-307.2548828125,0
217.48899999999958,-0.005400456488132477,-0.00059614481870085,1.2213237141622812e-06,0.0,0.0,0.0,0.0,-0.0035890345461666584,-0.00021730424487031996,-0.00034039662568829954,1.001339316368103,0.0,0.0,0.0,1.6965266466140747,8.745141983032227,0.17704398930072784,-307.07470703125,0
227.3680000000004,-0.0055082025937736034,-0.0005902174743823707,2.336893703613896e-05,0.0,0.0,0.0,0.0,-0.003080854658037424,-0.011109920218586922,0.004004215821623802,1.0017879009246826,0.0,0.0,0.0,1.6937822103500366,8.741971969604492,0.17289413511753082,-306.57794189453125,0
237.26400000000103,-0.005429781507700682,-0.0005963224684819579,2.5891698896884918e-05,0.0,0.0,0.0,0.0,0.0005206949426792562,0.0026497032959014177,0.003165491158142686,0.9994190335273743,0.0,0.0,0.0,1.7030695676803589,8.746658325195312,0.19916215538978577,-308.25897216796875,0
247.14099999999962,-0.005507358815521002,-0.0006038304418325424,5.277459058561362e-05,0.0,0.0,0.0,0.0,-0.0013334201648831367,-0.003437669249251485,0.0008846824057400227,1.0007177591323853,0.0,0.0,0.0,1.701777696609497,8.737868309020996,0.2019852101802826,-308.025146484375,0
257.03700000000026,-0.005401986185461283,-0.0006062448373995721,1.764344960974995e-05,0.0,0.0,0.0,0.0,-0.0025194864720106125,-0.001310640131123364,0.0004925953689962626,1.0012917518615723,0.0,0.0,0.0,1.700622320175171,8.73427677154541,0.20913276076316833,-307.8160095214844,0
266.91300000000047,-0.005496043246239424,-0.000608591886702925,4.0367667679674923e-05,0.0,0.0,0.0,0.0,0.0011776238679885864,-0.0020889556035399437,0.0008616095292381942,1.0011284351348877,0.0,0.0,0.0,1.699352741241455,8.727775573730469,0.20450511574745178,-307.5862121582031,0
276.8170000000009,-0.0054469360038638115,-0.0006893778918311,5.7431068853475153e-05,0.0,0.0,0.0,0.0,8.677769801579416e-05,0.0021015263628214598,0.0007355203269980848,0.9999057650566101,0.0,0.0,0.0,1.6975857019424438,8.723857879638672,0.21095414459705353,-307.2663879394531,0
286.6949999999997,-0.005494078621268272,-0.000711314263753593,0.00011014875781256706,0.0,0.0,0.0,0.0,-0.0008841227390803397,0.001629096339456737,-0.0008501404663547873,0.9992882609367371,0.0,0.0,0.0,1.704904317855835,8.734002113342285,0.1888410747051239,-308.5910949707031,0
296.58300000000054,-0.005365918390452862,-0.0006852878141216934,4.0185761463362724e-05,0.0,0.0,0.0,0.0,0.001542156096547842,0.010672560892999172,0.0007331661181524396,0.9989181160926819,0.0,0.0,0.0,1.7047702074050903,8.728738784790039,0.18216155469417572,-308.5668029785156,0
306.46600000000035,-0.00546151353046298,-0.0006765371654182673,7.707560143899173e-05,0.0,0.0,0.0,0.0,0.0017822668887674809,0.003061494091525674,0.0012987226946279407,1.001476526260376,0.0,0.0,0.0,1.7034132480621338,8.721500396728516,0.16240812838077545,-308.32122802734375,0
316.35699999999997,-0.005354379303753376,-0.0006782658165320754,2.848829717549961e-05,0.0,0.0,0.0,0.0,0.00021693990856874734,-0.00013453119026962668,-0.0040457178838551044,1.0013487339019775,0.0,0.0,0.0,1.7018142938613892,8.709115028381348,0.15410855412483215,-308.0317687988281,0
326.2379999999994,-0.005502327810972929,-0.0006566342199221253,4.6470984671032056e-05,0.0,0.0,0.0,0.0,-0.001572716748341918,-0.008041995577514172,0.000982913887128234,0.9972702860832214,0.0,0.0,0.0,1.6994287967681885,8.70312786102295,0.1535530686378479,-307.5999755859375,0
336.134,-0.005375400651246309,-0.0006003277376294136,-5.586721727013355e-06,0.0,0.0,0.0,0.0,0.0013338688295334578,0.003780821803957224,-0.002331322990357876,0.9995574355125427,0.0,0.0,0.0,1.7075743675231934,8.72890853881836,0.18079163134098053,-309.0743713378906,0
346.0079999999998,-0.005488006863743067,-0.0006084708729758859,-4.8167016757361125e-06,0.0,0.0,0.0,0.0,0.0005199125735089183,-0.0003308529849164188,0.0014083620626479387,1.001534342765808,0.0,0.0,0.0,1.7054145336151123,8.720749855041504,0.181552916765213,-308.68341064453125,0
355.90099999999984,-0.005443085450679064,-0.0006832287763245404,2.8019826459058095e-06,0.0,0.0,0.0,0.0,0.000377252756152302,-0.0022521805949509144,0.0011673724511638284,0.9996399283409119,0.0,0.0,0.0,1.7040650844573975,8.709051132202148,0.17321139574050903,-308.439208984375,0
365.78100000000086,-0.0054875523783266544,-0.0006742420955561101,6.706311251036823e-05,0.0,0.0,0.0,0.0,0.0016384526388719678,-0.006001693196594715,-0.00013620912795886397,0.9995413422584534,0.0,0.0,0.0,1.7027863264083862,8.696660995483398,0.18049141764640808,-308.20770263671875,0
375.6750000000011,-0.005321167409420013,-0.000600016734097153,-6.95318085490726e-05,0.0,0.0,0.0,0.0,-0.00011340753553668037,-0.007179706357419491,0.0002754958113655448,0.9999854564666748,0.0,0.0,0.0,1.7099658250808716,8.723258972167969,0.22235508263111115,-309.5072021484375,0
385.5519999999997,-0.005417653359472752,-0.0005934026557952166,-5.3115294576855376e-05,0.0,0.0,0.0,0.0,-0.001574649941176176,0.0026085933204740286,-0.0006668422720395029,0.9991255402565002,0.0,0.0,0.0,1.7081629037857056,8.716954231262207,0.22744818031787872,-309.180908203125,0
395.45100000000093,-0.005296746268868446,-0.0005709067918360233,-0.00012677692575380206,0.0,0.0,0.0,0.0,-0.0003315439389552921,0.004713723435997963,-0.000908511457964778,1.0014147758483887,0.0,0.0,0.0,1.7121670246124268,8.736541748046875,0.2358463555574417,-309.9056396484375,0
405.3269999999993,-0.0054029556922614574,-0.0005583700840361416,-0.0001212521456182003,0.0,0.0,0.0,0.0,0.001543383114039898,0.0029074118938297033,0.00020102350390516222,1.0001962184906006,0.0,0.0,0.0,1.7197680473327637,8.74637508392334,0.2038114070892334,-311.28143310546875,0
415.22099999999955,-0.005296769086271524,-0.0005609877989627421,-0.0001748978829709813,0.0,0.0,0.0,0.0,-0.00017152095097117126,-9.492417302681133e-05,-0.00044497515773400664,1.0010056495666504,0.0,0.0,0.0,1.7251605987548828,8.744553565979004,0.21056021749973297,-312.2574768066406,0
425.10200000000077,-0.005397132597863674,-0.0005356287001632154,-0.0001617431698832661,0.0,0.0,0.0,0.0,-0.0020384984090924263,-0.002113162772729993,-2.235641204606509e-06,0.9978512525558472,0.0,0.0,0.0,1.7300655841827393,8.75612735748291,0.18314610421657562,-313.14532470703125,0
435.0030000000006,-0.005297182593494654,-0.0005279157776385546,-0.00020290074462536722,0.0,0.0,0.0,0.0,0.0009256760240532458,0.0044081020168960094,-0.0014030494494363666,1.0013476610183716,0.0,0.0,0.0,1.740963339805603,8.765666961669922,0.19909055531024933,-315.1178283691406,0
444.8719999999994,-0.00542565668001771,-0.000521030742675066,-0.0002126415929524228,0.0,0.0,0.0,0.0,0.0009366928716190159,0.0017975906375795603,0.0013720275601372123,1.0023690462112427,0.0,0.0,0.0,1.738594889640808,8.755876541137695,0.1947956532239914,-314.68914794921875,0
454.77100000000064,-0.005395856685936451,-0.000613225216511637,-0.00019545105169527233,0.0,0.0,0.0,0.0,-0.002086811466142535,-0.001389056327752769,-0.000970471475739032,1.0006160736083984,0.0,0.0,0.0,1.7371017932891846,8.7449312210083,0.18671473860740662,-314.41888427734375,0
464.64600000000064,-0.005526023451238871,-0.0005601223674602807,-0.00015745824202895164,0.0,0.0,0.0,0.0,0.0020571884233504534,0.0003657318011391908,-0.0017053480260074139,0.999642550945282,0.0,0.0,0.0,1.735556721687317,8.739930152893066,0.19267979264259338,-314.13922119140625,0
474.5400000000009,-0.005462320521473885,-0.000608363188803196,-0.00016598081856500357,0.0,0.0,0.0,0.0,8.251201506936923e-05,-0.00361390458419919,-0.0024164507631212473,0.9985954165458679,0.0,0.0,0.0,1.7336386442184448,8.721733093261719,0.188265860080719,-313.79205322265625,0
484.4150000000009,-0.005516280420124531,-0.0005890536704100668,-0.0001222394494106993,0.0,0.0,0.0,0.0,0.00022227565932553262,0.0058695608749985695,0.0005104049341753125,0.9974482655525208,0.0,0.0,0.0,1.7323172092437744,8.718300819396973,0.19718238711357117,-313.5528564453125,0
494.3109999999997,-0.0054764216765761375,-0.000645699561573565,-9.42810220294632e-05,0.0,0.0,0.0,0.0,0.001832924084737897,0.0041205016896128654,0.002565193921327591,1.0012675523757935,0.0,0.0,0.0,1.7313426733016968,8.712713241577148,0.19019116461277008,-313.37646484375,0
504.1949999999997,-0.00552980275824666,-0.0006389300688169897,-5.381051596486941e-05,0.0,0.0,0.0,0.0,0.0014477703953161836,0.006442478392273188,-0.0004480645293369889,1.001564621925354,0.0,0.0,0.0,1.7293881177902222,8.70103931427002,0.1795365959405899,-313.022705078125,0
514.0859999999993,-0.005434778984636068,-0.0006526441429741681,-8.282958151539788e-05,0.0,0.0,0.0,0.0,0.0008877196232788265,0.0014184933388605714,0.0023609111085534096,1.0012274980545044,0.0,0.0,0.0,1.7268840074539185,8.689314842224121,0.16203011572360992,-312.5694274902344,0
523.9619999999995,-0.00554636400192976,-0.0006194321322254837,-3.656029002740979e-05,0.0,0.0,0.0,0.0,0.0025888648815453053,-0.00551066966727376,-0.0005450673634186387,1.0006093978881836,0.0,0.0,0.0,1.726033091545105,8.678380012512207,0.16221189498901367,-312.4154052734375,0
533.857,-0.0054842811077833176,-0.0006581182242371142,-2.392804526607506e-05,0.0,0.0,0.0,0.0,0.0014083782443776727,-0.0012782146222889423,-0.003613228676840663,0.9990577697753906,0.0,0.0,0.0,1.7243931293487549,8.661407470703125,0.16067032516002655,-312.1185607910156,0
543.7350000000006,-0.005540671292692423,-0.0006803168798796833,6.112500159360934e-06,0.0,0.0,0.0,0.0,-0.000953919196035713,0.00013006964582018554,-0.0007323387544602156,0.9994896054267883,0.0,0.0,0.0,1.7212289571762085,8.647370338439941,0.1738392859697342,-311.5458679199219,0
553.6350000000002,-0.005435040220618248,-0.000679686083458364,-2.6622126824804582e-05,0.0,0.0,0.0,0.0,0.0008991307113319635,-0.004314873367547989,-0.0008977336110547185,1.0017095804214478,0.0,0.0,0.0,1.7196643352508545,8.637258529663086,0.17173926532268524,-311.2626953125,0
563.509,-0.005485387519001961,-0.000708631647285074,-1.3392744904194842e-06,0.0,0.0,0.0,0.0,-0.0030907101463526487,-0.002440272131934762,0.004524430725723505,1.0028868913650513,0.0,0.0,0.0,1.718555212020874,8.629131317138672,0.17966590821743011,-311.06195068359375,0
573.4079999999994,-0.005379954352974892,-0.0007084063836373389,-2.555056198616512e-05,0.0,0.0,0.0,0.0,0.0031831390224397182,0.005009795073419809,-0.002888296265155077,1.0011353492736816,0.0,0.0,0.0,1.718095064163208,8.628345489501953,0.1756172925233841,-310.9786376953125,0
583.2800000000007,-0.00546438992023468,-0.0007266237516887486,8.811243787931744e-07,0.0,0.0,0.0,0.0,0.0013351329835131764,0.00029268793878145516,0.0017569767078384757,0.9995816946029663,0.0,0.0,0.0,1.7158846855163574,8.617894172668457,0.16331176459789276,-310.57855224609375,0
593.1750000000011,-0.005305583123117685,-0.0006618842598982155,-7.393809937639162e-05,0.0,0.0,0.0,0.0,-0.0007148893200792372,0.0005224696942605078,-0.0005970908678136766,1.0014530420303345,0.0,0.0,0.0,1.715234637260437,8.6103515625,0.16389307379722595,-310.46087646484375,0
603.0509999999995,-0.005410750862210989,-0.0006513973348774016,-3.9467540773330256e-05,0.0,0.0,0.0,0.0,-0.0025765798054635525,-0.008422570303082466,0.0017347759567201138,1.000334620475769,0.0,0.0,0.0,1.7135422229766846,8.606673240661621,0.16162681579589844,-310.154541015625,0
612.9519999999993,-0.005293641705065966,-0.000610600458458066,-6.473956455010921e-05,0.0,0.0,0.0,0.0,0.0010315801482647657,-0.0036056358367204666,0.0002983945596497506,0.9983325004577637,0.0,0.0,0.0,1.7224938869476318,8.628804206848145,0.18943211436271667,-311.7748107910156,0
622.8240000000005,-0.005409473553299904,-0.0006054596742615104,-3.872544039040804e-05,0.0,0.0,0.0,0.0,-0.0009851458016783,-0.0016571704763919115,-0.0006125436630100012,1.0008355379104614,0.0,0.0,0.0,1.7205835580825806,8.621220588684082,0.19955095648765564,-311.4290466308594,0
632.7209999999995,-0.005358162336051464,-0.000693931826390326,-2.4518172722309828e-05,0.0,0.0,0.0,0.0,0.0032307656947523355,-0.0008458115626126528,0.0003641787334345281,1.0004254579544067,0.0,0.0,0.0,1.7182633876800537,8.616415977478027,0.19064326584339142,-311.00909423828125,0
642.598,-0.005491859745234251,-0.0006899351137690246,3.127847594441846e-05,0.0,0.0,0.0,0.0,0.0020592452492564917,0.0009830356575548649,0.004063669592142105,1.000658392906189,0.0,0.0,0.0,1.716829776763916,8.60634708404541,0.1931035816669464,-310.7496032714844,0
652.4920000000002,-0.0054424297995865345,-0.0007795401033945382,5.056244117440656e-05,0.0,0.0,0.0,0.0,-0.0014856021152809262,-0.0018431510543450713,-0.004718867130577564,0.9994312524795532,0.0,0.0,0.0,1.7154220342636108,8.59814739227295,0.1855696439743042,-310.49481201171875,0
662.3700000000008,-0.0055439961142838,-0.0007953453459776938,0.00011975543748121709,0.0,0.0,0.0,0.0,-0.001015122514218092,-0.0001570973254274577,0.000620722770690918,0.9995653629302979,0.0,0.0,0.0,1.7131423950195312,8.589981079101562,0.1736636757850647,-310.0821533203125,0
672.2700000000004,-0.005406985525041819,-0.0007299645803868771,4.127886495552957e-05,0.0,0.0,0.0,0.0,0.0024735345505177975,0.00567401060834527,0.0026352605782449245,0.9959943890571594,0.0,0.0,0.0,1.7211588621139526,8.635618209838867,0.19090208411216736,-311.533203125,0
682.1419999999998,-0.00557665154337883,-0.0007038601324893534,7.002482743700966e-05,0.0,0.0,0.0,0.0,0.0005470444448292255,0.005184866022318602,0.001612083986401558,0.9991405606269836,0.0,0.0,0.0,1.7219947576522827,8.658315658569336,0.1487991362810135,-311.6844787597656,0
692.0370000000003,-0.005530869588255882,-0.0007906922837719321,8.593065285822377e-05,0.0,0.0,0.0,0.0,-0.0014557710383087397,-0.00440139789134264,-0.0015599563485011458,1.000591516494751,0.0,0.0,0.0,1.7207014560699463,8.646918296813965,0.13317836821079254,-311.4504089355469,0
701.9150000000009,-0.005583848338574171,-0.0007937136688269675,0.00015403205179609358,0.0,0.0,0.0,0.0,0.0011796705657616258,0.0077170999720692635,-0.0006999101606197655,0.9995001554489136,0.0,0.0,0.0,1.718418002128601,8.639440536499023,0.14780399203300476,-311.037109375,0
711.8090000000011,-0.005423780996352434,-0.0007247075554914773,2.5564429961377755e-05,0.0,0.0,0.0,0.0,-0.0028399324510246515,-0.0008064500289037824,0.0026903306134045124,1.0007460117340088,0.0,0.0,0.0,1.7194974422454834,8.674755096435547,0.1624859720468521,-311.2324523925781,0
721.6890000000003,-0.005531182046979666,-0.0007148090517148376,5.4210624512052163e-05,0.0,0.0,0.0,0.0,0.0007495895843021572,-0.0020815718453377485,-0.0030723128002136946,0.9986775517463684,0.0,0.0,0.0,1.7183666229248047,8.674639701843262,0.15958215296268463,-311.0278015136719,0
731.5879999999997,-0.005408815108239651,-0.0007003459613770247,-1.1241068023082335e-05,0.0,0.0,0.0,0.0,-0.0011161781148985028,2.4194217985495925e-05,0.002443878445774317,0.9979357719421387,0.0,0.0,0.0,1.7155895233154297,8.667564392089844,0.16682873666286469,-310.5251159667969,0
741.4609999999993,-0.0055128466337919235,-0.0007015566225163639,1.3396902431850322e-06,0.0,0.0,0.0,0.0,0.0002638312871567905,0.0039204880595207214,-0.0014501734403893352,0.9991535544395447,0.0,0.0,0.0,1.7149773836135864,8.662420272827148,0.16857342422008514,-310.414306640625,0
751.3610000000008,-0.005463269539177418,-0.0007858352037146688,7.567036846012343e-06,0.0,0.0,0.0,0.0,-0.0006399318808689713,1.0871108315768652e-05,0.00022782693849876523,1.0001591444015503,0.0,0.0,0.0,1.712846040725708,8.65276050567627,0.16150644421577454,-310.0285339355469,0
761.2350000000006,-0.005546453408896923,-0.0007767282659187913,6.48351851850748e-05,0.0,0.0,0.0,0.0,0.00013912182475905865,-0.0017197858542203903,0.0019318752456456423,1.0008907318115234,0.0,0.0,0.0,1.7108572721481323,8.643655776977539,0.15161655843257904,-309.6685485839844,0
771.1409999999996,-0.005379097536206245,-0.0006713886978104711,-5.129343117005192e-05,0.0,0.0,0.0,0.0,-0.0014567180769518018,-0.0031431682873517275,0.0008498913375660777,0.9978120923042297,0.0,0.0,0.0,1.720641851425171,8.688342094421387,0.18424579501152039,-311.4396057128906,0
781.0059999999994,-0.005454527214169502,-0.0006641533109359443,-2.2712943973601796e-05,0.0,0.0,0.0,0.0,0.0028490221593528986,0.0005316072492860258,0.0003808937326539308,0.9997873306274414,0.0,0.0,0.0,1.7195426225662231,8.679136276245117,0.18722622096538544,-311.2406311035156,0
790.9050000000007,-0.005307395942509174,-0.0006056295824237168,-0.00011639510921668261,0.0,0.0,0.0,0.0,-0.0016477379249408841,0.005711518228054047,-0.0005920782568864524,0.9994457364082336,0.0,0.0,0.0,1.732688069343567,8.701504707336426,0.20486055314540863,-313.6199951171875,0
800.7790000000005,-0.005420515313744545,-0.0006181765929795802,-0.00013018464960623533,0.0,0.0,0.0,0.0,0.0005497122183442116,0.005275131668895483,-0.0006918024737387896,1.0026968717575073,0.0,0.0,0.0,1.7302579879760742,8.697824478149414,0.1935463845729828,-313.1801452636719,0
810.6730000000007,-0.005309277679771185,-0.0006126547232270241,-0.00018752727191895247,0.0,0.0,0.0,0.0,-0.001248738495633006,0.00130662159062922,0.0012044365284964442,1.0000168085098267,0.0,0.0,0.0,1.7278779745101929,8.683673858642578,0.18878012895584106,-312.7493591308594,0
820.5519999999997,-0.00541698606684804,-0.00060312170535326,-0.00017759673937689513,0.0,0.0,0.0,0.0,0.0009471955709159374,0.006463923957198858,-0.0032574255019426346,0.999466061592102,0.0,0.0,0.0,1.726983904838562,8.675371170043945,0.1827676147222519,-312.5875244140625,0
830.4510000000009,-0.0053487978875637054,-0.0006490955129265785,-0.0001937501656357199,0.0,0.0,0.0,0.0,-0.0037493810523301363,0.0006478891591541469,0.00016612705076113343,1.0009266138076782,0.0,0.0,0.0,1.7321665287017822,8.672135353088379,0.1768673211336136,-313.5256042480469,0
840.3330000000005,-0.005430316552519798,-0.0006563263013958931,-0.00017901395040098578,0.0,0.0,0.0,0.0,-0.00014596604160033166,-0.005074669141322374,0.0001243018778041005,1.000832200050354,0.0,0.0,0.0,1.7311277389526367,8.669902801513672,0.17404428124427795,-313.3375549316406,0
850.219000000001,-0.005410169716924429,-0.0007617591763846576,-0.00014393433229997754,0.0,0.0,0.0,0.0,0.0016004538629204035,0.0016672509955242276,0.0013818213483318686,1.0002124309539795,0.0,0.0,0.0,1.7398138046264648,8.655652046203613,0.17533856630325317,-314.9097595214844,0
860.098,-0.005487589165568352,-0.0007288960041478276,-8.49264906719327e-05,0.0,0.0,0.0,0.0,0.0023097561206668615,0.0009867197368294,-0.0007937608752399683,0.9989598393440247,0.0,0.0,0.0,1.7378679513931274,8.649297714233398,0.1784059852361679,-314.5575866699219,0
869.991,-0.005393952131271362,-0.0007434370927512646,-0.00011028320295736194,0.0,0.0,0.0,0.0,-0.0013900999911129475,-0.002477866131812334,-0.004823182709515095,0.9979061484336853,0.0,0.0,0.0,1.735869288444519,8.639512062072754,0.17400313913822174,-314.1958312988281,0
879.871000000001,-0.005513371899724007,-0.000705402169842273,-5.978078843327239e-05,0.0,0.0,0.0,0.0,0.0029768941458314657,0.007086465135216713,0.0016240201657637954,0.9976942539215088,0.0,0.0,0.0,1.7339578866958618,8.632190704345703,0.19297148287296295,-313.8498229980469,0
889.7690000000002,-0.00538899190723896,-0.0006557080196216702,-0.00010591393220238388,0.0,0.0,0.0,0.0,-0.0013772816164419055,0.0033816765062510967,-0.0018945670453831553,1.0003340244293213,0.0,0.0,0.0,1.733019232749939,8.620637893676758,0.1751112937927246,-313.679931640625,0
899.6440000000002,-0.005504161585122347,-0.0006388406618498266,-7.276885298779234e-05,0.0,0.0,0.0,0.0,0.002235210034996271,-0.004926379770040512,0.0019097276963293552,1.000656247138977,0.0,0.0,0.0,1.73092782497406,8.618612289428711,0.16502678394317627,-313.3013610839844,0
909.5370000000003,-0.00540225999429822,-0.0006502227042801678,-0.00011885635467479005,0.0,0.0,0.0,0.0,-0.002730397507548332,-0.00016273086657747626,0.0015160253969952464,1.00142502784729,0.0,0.0,0.0,1.739783525466919,8.62838363647461,0.18401353061199188,-314.9042663574219,0
919.4160000000011,-0.00546379666775465,-0.0006535080610774457,-7.788628863636404e-05,0.0,0.0,0.0,0.0,0.0005735974409617484,0.00012495963892433792,0.0029102724511176348,0.9989311695098877,0.0,0.0,0.0,1.7454060316085815,8.646117210388184,0.17727886140346527,-315.9219665527344,0
929.3109999999997,-0.005351505242288113,-0.0006183073855936527,-0.00010927754192380235,0.0,0.0,0.0,0.0,3.161462882417254e-05,0.0017657486023381352,-0.00012233079178258777,0.9992605447769165,0.0,0.0,0.0,1.754395842552185,8.665875434875488,0.18570807576179504,-317.54913330078125,0
939.1910000000007,-0.005481913685798645,-0.0005989670753479004,-7.748117786832154e-05,0.0,0.0,0.0,0.0,-0.0006529644597321749,0.0016215108335018158,-0.002663856605067849,0.9997575283050537,0.0,0.0,0.0,1.7465189695358276,8.686872482299805,0.15708863735198975,-316.1234130859375,0
949.0900000000001,-0.005405099596828222,-0.000637498393189162,-9.260659135179594e-05,0.0,0.0,0.0,0.0,-0.0006609848933294415,0.0009911751840263605,-0.0020696015562862158,0.9978450536727905,0.0,0.0,0.0,1.7433959245681763,8.67910385131836,0.14448308944702148,-315.5581359863281,0
958.9629999999997,-0.005506529007107019,-0.0006598133477382362,-7.685233140364289e-05,0.0,0.0,0.0,0.0,-0.0016417719889432192,0.002536837477236986,0.0028710239566862583,0.9977647066116333,0.0,0.0,0.0,1.7416605949401855,8.67073917388916,0.13214530050754547,-315.2440185546875,0
968.8580000000002,-0.005412117578089237,-0.0006702824612148106,-0.00010831451072590426,0.0,0.0,0.0,0.0,-0.00015374763461295515,0.0024960211012512445,0.003845937317237258,0.9984490275382996,0.0,0.0,0.0,1.7465133666992188,8.687444686889648,0.14063270390033722,-316.12237548828125,0
978.7469999999994,-0.005505644716322422,-0.0006744050187990069,-7.925742102088407e-05,0.0,0.0,0.0,0.0,0.000546797295100987,-0.0016302344156429172,-0.001496013137511909,0.9998598098754883,0.0,0.0,0.0,1.7457889318466187,8.682040214538574,0.13995173573493958,-315.9912414550781,0
988.6409999999996,-0.005413995590060949,-0.0006894075777381659,-0.00010829261009348556,0.0,0.0,0.0,0.0,-0.0022928935941308737,-0.005553070455789566,0.00012933801917824894,0.9975922107696533,0.0,0.0,0.0,1.7436474561691284,8.672659873962402,0.14790549874305725,-315.6036376953125,0
998.5069999999996,-0.005509087350219488,-0.0006843011360615492,-7.140444358810782e-05,0.0,0.0,0.0,0.0,0.00102991855237633,-0.0014764227671548724,0.0016661827685311437,0.9992534518241882,0.0,0.0,0.0,1.7415063381195068,8.666695594787598,0.15525878965854645,-315.2160949707031,0
1008.4070000000011,-0.005445877090096474,-0.0007183816051110625,-6.049289368093014e-05,0.0,0.0,0.0,0.0,0.0014409085270017385,-0.0027571104001253843,-0.00020122493151575327,1.0010439157485962,0.0,0.0,0.0,1.7410709857940674,8.657075881958008,0.15949827432632446,-315.1373291015625,0
1018.2800000000007,-0.005528839770704508,-0.0007122747483663261,-1.4830761756456923e-05,0.0,0.0,0.0,0.0,-0.0007547595305368304,-0.00010957843187497929,0.00018011420615948737,1.000360369682312,0.0,0.0,0.0,1.7384530305862427,8.649145126342773,0.16349200904369354,-314.6634826660156,0
1028.1769999999997,-0.005439224187284708,-0.0007109607686288655,-1.900311508507002e-05,0.0,0.0,0.0,0.0,-0.004153282847255468,0.004481144715100527,0.0009139500907622278,0.9994816184043884,0.0,0.0,0.0,1.7379379272460938,8.64282512664795,0.16485215723514557,-314.57025146484375,0
1038.0609999999997,-0.005503213964402676,-0.0007043984369374812,3.933535481337458e-05,0.0,0.0,0.0,0.0,0.0015960304299369454,-0.0026580917183309793,-0.004086631815880537,1.0008399486541748,0.0,0.0,0.0,1.7369242906570435,8.644545555114746,0.1588018536567688,-314.3867492675781,0
1047.9470000000001,-0.005454676691442728,-0.0008173732203431427,5.045627767685801e-05,0.0,0.0,0.0,0.0,0.0013657164527103305,0.004955013282597065,-0.004175242502242327,1.0013792514801025,0.0,0.0,0.0,1.7344838380813599,8.631230354309082,0.157213032245636,-313.9450378417969,0
1057.8279999999995,-0.00551915168762207,-0.0008648637449368834,9.837768448051065e-05,0.0,0.0,0.0,0.0,0.0006723100086674094,0.009760226123034954,-0.0015206588432192802,1.0002895593643188,0.0,0.0,0.0,1.731082797050476,8.622589111328125,0.14439815282821655,-313.3294372558594,0
1067.723,-0.005358684342354536,-0.0008156985859386623,-2.430135964459623e-06,0.0,0.0,0.0,0.0,-0.0005851878668181598,-0.0026169545017182827,0.0017870079027488828,1.0001612901687622,0.0,0.0,0.0,1.7328746318817139,8.645761489868164,0.1478375792503357,-313.65374755859375,0
1077.6059999999998,-0.00551276421174407,-0.0007966381963342428,3.78540025849361e-05,0.0,0.0,0.0,0.0,0.0005425250274129212,-0.0008218775037676096,-0.0004716290277428925,1.0010603666305542,0.0,0.0,0.0,1.7308553457260132,8.643718719482422,0.14762870967388153,-313.2882385253906,0
1087.4969999999994,-0.005376624409109354,-0.0007675099186599255,-2.826439231284894e-05,0.0,0.0,0.0,0.0,0.0007066910620778799,-0.005358855240046978,-0.0034688760060817003,0.9999127388000488,0.0,0.0,0.0,1.728678584098816,8.633211135864258,0.14902622997760773,-312.8942565917969,0
1097.3739999999998,-0.005467288661748171,-0.0007784523186273873,1.2218679330544546e-06,0.0,0.0,0.0,0.0,-0.0008941618143580854,0.0042655193246901035,-0.0030190434772521257,1.0011082887649536,0.0,0.0,0.0,1.7262884378433228,8.621854782104492,0.16268157958984375,-312.4616394042969,0
1107.273000000001,-0.0053429086692631245,-0.0007632990018464625,-4.421347694005817e-05,0.0,0.0,0.0,0.0,-0.00013053443399257958,-0.00757375406101346,0.0005764707457274199,0.9985403418540955,0.0,0.0,0.0,1.7228775024414062,8.614412307739258,0.1588214933872223,-311.8442687988281,0
1117.1460000000006,-0.005496694706380367,-0.0007257691468112171,-9.211331416736357e-06,0.0,0.0,0.0,0.0,-0.0016892743296921253,-0.003556931158527732,-0.00018488311616238207,0.9981343150138855,0.0,0.0,0.0,1.7216671705245972,8.605426788330078,0.1710180789232254,-311.6252136230469,0
1127.0480000000007,-0.005368794314563274,-0.0007173523772507906,-6.796008528908715e-05,0.0,0.0,0.0,0.0,-0.0020833348389714956,-0.003755086800083518,-0.0028284857980906963,1.0015054941177368,0.0,0.0,0.0,1.7310885190963745,8.623123168945312,0.19773215055465698,-313.3304443359375,0
1136.9169999999995,-0.005534927360713482,-0.0006572274724021554,-2.4511542505933903e-05,0.0,0.0,0.0,0.0,-0.0008258650195784867,-0.0018069834914058447,-0.0011034479830414057,1.0000584125518799,0.0,0.0,0.0,1.729215383529663,8.615742683410645,0.2112487107515335,-312.9914245605469,0
1146.8109999999997,-0.005430341698229313,-0.0006752602057531476,-6.844109884696081e-05,0.0,0.0,0.0,0.0,-0.0019682911224663258,-0.00015385811275336891,-0.0012613938888534904,1.000145673751831,0.0,0.0,0.0,1.727797031402588,8.610533714294434,0.21096308529376984,-312.7347106933594,0
1156.6900000000005,-0.005523869302123785,-0.000652765273116529,-2.7026761017623357e-05,0.0,0.0,0.0,0.0,-0.001337386784143746,-0.0010303622111678123,-0.000520779867656529,1.0016382932662964,0.0,0.0,0.0,1.7256308794021606,8.604391098022461,0.214250385761261,-312.3426208496094,0
1166.5910000000003,-0.005475624930113554,-0.000743919750675559,-1.8306380297872238e-05,0.0,0.0,0.0,0.0,0.0004756262060254812,-0.0035018273629248142,0.001662126975134015,1.0025503635406494,0.0,0.0,0.0,1.723931074142456,8.595773696899414,0.21555617451667786,-312.03497314453125,0
1176.4629999999997,-0.005541559308767319,-0.0007444129441864789,4.646783781936392e-05,0.0,0.0,0.0,0.0,-0.00043607281986624,-0.0032254017423838377,0.000623533793259412,1.001686930656433,0.0,0.0,0.0,1.7232149839401245,8.586071014404297,0.2229599505662918,-311.90533447265625,0
1186.357,-0.005387790501117706,-0.0006790793850086629,-4.1255229007219896e-05,0.0,0.0,0.0,0.0,-0.0032216941472142935,-0.0023731905966997147,0.0016888261307030916,1.00104820728302,0.0,0.0,0.0,1.7291498184204102,8.616869926452637,0.24892891943454742,-312.97955322265625,0
1196.237000000001,-0.005586432758718729,-0.0006326547008939087,-8.035345672396943e-06,0.0,0.0,0.0,0.0,0.0007540842052549124,0.003223833627998829,-0.0008805380784906447,1.0011630058288574,0.0,0.0,0.0,1.7219702005386353,8.644283294677734,0.21243736147880554,-311.6800231933594,0
1206.1290000000008,-0.005481161177158356,-0.00064734963234514,-5.6850421970011666e-05,0.0,0.0,0.0,0.0,-0.0005148742347955704,0.0054298159666359425,0.004213730804622173,0.9992976784706116,0.0,0.0,0.0,1.7195595502853394,8.634980201721191,0.2031083106994629,-311.24371337890625,0
1216.0079999999998,-0.005535156931728125,-0.0006491863750852644,-1.0283282790624071e-05,0.0,0.0,0.0,0.0,-0.0009889353532344103,-0.004834944847971201,1.0247730642731767e-05,0.9990746378898621,0.0,0.0,0.0,1.718430995941162,8.632133483886719,0.19119954109191895,-311.0394287109375,0
1225.9099999999999,-0.005436968524008989,-0.0006721232202835381,-4.696574615081772e-05,0.0,0.0,0.0,0.0,0.0008609291398897767,-0.0021574636921286583,0.0010392431868240237,0.9988640546798706,0.0,0.0,0.0,1.7159556150436401,8.623394012451172,0.2066895216703415,-310.59136962890625,0
1235.791000000001,-0.005521827843040228,-0.0006690403097309172,-5.654076176142553e-06,0.0,0.0,0.0,0.0,0.0014123058645054698,0.0035322129260748625,-0.0038230777718126774,1.0001643896102905,0.0,0.0,0.0,1.714511513710022,8.61152458190918,0.21215039491653442,-310.3299865722656,0
1245.6800000000003,-0.005439879838377237,-0.0006905711488798261,-1.6526635590707883e-05,0.0,0.0,0.0,0.0,-0.00259565282613039,-0.001530459150671959,0.001997126964852214,1.0016746520996094,0.0,0.0,0.0,1.719873070716858,8.614327430725098,0.2061181515455246,-311.30047607421875,0
1255.554,-0.00550190219655633,-0.0006803292781114578,4.320232255849987e-05,0.0,0.0,0.0,0.0,0.0013603897532448173,0.00020110694458708167,7.280779300344875e-06,0.9988016486167908,0.0,0.0,0.0,1.7197383642196655,8.615269660949707,0.22073818743228912,-311.27606201171875,0
1265.4500000000007,-0.005459730513393879,-0.0007775042322464287,5.986077303532511e-05,0.0,0.0,0.0,0.0,-0.0005838967044837773,-0.005437077488750219,0.0016363573959097266,0.9992201924324036,0.0,0.0,0.0,1.718400239944458,8.60477066040039,0.2213464081287384,-311.03387451171875,0
1275.3289999999997,-0.005509248934686184,-0.000828954332973808,9.990223770728335e-05,0.0,0.0,0.0,0.0,0.0011347609106451273,0.005589740350842476,-0.0010216609807685018,1.000616431236267,0.0,0.0,0.0,1.7165528535842896,8.597180366516113,0.2321622520685196,-310.699462890625,0
1285.232,-0.005355493165552616,-0.000769123958889395,1.0002214594351244e-06,0.0,0.0,0.0,0.0,0.0004273892263881862,0.0028460959438234568,0.0006995785515755415,1.0007556676864624,0.0,0.0,0.0,1.7188400030136108,8.628087997436523,0.23407602310180664,-311.1134948730469,0
1295.1000000000004,-0.005477846134454012,-0.0007727565825916827,2.8086926249670796e-05,0.0,0.0,0.0,0.0,0.002409531967714429,-0.0018190107075497508,0.0002566541952546686,1.0004383325576782,0.0,0.0,0.0,1.7174620628356934,8.614725112915039,0.23230767250061035,-310.86407470703125,0
1304.9950000000008,-0.005361685995012522,-0.0007585805142298341,-2.0690366000053473e-05,0.0,0.0,0.0,0.0,0.0017274207202717662,-0.0011126365279778838,4.819442892767256e-06,1.0018385648727417,0.0,0.0,0.0,1.7161140441894531,8.602449417114258,0.2416929006576538,-310.62005615234375,0
1314.8719999999994,-0.005460637155920267,-0.0007430529221892357,2.5244318749173544e-05,0.0,0.0,0.0,0.0,0.000526880263350904,0.008749756030738354,-0.00213498342782259,1.0019185543060303,0.0,0.0,0.0,1.7139815092086792,8.596476554870605,0.24237990379333496,-310.2340393066406,0
1324.7659999999996,-0.005343776661902666,-0.0007316095870919526,-1.6682426576153375e-05,0.0,0.0,0.0,0.0,-0.0033700496423989534,-0.0017995962407439947,-0.0008128905319608748,0.9975740313529968,0.0,0.0,0.0,1.711200475692749,8.583657264709473,0.2278881072998047,-309.730712890625,0
1334.648000000001,-0.005421733949333429,-0.0007376342546194792,2.1648222173098475e-05,0.0,0.0,0.0,0.0,0.0006290760939009488,-0.009362967684864998,0.0008301041088998318,0.9980553388595581,0.0,0.0,0.0,1.7099828720092773,8.581392288208008,0.21820341050624847,-309.5102844238281,0
1344.5419999999995,-0.005315014626830816,-0.0007410033722408116,-8.53444726089947e-06,0.0,0.0,0.0,0.0,-0.0012873857049271464,0.000476873479783535,-0.0015751110622659326,0.9990857839584351,0.0,0.0,0.0,1.709194302558899,8.575284004211426,0.2401912957429886,-309.3675537109375,0
1354.4300000000003,-0.00548628019168973,-0.0007209493778645992,1.398340828018263e-05,0.0,0.0,0.0,0.0,-0.0013906143140047789,-0.003487392095848918,0.0011597382836043835,0.9991455078125,0.0,0.0,0.0,1.707261562347412,8.56618881225586,0.241044282913208,-309.0177307128906,0
1364.3140000000003,-0.005340133793652058,-0.000649913854431361,-4.786553472513333e-05,0.0,0.0,0.0,0.0,-0.0004701654252130538,-0.0020468742586672306,-0.0028138363268226385,0.999683141708374,0.0,0.0,0.0,1.7139003276824951,8.592808723449707,0.26757991313934326,-310.2193603515625,0
1374.196,-0.005520666483789682,-0.0006289507728070021,-3.0258141123340465e-05,0.0,0.0,0.0,0.0,0.0037748687900602818,0.0026406627148389816,0.0007126450072973967,1.0001009702682495,0.0,0.0,0.0,1.711607575416565,8.587669372558594,0.2693871855735779,-309.80438232421875,0
1384.089,-0.005475462879985571,-0.0007337576244026423,-2.409738408459816e-05,0.0,0.0,0.0,0.0,0.0022986396215856075,0.0014699436724185944,-0.0008810207946226001,1.0000534057617188,0.0,0.0,0.0,1.7105026245117188,8.573925971984863,0.2603296935558319,-309.6043701171875,0
1393.9650000000001,-0.005540004000067711,-0.000741548603400588,4.190928302705288e-05,0.0,0.0,0.0,0.0,0.0004196065419819206,-0.0008158062119036913,-0.000942534243222326,1.0000801086425781,0.0,0.0,0.0,1.707947015762329,8.562300682067871,0.24801446497440338,-309.1418151855469,0
1403.8580000000002,-0.0054919966496527195,-0.0008494130452163517,5.380867514759302e-05,0.0,0.0,0.0,0.0,0.0014160528080537915,0.004118660930544138,-0.0005170866497792304,0.9988744258880615,0.0,0.0,0.0,1.705619215965271,8.553035736083984,0.24512529373168945,-308.720458984375,0
1413.737000000001,-0.005624927580356598,-0.0008622289751656353,0.00013268545444589108,0.0,0.0,0.0,0.0,0.0005722546484321356,-0.003486521076411009,0.004070823546499014,0.9997557997703552,0.0,0.0,0.0,1.7083866596221924,8.578119277954102,0.20098349452018738,-309.22137451171875,0
1423.6399999999994,-0.005413857754319906,-0.0006999082979746163,-5.9525485994527116e-05,0.0,0.0,0.0,0.0,-0.0019075802993029356,0.0015765292337164283,0.0032300581224262714,0.9999837875366211,0.0,0.0,0.0,1.7221235036849976,8.646303176879883,0.250583291053772,-311.707763671875,0
1433.514000000001,-0.005515133496373892,-0.0006931151729077101,-2.481213232385926e-05,0.0,0.0,0.0,0.0,-0.0019825787749141455,0.0027079570572823286,-0.0006240062648430467,0.9986438155174255,0.0,0.0,0.0,1.7213225364685059,8.639368057250977,0.23717539012432098,-311.5628356933594,0
1443.4179999999997,-0.005407058168202639,-0.0006915722624398768,-8.073902426986024e-05,0.0,0.0,0.0,0.0,0.005752138793468475,0.003910762257874012,0.0008661022875458002,0.9996912479400635,0.0,0.0,0.0,1.718616008758545,8.632086753845215,0.2316172868013382,-311.07293701171875,0
1453.286,-0.005548289977014065,-0.0006702069658786058,-5.9932168369414285e-05,0.0,0.0,0.0,0.0,-0.0017721207113936543,-0.002332661533728242,-0.002387436106801033,1.0005296468734741,0.0,0.0,0.0,1.7243843078613281,8.638155937194824,0.20046550035476685,-312.11700439453125,0
1463.1759999999995,-0.005468693561851978,-0.0006781606934964657,-6.668119021924213e-05,0.0,0.0,0.0,0.0,0.0005504175205715001,-0.0007709235069341958,-0.0011551374336704612,0.9996048212051392,0.0,0.0,0.0,1.731918215751648,8.646876335144043,0.21394650638103485,-313.48065185546875,0
1473.059000000001,-0.005569636821746826,-0.0006560050533153117,-2.5999095669249073e-05,0.0,0.0,0.0,0.0,0.004479602910578251,0.003680228954181075,0.004066108260303736,1.0004128217697144,0.0,0.0,0.0,1.730093240737915,8.64013957977295,0.21117784082889557,-313.1502990722656,0
1482.9609999999993,-0.005517544224858284,-0.0007362081669270992,-2.2347916456055827e-05,0.0,0.0,0.0,0.0,-0.0040961578488349915,-0.0021976919379085302,0.004308614414185286,0.9979919195175171,0.0,0.0,0.0,1.7355889081954956,8.627037048339844,0.19706737995147705,-314.14508056640625,0
1492.83,-0.005557012744247913,-0.0007309943903237581,3.795390875893645e-05,0.0,0.0,0.0,0.0,-0.0005909391911700368,0.004478986840695143,-0.0026366279926151037,0.9982147216796875,0.0,0.0,0.0,1.7352553606033325,8.626640319824219,0.1892220377922058,-314.0846862792969,0
1502.7330000000002,-0.005433808546513319,-0.0007180078537203372,-2.0421401131898165e-05,0.0,0.0,0.0,0.0,0.0003824847808573395,-0.003097597509622574,0.0012900877045467496,1.000937581062317,0.0,0.0,0.0,1.732364535331726,8.614519119262695,0.17738443613052368,-313.56146240234375,0
1512.6010000000006,-0.005537110846489668,-0.0007036470342427492,2.2369200451066718e-05,0.0,0.0,0.0,0.0,-0.0007194817299023271,0.002214861800894141,-0.0018805274739861488,0.997098445892334,0.0,0.0,0.0,1.7318172454833984,8.610641479492188,0.1743946075439453,-313.46234130859375,0
1522.4979999999996,-0.005496952682733536,-0.0008054921636357903,3.098760134889744e-05,0.0,0.0,0.0,0.0,0.0006092094699852169,-0.0014544789446517825,0.0031372173689305782,0.9983547925949097,0.0,0.0,0.0,1.7299937009811401,8.603781700134277,0.18031685054302216,-313.1322937011719,0
1532.3850000000002,-0.005560860503464937,-0.0008188902866095304,9.258024510927498e-05,0.0,0.0,0.0,0.0,-0.000768231984693557,-0.0006059088045731187,0.0031482523772865534,1.001451015472412,0.0,0.0,0.0,1.728780746459961,8.594305038452148,0.1742621809244156,-312.9127502441406,0
1542.2669999999998,-0.005407161079347134,-0.0007649400504305959,-2.2304368030745536e-05,0.0,0.0,0.0,0.0,0.0016918930923566222,0.0015931646339595318,-0.001230468973517418,1.000359296798706,0.0,0.0,0.0,1.7302393913269043,8.623205184936523,0.19687925279140472,-313.1767578125,0
1552.1489999999994,-0.005524724256247282,-0.000756315712351352,1.4619350622524507e-05,0.0,0.0,0.0,0.0,-0.0005591507069766521,-0.0001798975863493979,0.0008491506450809538,1.0001513957977295,0.0,0.0,0.0,1.7287423610687256,8.614229202270508,0.19736053049564362,-312.90582275390625,0
1562.045,-0.0054852780885994434,-0.0008612253586761653,2.1844085495104082e-05,0.0,0.0,0.0,0.0,0.0027189182583242655,0.0018423391738906503,-0.0009698534850031137,1.000577449798584,0.0,0.0,0.0,1.727418303489685,8.610416412353516,0.18599240481853485,-312.6661376953125,0
1571.9189999999999,-0.005535245407372713,-0.0008806643891148269,8.466046710964292e-05,0.0,0.0,0.0,0.0,0.0024957298301160336,-0.0033825591672211885,-0.0006575722945854068,1.0006039142608643,0.0,0.0,0.0,1.7259597778320312,8.596636772155762,0.18396486341953278,-312.4021301269531,0
1581.8160000000007,-0.005351672880351543,-0.000754502194467932,-5.6145188864320517e-05,0.0,0.0,0.0,0.0,0.0016497030155733228,0.003793650772422552,-0.0020378066692501307,0.9990785717964172,0.0,0.0,0.0,1.7315495014190674,8.640421867370605,0.2050860971212387,-313.4139099121094,0
1591.692000000001,-0.005461964290589094,-0.0007635235670022666,-3.581335113267414e-05,0.0,0.0,0.0,0.0,-0.0037530469708144665,-0.00014636525884270668,-0.001861746422946453,0.999894917011261,0.0,0.0,0.0,1.729046106338501,8.628962516784668,0.19329075515270233,-312.96075439453125,0
1601.5969999999998,-0.005347349680960178,-0.0007463215733878314,-9.907526691677049e-05,0.0,0.0,0.0,0.0,0.0017842748202383518,0.00012462919403333217,0.000579926127102226,0.9995294809341431,0.0,0.0,0.0,1.7374979257583618,8.653879165649414,0.21748898923397064,-314.4905700683594,0
1611.464,-0.005495579447597265,-0.0007110076257959008,-7.22354743629694e-05,0.0,0.0,0.0,0.0,0.0026782432105392218,-0.0003922110772691667,-0.00488706910982728,0.9997361898422241,0.0,0.0,0.0,1.7362927198410034,8.639698028564453,0.2168981283903122,-314.2724304199219,0
1621.3639999999996,-0.005454848520457745,-0.0008022732217796147,-6.957980804145336e-05,0.0,0.0,0.0,0.0,7.327994535444304e-05,0.0028643033001571894,0.0022241631522774696,0.9996565580368042,0.0,0.0,0.0,1.7341712713241577,8.625521659851074,0.2173655480146408,-313.8884582519531,0
1631.2389999999996,-0.0055111609399318695,-0.0007704643066972494,1.3437937923299614e-05,0.0,0.0,0.0,0.0,0.0016246886225417256,-0.00018583286146167666,-0.002004889538511634,0.9987238049507141,0.0,0.0,0.0,1.732789158821106,8.620566368103027,0.21254804730415344,-313.6382751464844,0
1641.1350000000002,-0.005412884056568146,-0.0007486505783163011,-2.7082223823526874e-05,0.0,0.0,0.0,0.0,-0.002099529607221484,0.0005656515131704509,0.0025570879224687815,0.9999701976776123,0.0,0.0,0.0,1.7400531768798828,8.633707046508789,0.2262660413980484,-314.95306396484375,0
1651.0120000000006,-0.005476882215589285,-0.000744457240216434,1.7152811778942123e-05,0.0,0.0,0.0,0.0,0.0031270207837224007,0.009758244268596172,0.0005394527688622475,1.0012338161468506,0.0,0.0,0.0,1.7467979192733765,8.649195671081543,0.20258206129074097,-316.1738586425781,0
1660.9040000000005,-0.005357919726520777,-0.0007188653107732534,-4.5642191253136843e-05,0.0,0.0,0.0,0.0,-0.0030314612668007612,-0.0004431272391229868,-0.0016244252910837531,0.9969907402992249,0.0,0.0,0.0,1.7524940967559814,8.66177749633789,0.20734962821006775,-317.2049255371094,0
1670.7900000000009,-0.005461579188704491,-0.0007072123698890209,-1.3513602425518911e-05,0.0,0.0,0.0,0.0,0.0008330008131451905,0.0001234169176314026,-0.0011440152302384377,1.0001212358474731,0.0,0.0,0.0,1.749657392501831,8.662301063537598,0.20973192155361176,-316.6914978027344,0
1680.6779999999999,-0.005421505309641361,-0.0008017161162570119,-7.98207020125119e-06,0.0,0.0,0.0,0.0,-0.0002498701214790344,-0.0008697419543750584,0.0019430362153798342,1.001652717590332,0.0,0.0,0.0,1.747664451599121,8.6498384475708,0.19416484236717224,-316.3307800292969,0
1690.5599999999995,-0.005537563003599644,-0.0007939268252812326,5.2705650887219235e-05,0.0,0.0,0.0,0.0,-0.0014107858296483755,-0.0009792651981115341,-0.0011718624737113714,0.9994937777519226,0.0,0.0,0.0,1.7458137273788452,8.642630577087402,0.20010918378829956,-315.9957275390625,0
1700.4500000000007,-0.005499730352312326,-0.0008898907690308988,6.501849566120654e-05,0.0,0.0,0.0,0.0,0.0020980380941182375,0.0031911672558635473,2.5075149096664973e-05,0.9991264939308167,0.0,0.0,0.0,1.7434488534927368,8.638224601745605,0.19965298473834991,-315.56768798828125,0
1710.3379999999997,-0.005575774237513542,-0.0009038769640028477,0.0001414831349393353,0.0,0.0,0.0,0.0,0.0023639921564608812,0.003369365120306611,-0.000346259941579774,0.9995275139808655,0.0,0.0,0.0,1.7414534091949463,8.625543594360352,0.1897992044687271,-315.20654296875,0
1720.2330000000002,-0.005386108532547951,-0.0007807015790604055,-2.179244256694801e-05,0.0,0.0,0.0,0.0,0.0011790989665314555,-0.001552458037622273,-1.2509482075984124e-05,0.9990611672401428,0.0,0.0,0.0,1.7445611953735352,8.67348861694336,0.19979174435138702,-315.76904296875,0
1730.1039999999994,-0.0054841176606714725,-0.0007695852546021342,1.5320192687795497e-05,0.0,0.0,0.0,0.0,-0.0008452664478681982,0.0017383972881361842,0.0011491545010358095,0.9996528029441833,0.0,0.0,0.0,1.7359765768051147,8.69194507598877,0.1848021298646927,-314.2152099609375,0
1739.996000000001,-0.005446768831461668,-0.0008566948818042874,2.363876592426095e-05,0.0,0.0,0.0,0.0,-0.0012208758853375912,0.0018109033117070794,-0.0034714248031377792,1.001878261566162,0.0,0.0,0.0,1.7335381507873535,8.685016632080078,0.18301783502101898,-313.77386474609375,0
1749.8739999999998,-0.005512706935405731,-0.0008535977103747427,0.000100675955764018,0.0,0.0,0.0,0.0,-0.0014605526812374592,-0.0083775594830513,0.003817356890067458,1.002940058708191,0.0,0.0,0.0,1.7307101488113403,8.678007125854492,0.17776958644390106,-313.261962890625,0
1759.7690000000002,-0.005412229802459478,-0.0008466016734018922,3.951066901208833e-05,0.0,0.0,0.0,0.0,-0.00010795943671837449,0.0004176675865892321,0.0004431697307154536,1.001746654510498,0.0,0.0,0.0,1.7376261949539185,8.694833755493164,0.20966775715351105,-314.5137939453125,0
1769.6470000000008,-0.005499343387782574,-0.0008560082060284913,7.181821274571121e-05,0.0,0.0,0.0,0.0,-0.0001461323263356462,0.00020906458667013794,0.001514747622422874,1.0001462697982788,0.0,0.0,0.0,1.735154390335083,8.686970710754395,0.2111080288887024,-314.06640625,0
1779.5480000000007,-0.005368840880692005,-0.0008080921834334731,-4.494557288126089e-06,0.0,0.0,0.0,0.0,-0.0014240061864256859,8.482729754177853e-05,0.0034737710375338793,0.9990764856338501,0.0,0.0,0.0,1.733095407485962,8.681325912475586,0.21782992780208588,-313.6937255859375,0
1789.42,-0.005530914291739464,-0.0007574178162030876,4.1026203689398244e-05,0.0,0.0,0.0,0.0,0.0008841785602271557,-0.00024465308524668217,-0.0012608582619577646,0.9995346665382385,0.0,0.0,0.0,1.7320754528045654,8.675314903259277,0.22247692942619324,-313.5091247558594,0
1799.321,-0.005396649707108736,-0.0006871115183457732,-2.2117194021120667e-05,0.0,0.0,0.0,0.0,-0.0014280714094638824,-0.0039118328131735325,0.002363543724641204,0.9973875880241394,0.0,0.0,0.0,1.73002290725708,8.66472339630127,0.2236238420009613,-313.1375732421875,0
1809.1939999999995,-0.005346595775336027,-0.000769123318605125,-1.2803619029000401e-05,0.0,0.0,0.0,0.0,0.0010219886898994446,-0.0027512507513165474,-0.0017051452305167913,0.9982373118400574,0.0,0.0,0.0,1.7294172048568726,8.660944938659668,0.2369358390569687,-313.0279235839844,0
1819.0900000000001,-0.0052681476809084415,-0.0007900315104052424,-2.1235158783383667e-05,0.0,0.0,0.0,0.0,0.001191533636301756,-0.002264968352392316,-0.00019590962619986385,1.0005680322647095,0.0,0.0,0.0,1.7278517484664917,8.648435592651367,0.24591384828090668,-312.7445983886719,0
1828.9650000000001,-0.005210585426539183,-0.0008798555354587734,-1.4583536540158093e-05,0.0,0.0,0.0,0.0,0.001596467918716371,0.00030844236607663333,-0.0024104341864585876,1.0013116598129272,0.0,0.0,0.0,1.7265198230743408,8.637197494506836,0.24728864431381226,-312.5035400390625,0
1838.866,-0.005147573072463274,-0.0008970742346718907,2.215981476183515e-05,0.0,0.0,0.0,0.0,-0.00037653406616300344,0.0011506174923852086,-0.003311501583084464,0.9993497729301453,0.0,0.0,0.0,1.725072979927063,8.626235961914062,0.2408524602651596,-312.24163818359375,0
1848.7379999999994,-0.00508662685751915,-0.0009946940699592233,3.3109376090578735e-05,0.0,0.0,0.0,0.0,0.0004279738641344011,-2.597021193651017e-07,0.00034737412352114916,0.9996755123138428,0.0,0.0,0.0,1.7234375476837158,8.617400169372559,0.2367917150259018,-311.9456481933594,0
1858.6399999999994,-0.004995190538465977,-0.0010133638279512525,3.3210511901415884e-05,0.0,0.0,0.0,0.0,-1.353163315798156e-05,0.0019123917445540428,0.0005098300171084702,0.9990003108978271,0.0,0.0,0.0,1.722168207168579,8.60840129852295,0.23291274905204773,-311.71588134765625,0
1868.5110000000004,-0.004926412366330624,-0.0011140905553475022,4.2902727727778256e-05,0.0,0.0,0.0,0.0,0.0008202289463952184,0.002414115471765399,0.0007482875371351838,1.0006314516067505,0.0,0.0,0.0,1.7204240560531616,8.602153778076172,0.22608686983585358,-311.4001770019531,0
1878.407000000001,-0.00476140808314085,-0.0010486230021342635,-5.359456736186985e-06,0.0,0.0,0.0,0.0,-0.002163673285394907,0.0024425897281616926,-0.0009765060967765749,1.001551866531372,0.0,0.0,0.0,1.7321678400039673,8.641606330871582,0.2636406123638153,-313.52581787109375,0
1888.2839999999997,-0.004676235374063253,-0.0011459810193628073,1.0881476555368863e-06,0.0,0.0,0.0,0.0,0.002180868061259389,0.006580692250281572,0.002145266393199563,1.0000081062316895,0.0,0.0,0.0,1.7305082082748413,8.64017105102539,0.25937971472740173,-313.2254333496094,0
1898.184000000001,-0.004495083820074797,-0.001106336247175932,-3.915628622053191e-05,0.0,0.0,0.0,0.0,-0.0002186859492212534,0.0003441455482970923,0.0013414385030046105,0.9976267218589783,0.0,0.0,0.0,1.7405141592025757,8.674568176269531,0.29304060339927673,-315.0365295410156,0
1908.0570000000007,-0.004394829273223877,-0.001204484375193715,-3.619165363488719e-05,0.0,0.0,0.0,0.0,-0.003974592313170433,0.0013747521443292499,0.0014496694784611464,0.9993733167648315,0.0,0.0,0.0,1.7392655611038208,8.665188789367676,0.2965076267719269,-314.810546875,0
1917.9560000000001,-0.0042931451462209225,-0.0013070831773802638,-3.420799475861713e-05,0.0,0.0,0.0,0.0,-0.001339318579994142,-0.005602189339697361,0.00042581642628647387,1.000597357749939,0.0,0.0,0.0,1.7374736070632935,8.660612106323242,0.29986143112182617,-314.4861755371094,0
1927.8289999999997,-0.004188749007880688,-0.0014137689722701907,-3.177281905664131e-05,0.0,0.0,0.0,0.0,-0.0002909019822254777,0.004286638461053371,0.0014084966387599707,0.999708890914917,0.0,0.0,0.0,1.734488606452942,8.652047157287598,0.31432032585144043,-313.9458923339844,0
1937.7240000000002,-0.004144683480262756,-0.001377257052809,0.00014822982484474778,0.0,0.0,0.0,0.0,-0.002809677505865693,0.0005630572559311986,-0.0013833412667736411,0.9989659190177917,0.0,0.0,0.0,1.743556022644043,8.689131736755371,0.28510046005249023,-315.58709716796875,0
1947.6020000000008,-0.00403793528676033,-0.0014801169745624065,0.0001627876772545278,0.0,0.0,0.0,0.0,0.00019309080380480736,0.00319319823756814,0.0011864303378388286,1.0003520250320435,0.0,0.0,0.0,1.7420587539672852,8.686081886291504,0.2840907871723175,-315.31610107421875,0
1957.4979999999996,-0.004038756713271141,-0.0014450311427935958,0.00039627484511584044,0.0,0.0,0.0,0.0,0.001080471440218389,0.003925337456166744,0.001339696696959436,1.0014718770980835,0.0,0.0,0.0,1.7468916177749634,8.716306686401367,0.2455245703458786,-316.1908264160156,0
1967.375,-0.003938791807740927,-0.0015452157240360975,0.00042671518167480826,0.0,0.0,0.0,0.0,-0.0012942677130922675,-0.0003725813003256917,-0.001333865919150412,0.9986903667449951,0.0,0.0,0.0,1.7454447746276855,8.706700325012207,0.2425919771194458,-315.928955078125,0
1977.2759999999998,-0.003837927244603634,-0.0016502573853358626,0.00045791041338816285,0.0,0.0,0.0,0.0,-0.0001916651235660538,0.0017963090213015676,0.0016231671907007694,0.998693585395813,0.0,0.0,0.0,1.7432246208190918,8.700183868408203,0.2530514895915985,-315.527099609375,0
1987.148000000001,-0.0037361551076173782,-0.0017616451950743794,0.0004884915542788804,0.0,0.0,0.0,0.0,-0.0006280686357058585,-0.006632732693105936,-0.002933359006419778,0.9989176392555237,0.0,0.0,0.0,1.7421702146530151,8.691514015197754,0.25405797362327576,-315.3362731933594,0
1997.049000000001,-0.0037022035103291273,-0.0016524530947208405,0.0007438158500008285,0.0,0.0,0.0,0.0,-0.0016713121440261602,-0.0019390552770346403,-0.0017749072285369039,1.000319004058838,0.0,0.0,0.0,1.7449951171875,8.748263359069824,0.24942907691001892,-315.8475646972656,0
2006.9210000000003,-0.0036036691162735224,-0.0017585587920621037,0.000787332421168685,0.0,0.0,0.0,0.0,0.0018575438298285007,0.002697272691875696,0.0034401873126626015,0.9983058571815491,0.0,0.0,0.0,1.7439475059509277,8.741653442382812,0.24665728211402893,-315.657958984375,0
2016.8160000000007,-0.0035037673078477383,-0.0018690748838707805,0.0008308517863042653,0.0,0.0,0.0,0.0,0.0015026822220534086,0.003893478773534298,-0.0007391835679300129,0.9997503161430359,0.0,0.0,0.0,1.7435035705566406,8.727300643920898,0.2359880656003952,-315.57763671875,0
2026.6939999999995,-0.0034015101846307516,-0.0019851746037602425,0.0008740397170186043,0.0,0.0,0.0,0.0,-0.0010100860381498933,0.0066471039317548275,-0.0008730522240512073,0.998591423034668,0.0,0.0,0.0,1.741814374923706,8.715288162231445,0.22482772171497345,-315.2718811035156,0
2036.5949999999993,-0.003296569688245654,-0.0021066786721348763,0.0009168600081466138,0.0,0.0,0.0,0.0,4.036125392303802e-05,0.00389842689037323,0.0009554194402880967,0.9975921511650085,0.0,0.0,0.0,1.7392432689666748,8.712101936340332,0.20874586701393127,-314.8064880371094,0
2046.4699999999993,-0.005465723108500242,-0.0010721860453486443,8.27310504973866e-05,0.0,0.0,0.0,0.0,0.0016543142264708877,0.0036565817426890135,0.0005164887988939881,0.9984909892082214,0.0,0.0,0.0,1.7423197031021118,8.95520305633545,-0.15099681913852692,-315.3633117675781,0
2056.366,-0.005456560757011175,-0.0011484324932098389,0.00010085953545058146,0.0,0.0,0.0,0.0,0.0031138197518885136,-5.451801189337857e-05,0.000744612654671073,0.9990233778953552,0.0,0.0,0.0,1.740553379058838,8.943610191345215,-0.15492694079875946,-315.04364013671875,0
2066.2389999999996,-0.005573120899498463,-0.0010688204783946276,0.00026325753424316645,0.0,0.0,0.0,0.0,-0.0015934824477881193,-0.002213780302554369,0.0009967274963855743,1.0008225440979004,0.0,0.0,0.0,1.7471590042114258,8.975421905517578,-0.16955168545246124,-316.2392578125,0
2076.1450000000004,-0.005567385349422693,-0.0011430145241320133,0.00028996728360652924,0.0,0.0,0.0,0.0,-0.0003650670114438981,0.0031124833039939404,-0.0019823547918349504,1.0001411437988281,0.0,0.0,0.0,1.7454692125320435,8.972336769104004,-0.167693093419075,-315.9333801269531,0
2086.0120000000006,-0.005560640711337328,-0.0012204088270664215,0.00031756312819197774,0.0,0.0,0.0,0.0,-0.0001275108224945143,0.006663719192147255,-0.001538548618555069,0.9983226656913757,0.0,0.0,0.0,1.7421979904174805,8.962270736694336,-0.17936821281909943,-315.3412780761719,0
2095.907000000001,-0.005554355680942535,-0.0013011343544349074,0.00034498231252655387,0.0,0.0,0.0,0.0,0.002722530160099268,-0.002317545237019658,-0.0016425930662080646,0.999305009841919,0.0,0.0,0.0,1.7400856018066406,8.949418067932129,-0.1894216239452362,-314.958984375,0
2105.7870000000003,-0.0055490899831056595,-0.001386122079566121,0.00037182902451604605,0.0,0.0,0.0,0.0,0.000964847975410521,0.0007585969287902117,-0.0007288288325071335,1.0019538402557373,0.0,0.0,0.0,1.7375037670135498,8.93344783782959,-0.17986011505126953,-314.49163818359375,0
2115.6849999999995,-0.005544544197618961,-0.0014752574497833848,0.0003996233572252095,0.0,0.0,0.0,0.0,-0.00110799097456038,-0.001321314717642963,0.0010228290921077132,1.0020673274993896,0.0,0.0,0.0,1.7356094121932983,8.923026084899902,-0.1783662736415863,-314.1487731933594,0
2125.558000000001,-0.0056973653845489025,-0.00134316086769104,0.0006586022209376097,0.0,0.0,0.0,0.0,0.0005918388487771153,-0.00258489022962749,-0.0010145643027499318,0.9994035363197327,0.0,0.0,0.0,1.7237602472305298,8.985039710998535,-0.21089480817317963,-312.0040283203125,0
