timestamp,stateEstimate.x,stateEstimate.y,stateEstimate.z,controller.cmd_thrust,controller.cmd_roll,controller.cmd_pitch,controller.cmd_yaw,controller.r_roll,controller.r_pitch,controller.r_yaw,controller.accelz,controller.actuatorThrust,controller.roll,controller.pitch,controller.yaw,controller.rollRate,controller.pitchRate,controller.yawRate,controller.ctr_yaw
0.0,0.01979706436395645,-0.033234380185604095,0.0019481254275888205,0.0,0.0,0.0,0.0,0.0010360388550907373,0.0028421515598893166,-0.0007631038315594196,1.001745581626892,0.0,0.0,0.0,-20.437618255615234,7.043341636657715,-2.3759658336639404,3699.24951171875,0
9.8799999999992,0.019833600148558617,-0.033275116235017776,0.0018871944630518556,0.0,0.0,0.0,0.0,0.0018634170992299914,0.0059359692968428135,0.000339190213708207,1.0007548332214355,0.0,0.0,0.0,-20.41659927368164,7.036352157592773,-2.379289388656616,3695.44482421875,0
19.76599999999962,0.019840305671095848,-0.03320470079779625,0.0019513010047376156,0.0,0.0,0.0,0.0,0.00026501776301302016,-0.0035732858814299107,0.0031855625566095114,1.0016505718231201,0.0,0.0,0.0,-20.443206787109375,7.046530246734619,-2.382922887802124,3700.2607421875,0
29.649999999999636,0.019893521443009377,-0.03320641443133354,0.0019030170515179634,0.0,0.0,0.0,0.0,-0.004632285330444574,0.005260510370135307,-0.0010231370106339455,1.0028573274612427,0.0,0.0,0.0,-20.422306060791016,7.040144443511963,-2.3711869716644287,3696.47802734375,0
39.53699999999844,0.019831180572509766,-0.0331730917096138,0.001913938787765801,0.0,0.0,0.0,0.0,-0.00044709601206704974,0.0010403681080788374,-0.0015612519346177578,1.0019805431365967,0.0,0.0,0.0,-20.44523048400879,7.039920330047607,-2.3939871788024902,3700.62744140625,0
49.43499999999949,0.019809236750006676,-0.03327382355928421,0.0019068849505856633,0.0,0.0,0.0,0.0,-0.0025211151223629713,-0.0015353976050391793,0.002142771380022168,0.9994075894355774,0.0,0.0,0.0,-20.424867630004883,7.037421226501465,-2.392277717590332,3696.94189453125,0
59.31499999999869,0.019861597567796707,-0.03324509784579277,0.001974987331777811,0.0,0.0,0.0,0.0,0.005752138793468475,0.0018492437666282058,-0.0009460224537178874,0.9971025586128235,0.0,0.0,0.0,-20.454025268554688,7.042512893676758,-2.3906638622283936,3702.21923828125,0
69.1969999999983,0.01986599713563919,-0.03329186514019966,0.001969224540516734,0.0,0.0,0.0,0.0,-0.0006193456938490272,0.0011930643813684583,-0.0008827491546981037,0.9979788064956665,0.0,0.0,0.0,-20.432903289794922,7.032950401306152,-2.3731679916381836,3698.39599609375,0
79.08499999999913,0.019802622497081757,-0.03322277218103409,0.002007147530093789,0.0,0.0,0.0,0.0,-0.0003862071316689253,0.001040361588820815,-0.003938319627195597,1.002409815788269,0.0,0.0,0.0,-20.458520889282227,7.0430097579956055,-2.394212245941162,3703.033203125,0
88.97499999999854,0.0198521688580513,-0.03325368091464043,0.0019411342218518257,0.0,0.0,0.0,0.0,-0.0032717748545110226,-0.007929480634629726,-0.002406816463917494,1.0021510124206543,0.0,0.0,0.0,-20.439516067504883,7.0424909591674805,-2.3944084644317627,3699.59326171875,0
98.85799999999836,0.019876789301633835,-0.03322259709239006,0.001998252933844924,0.0,0.0,0.0,0.0,0.002800473477691412,0.00204479624517262,0.00041986326687037945,1.0032076835632324,0.0,0.0,0.0,-20.46971893310547,7.05133056640625,-2.3838987350463867,3705.06005859375,0
108.74399999999878,0.019879069179296494,-0.033289600163698196,0.0019871171098202467,0.0,0.0,0.0,0.0,0.0027512190863490105,0.001497099525295198,0.0005740466294810176,1.0005419254302979,0.0,0.0,0.0,-20.44803237915039,7.034304141998291,-2.395052909851074,3701.134765625,0
118.6309999999994,0.01986827328801155,-0.03327346593141556,0.002021993277594447,0.0,0.0,0.0,0.0,0.0011023906990885735,-0.0013851264957338572,-0.0011433465406298637,0.9998506903648376,0.0,0.0,0.0,-20.468704223632812,7.027314186096191,-2.4035935401916504,3704.876220703125,0
128.52199999999903,0.01988960988819599,-0.033302731812000275,0.0020090430043637753,0.0,0.0,0.0,0.0,0.0014681991888210177,-0.0021182948257774115,-0.004266931209713221,0.999812662601471,0.0,0.0,0.0,-20.44860076904297,7.02689266204834,-2.399454116821289,3701.237548828125,0
138.40399999999863,0.019899453967809677,-0.033326588571071625,0.0020199641585350037,0.0,0.0,0.0,0.0,-0.0006163015495985746,-4.712298687081784e-05,-0.0034593527670949697,1.0000371932983398,0.0,0.0,0.0,-20.428403854370117,7.019773006439209,-2.391282081604004,3697.58154296875,0
148.29099999999926,0.019878501072525978,-0.03339328244328499,0.002051456132903695,0.0,0.0,0.0,0.0,-0.0009316924260929227,0.0028437329456210136,-0.0023987547028809786,1.0008373260498047,0.0,0.0,0.0,-20.408767700195312,7.013179302215576,-2.398660659790039,3694.027587890625,0
158.17799999999988,0.01984894648194313,-0.03337565436959267,0.0020857984200119972,0.0,0.0,0.0,0.0,-0.0010132709285244346,-0.0043436759151518345,-0.002578447572886944,0.9985679388046265,0.0,0.0,0.0,-20.432039260864258,7.013038158416748,-2.4165198802948,3698.23974609375,0
168.0649999999987,0.019846394658088684,-0.03342939540743828,0.0020873392932116985,0.0,0.0,0.0,0.0,-0.002068910049274564,0.0016095219179987907,-0.00239047734066844,0.9979377388954163,0.0,0.0,0.0,-20.417503356933594,7.004366397857666,-2.4124162197113037,3695.608642578125,0
177.9559999999983,0.019742270931601524,-0.033344969153404236,0.002124260412529111,0.0,0.0,0.0,0.0,-0.00103143195156008,0.0007803256157785654,0.0007678875117562711,0.9987714886665344,0.0,0.0,0.0,-20.442256927490234,7.015272617340088,-2.437319755554199,3700.089111328125,0
187.84899999999834,0.019804906100034714,-0.03332436829805374,0.002064816188067198,0.0,0.0,0.0,0.0,0.000965561019256711,-0.0037418941501528025,0.00016783694445621222,1.0001875162124634,0.0,0.0,0.0,-20.422080993652344,7.009434700012207,-2.431540012359619,3696.437255859375,0
197.72499999999854,0.019811470061540604,-0.033271875232458115,0.0021320765372365713,0.0,0.0,0.0,0.0,0.002527297707274556,0.00461113965138793,-0.0015215801540762186,1.0010136365890503,0.0,0.0,0.0,-20.445478439331055,7.0165300369262695,-2.427351713180542,3700.671875,0
207.61199999999917,0.019853800535202026,-0.03328090161085129,0.0020816270262002945,0.0,0.0,0.0,0.0,0.003173623001202941,0.00528572965413332,0.0008672283147461712,0.9981511235237122,0.0,0.0,0.0,-20.425939559936523,7.001784801483154,-2.433842182159424,3697.1357421875,0
217.4979999999996,0.019786931574344635,-0.03324643522500992,0.00210333289578557,0.0,0.0,0.0,0.0,0.001588089158758521,-0.003783875610679388,0.0002733255678322166,0.9991772174835205,0.0,0.0,0.0,-20.44878387451172,6.9965667724609375,-2.453529119491577,3701.270751953125,0
227.3849999999984,0.019788708537817,-0.0333205871284008,0.0020653968676924706,0.0,0.0,0.0,0.0,0.0013852219562977552,0.0013639149256050587,0.0015958241419866681,0.9984027147293091,0.0,0.0,0.0,-20.428157806396484,6.995321750640869,-2.445302724838257,3697.536865234375,0
237.27199999999903,0.01972719468176365,-0.03326502442359924,0.0021047478076070547,0.0,0.0,0.0,0.0,-0.0005701633053831756,-0.001360565540380776,0.0012343119597062469,1.0003821849822998,0.0,0.0,0.0,-20.456451416015625,6.998147010803223,-2.447720527648926,3702.65869140625,0
247.15899999999965,0.019722353667020798,-0.0333205945789814,0.0020912487525492907,0.0,0.0,0.0,0.0,0.0024892196524888277,0.0009369928739033639,-4.996221832698211e-05,0.9993892908096313,0.0,0.0,0.0,-20.435903549194336,6.992509365081787,-2.4455697536468506,3698.939208984375,0
257.04899999999907,0.01970740035176277,-0.03329404443502426,0.0021344483830034733,0.0,0.0,0.0,0.0,-0.0008248346275649965,-0.001980168279260397,0.00018799366080202162,0.9983224868774414,0.0,0.0,0.0,-20.460330963134766,7.0000128746032715,-2.4525699615478516,3703.360595703125,0
266.9319999999989,0.019775060936808586,-0.03327883407473564,0.00206051766872406,0.0,0.0,0.0,0.0,0.0034281560219824314,0.0044273012317717075,0.0005591863300651312,1.001406192779541,0.0,0.0,0.0,-20.43961524963379,6.994910717010498,-2.446821689605713,3699.611083984375,0
276.8189999999995,0.01976948417723179,-0.033287134021520615,0.0020797932520508766,0.0,0.0,0.0,0.0,-0.00303310202434659,-0.00041739369044080377,0.0006550920661538839,1.002395749092102,0.0,0.0,0.0,-20.46152114868164,6.986746788024902,-2.461904764175415,3703.575927734375,0
286.7059999999983,0.019831668585538864,-0.03329978138208389,0.0019940664060413837,0.0,0.0,0.0,0.0,0.0009115297580137849,0.002183954929932952,0.0009018684504553676,1.0006729364395142,0.0,0.0,0.0,-20.441404342651367,6.982273578643799,-2.4638490676879883,3699.934814453125,0
296.59899999999834,0.01983531191945076,-0.03325819596648216,0.0020282831974327564,0.0,0.0,0.0,0.0,0.00202584289945662,0.000376936630345881,0.003405812894925475,0.9996320009231567,0.0,0.0,0.0,-20.48116683959961,6.990280628204346,-2.4701833724975586,3707.132080078125,0
306.47899999999936,0.019857170060276985,-0.03331155329942703,0.0020005488768219948,0.0,0.0,0.0,0.0,-0.0014207991771399975,-0.0037382636219263077,0.0018538470612838864,0.9991456866264343,0.0,0.0,0.0,-20.44013023376465,6.974837779998779,-2.465027093887329,3699.7041015625,0
316.366,0.019857170060276985,-0.03331155329942703,0.0020005488768219948,0.0,0.0,0.0,0.0,-0.0001312124077230692,-0.000979818170890212,-0.0034014054108411074,1.0008677244186401,0.0,0.0,0.0,-20.44013023376465,6.974837779998779,-2.465027093887329,3699.7041015625,0
326.2519999999986,0.01987473852932453,-0.0333702526986599,0.0019805580377578735,0.0,0.0,0.0,0.0,0.0005957096000202,0.003286904888227582,0.0007847266970202327,1.0008307695388794,0.0,0.0,0.0,-20.40018653869629,6.958583354949951,-2.4612321853637695,3692.474365234375,0
336.1459999999988,0.019845955073833466,-0.033279769122600555,0.0020388637203723192,0.0,0.0,0.0,0.0,0.00011997442197753116,0.0033099495340138674,-0.0006032196106389165,1.0002577304840088,0.0,0.0,0.0,-20.4519100189209,6.9779372215271,-2.4780890941619873,3701.83642578125,0
346.03099999999904,0.019892672076821327,-0.03332510590553284,0.001974375220015645,0.0,0.0,0.0,0.0,0.0023961951956152916,-0.0011802481021732092,0.0024993689730763435,0.9994126558303833,0.0,0.0,0.0,-20.41127586364746,6.9614338874816895,-2.4777672290802,3694.481689453125,0
355.91299999999865,0.019862936809659004,-0.033242154866456985,0.0020214638207107782,0.0,0.0,0.0,0.0,0.001212047296576202,0.001866471255198121,-0.0017711416585370898,0.9983405470848083,0.0,0.0,0.0,-20.46185302734375,6.975977420806885,-2.4914166927337646,3703.63623046875,0
365.7999999999993,0.019866492599248886,-0.033316563814878464,0.001997674349695444,0.0,0.0,0.0,0.0,0.00099084060639143,-0.0054969326592981815,-0.000997071387246251,0.9981218576431274,0.0,0.0,0.0,-20.421558380126953,6.96124267578125,-2.477484941482544,3696.342529296875,0
375.6869999999999,0.019879160448908806,-0.03330173343420029,0.002021279651671648,0.0,0.0,0.0,0.0,0.002188742160797119,0.00076521304436028,0.0016346573829650879,0.9982761144638062,0.0,0.0,0.0,-20.466970443725586,6.965021133422852,-2.4816997051239014,3704.562255859375,0
385.5779999999995,0.0198956411331892,-0.033353179693222046,0.0019869874231517315,0.0,0.0,0.0,0.0,0.0002559081476647407,-1.4101405213295948e-05,0.001392025500535965,1.0001308917999268,0.0,0.0,0.0,-20.424972534179688,6.9482102394104,-2.4569547176361084,3696.96044921875,0
395.46099999999933,0.0198956411331892,-0.033353179693222046,0.0019869874231517315,0.0,0.0,0.0,0.0,0.0016187888104468584,-0.0014596031978726387,-0.0007959296926856041,1.001741886138916,0.0,0.0,0.0,-20.424972534179688,6.9482102394104,-2.4569547176361084,3696.96044921875,0
405.34699999999975,0.019909054040908813,-0.03339977189898491,0.001966281095519662,0.0,0.0,0.0,0.0,0.0019672608468681574,0.003471317235380411,0.0008502645650878549,0.9992566704750061,0.0,0.0,0.0,-20.38589859008789,6.93138313293457,-2.4575154781341553,3689.888427734375,0
415.241,0.019833294674754143,-0.03331184759736061,0.001987840747460723,0.0,0.0,0.0,0.0,-0.0010559551883488894,0.001140968524850905,-0.0060896496288478374,1.0000196695327759,0.0,0.0,0.0,-20.429288864135742,6.945624828338623,-2.4849085807800293,3697.74169921875,0
425.1209999999992,0.019872326403856277,-0.0333569198846817,0.0019092352595180273,0.0,0.0,0.0,0.0,-0.00185848877299577,0.0022401215974241495,0.0022184483241289854,1.0001591444015503,0.0,0.0,0.0,-20.38928985595703,6.935191631317139,-2.491565227508545,3690.501953125,0
435.0069999999996,0.01979774236679077,-0.03327860310673714,0.0019288158509880304,0.0,0.0,0.0,0.0,-0.00032879444188438356,0.0007932661101222038,0.0017087687738239765,1.0021413564682007,0.0,0.0,0.0,-20.439228057861328,6.945887565612793,-2.5135488510131836,3699.54052734375,0
444.8939999999984,0.01979411020874977,-0.033327311277389526,0.0018973629921674728,0.0,0.0,0.0,0.0,-0.000306852743960917,-0.0003856995317619294,0.0002055045624729246,1.0013033151626587,0.0,0.0,0.0,-20.398500442504883,6.940171241760254,-2.514183282852173,3692.16943359375,0
454.77999999999884,0.01979411020874977,-0.033327311277389526,0.0018973629921674728,0.0,0.0,0.0,0.0,-0.00216292473487556,0.001053718850016594,-0.0008668248192407191,1.0002374649047852,0.0,0.0,0.0,-20.398500442504883,6.940171241760254,-2.514183282852173,3692.16943359375,0
464.66699999999946,0.019814155995845795,-0.03336918726563454,0.0018334639025852084,0.0,0.0,0.0,0.0,-0.00010686383757274598,-0.002291162731125951,0.0007795721758157015,0.9978879690170288,0.0,0.0,0.0,-20.358251571655273,6.930892467498779,-2.5110673904418945,3684.8837890625,0
504.2149999999983,0.019753161817789078,-0.03335873782634735,0.0017896112985908985,0.0,0.0,0.0,0.0,-0.001123666181229055,-0.0033699972555041313,-0.002940008183941245,1.000670075416565,0.0,0.0,0.0,-20.324853897094727,6.926304340362549,-2.517256021499634,3678.83935546875,0
514.101999999999,0.01975877583026886,-0.03325800970196724,0.0018776204669848084,0.0,0.0,0.0,0.0,0.0021869195625185966,-0.0011488691670820117,-0.002902226522564888,1.0006293058395386,0.0,0.0,0.0,-20.37833023071289,6.9502854347229,-2.5295159816741943,3688.5185546875,0
523.9959999999992,0.01969231478869915,-0.0333644300699234,0.0018985734786838293,0.0,0.0,0.0,0.0,-0.0005736288148909807,0.002753020031377673,-0.002194250700995326,0.999019205570221,0.0,0.0,0.0,-20.338045120239258,6.937638759613037,-2.526895761489868,3681.226806640625,0
533.8739999999998,0.019713643938302994,-0.033286310732364655,0.001966795651242137,0.0,0.0,0.0,0.0,0.0014894906198605895,0.0019245983567088842,0.00012121535837650299,0.9989907145500183,0.0,0.0,0.0,-20.38814926147461,6.953302383422852,-2.5334997177124023,3690.295654296875,0
543.7619999999988,0.019688095897436142,-0.033335473388433456,0.001975493272766471,0.0,0.0,0.0,0.0,0.0004939315840601921,0.0025673278141766787,0.0018423136789351702,1.0001552104949951,0.0,0.0,0.0,-20.369123458862305,6.955066204071045,-2.5318949222564697,3686.85205078125,0
553.6539999999986,0.01967245526611805,-0.03337092325091362,0.0019818225409835577,0.0,0.0,0.0,0.0,-0.00043885246850550175,-0.0016070825513452291,0.0018360861577093601,0.9997674822807312,0.0,0.0,0.0,-20.34935760498047,6.9426116943359375,-2.527230978012085,3683.2744140625,0
563.5409999999993,0.019656646996736526,-0.03340814262628555,0.0019883555360138416,0.0,0.0,0.0,0.0,-0.001026629819534719,0.006178367417305708,-0.0038886035326868296,0.9978293776512146,0.0,0.0,0.0,-20.329374313354492,6.93489408493042,-2.522296905517578,3679.6572265625,0
573.4219999999987,0.019719740375876427,-0.03332223743200302,0.0021307969000190496,0.0,0.0,0.0,0.0,-0.003068211954087019,-0.008899169974029064,0.001824449165724218,1.0014592409133911,0.0,0.0,0.0,-20.37122917175293,6.961426258087158,-2.520275592803955,3687.23291015625,0
583.3149999999987,0.019705526530742645,-0.03335779160261154,0.0021446910686790943,0.0,0.0,0.0,0.0,-0.00017226734780706465,0.0014197038253769279,0.0007285557803697884,1.002012848854065,0.0,0.0,0.0,-20.349607467651367,6.952162742614746,-2.5117127895355225,3683.319580078125,0
593.1949999999997,0.01969686523079872,-0.033366549760103226,0.0021938325371593237,0.0,0.0,0.0,0.0,0.0012289556907489896,0.002065221546217799,0.0016063853399828076,1.00260591506958,0.0,0.0,0.0,-20.38248634338379,6.953761577606201,-2.511765718460083,3689.270751953125,0
603.0819999999985,0.019728777930140495,-0.033371105790138245,0.002161092357710004,0.0,0.0,0.0,0.0,0.003194976830855012,0.003043781965970993,0.0013840890023857355,0.999042272567749,0.0,0.0,0.0,-20.362150192260742,6.951638221740723,-2.511219024658203,3685.589599609375,0
612.9689999999991,0.019763408228754997,-0.03336257115006447,0.0022441758774220943,0.0,0.0,0.0,0.0,0.0025399685837328434,-0.002675179857760668,-0.00034905990469269454,0.998075008392334,0.0,0.0,0.0,-20.40199851989746,6.954101085662842,-2.522554397583008,3692.802490234375,0
622.866,0.019845781847834587,-0.03333521634340286,0.002167569939047098,0.0,0.0,0.0,0.0,0.0015075717819854617,0.00011816785263363272,0.0008036301587708294,0.9993808269500732,0.0,0.0,0.0,-20.387653350830078,6.963446617126465,-2.501919984817505,3690.205810546875,0
632.7489999999998,0.019838059321045876,-0.03337264806032181,0.0021836748346686363,0.0,0.0,0.0,0.0,-0.002799157751724124,-0.0034013616386801004,-0.0023412611335515976,1.0015531778335571,0.0,0.0,0.0,-20.36739158630371,6.9570441246032715,-2.502476692199707,3686.538330078125,0
642.6369999999988,0.019891448318958282,-0.03336530551314354,0.002128813648596406,0.0,0.0,0.0,0.0,0.0008620891603641212,0.0009763922425918281,0.0011805270332843065,1.000328540802002,0.0,0.0,0.0,-20.354053497314453,6.959964275360107,-2.4786758422851562,3684.124267578125,0
652.5179999999982,0.019859468564391136,-0.033350273966789246,0.00217345985583961,0.0,0.0,0.0,0.0,-0.0031761399004608393,-0.0032554303761571646,-0.0026764096692204475,0.9994090795516968,0.0,0.0,0.0,-20.383609771728516,6.963897705078125,-2.488022565841675,3689.47412109375,0
662.4099999999999,0.019890503957867622,-0.03338654339313507,0.0021202177740633488,0.0,0.0,0.0,0.0,0.0007525216788053513,-0.003558777505531907,0.0020481585524976254,0.9998957514762878,0.0,0.0,0.0,-20.362504959106445,6.961648464202881,-2.4774298667907715,3685.654052734375,0
672.2939999999999,0.01982576958835125,-0.033330950886011124,0.0021721795201301575,0.0,0.0,0.0,0.0,0.00016645292635075748,-0.0018523437902331352,0.0008993259398266673,0.9976255893707275,0.0,0.0,0.0,-20.403039932250977,6.962724208831787,-2.48339581489563,3692.99072265625,0
682.1839999999993,0.01985631324350834,-0.03336654603481293,0.002122023841366172,0.0,0.0,0.0,0.0,-0.00030293891904875636,-0.0008905435097403824,0.003469637129455805,0.9973248839378357,0.0,0.0,0.0,-20.381778717041016,6.96021842956543,-2.47833514213562,3689.142578125,0
692.0649999999987,0.019816171377897263,-0.0333244763314724,0.002171449363231659,0.0,0.0,0.0,0.0,0.0020707924850285053,0.0059049902483820915,0.0018996489234268665,0.9984683990478516,0.0,0.0,0.0,-20.422054290771484,6.962252616882324,-2.494135618209839,3696.43212890625,0
701.9589999999989,0.019872521981596947,-0.033322397619485855,0.002107737585902214,0.0,0.0,0.0,0.0,-0.00013334292452782393,-0.005932290572673082,0.0019991372246295214,0.9980831742286682,0.0,0.0,0.0,-20.401020050048828,6.950022220611572,-2.4918320178985596,3692.625244140625,0
711.8369999999995,0.019769350066781044,-0.033281147480010986,0.0021189767867326736,0.0,0.0,0.0,0.0,-0.0006874917889945209,0.002320188796147704,-0.002309298375621438,0.999113142490387,0.0,0.0,0.0,-20.433210372924805,6.945446968078613,-2.5217902660369873,3698.45166015625,0
721.732,0.019848022609949112,-0.033273134380578995,0.0020140986889600754,0.0,0.0,0.0,0.0,0.002695410745218396,-0.005092246923595667,0.0027139841113239527,1.0008366107940674,0.0,0.0,0.0,-20.411659240722656,6.942911148071289,-2.5088744163513184,3694.55078125,0
731.6189999999988,0.019813593477010727,-0.033212967216968536,0.002060216385871172,0.0,0.0,0.0,0.0,-0.0015908903442323208,-0.0017287950031459332,-0.003076717723160982,1.0006414651870728,0.0,0.0,0.0,-20.447647094726562,6.9485273361206055,-2.508700370788574,3701.06494140625,0
741.5069999999996,0.01986907422542572,-0.03322451561689377,0.001972377300262451,0.0,0.0,0.0,0.0,0.00031594521715305746,0.0014586918987333775,-0.002701561199501157,0.9991600513458252,0.0,0.0,0.0,-20.420503616333008,6.950840950012207,-2.489201784133911,3696.151611328125,0
751.3869999999988,0.0197924617677927,-0.03317383676767349,0.001990935066714883,0.0,0.0,0.0,0.0,0.00020521809346973896,-0.0010990670416504145,0.0005092843202874064,1.0004266500473022,0.0,0.0,0.0,-20.452293395996094,6.956090450286865,-2.507652997970581,3701.906005859375,0
761.2839999999997,0.019865458831191063,-0.03319171816110611,0.0018647590186446905,0.0,0.0,0.0,0.0,0.0030780460219830275,-0.00022424434428103268,0.0022870127577334642,0.9998989105224609,0.0,0.0,0.0,-20.432266235351562,6.939235210418701,-2.5026419162750244,3698.28076171875,0
771.1589999999997,0.019815627485513687,-0.03312654793262482,0.0018951775273308158,0.0,0.0,0.0,0.0,0.001967749325558543,0.0054326108656823635,-0.001736023579724133,1.0007927417755127,0.0,0.0,0.0,-20.4706974029541,6.945979118347168,-2.503669023513794,3705.2373046875,0
781.0569999999989,0.019830094650387764,-0.03317461535334587,0.0018309421138837934,0.0,0.0,0.0,0.0,0.004409275017678738,-0.0013111972948536277,0.0014416220365092158,1.0027269124984741,0.0,0.0,0.0,-20.44944953918457,6.941016674041748,-2.4971539974212646,3701.391357421875,0
790.9359999999997,0.01988515630364418,-0.03316042199730873,0.0018801165279000998,0.0,0.0,0.0,0.0,-4.3378535337978974e-05,0.002471806015819311,-0.0003026821359526366,1.0014303922653198,0.0,0.0,0.0,-20.484638214111328,6.942798137664795,-2.4955062866210938,3707.760009765625,0
800.8279999999995,0.01987714134156704,-0.03323632851243019,0.0018463731976225972,0.0,0.0,0.0,0.0,0.002314933342859149,0.0002047364105237648,0.0022262567654252052,0.9998536705970764,0.0,0.0,0.0,-20.463777542114258,6.931637763977051,-2.475815773010254,3703.984619140625,0
810.7059999999983,0.019892040640115738,-0.03319844976067543,0.001900543924421072,0.0,0.0,0.0,0.0,0.000666230043862015,-0.0026124923024326563,-0.0037103286013007164,1.0004318952560425,0.0,0.0,0.0,-20.49770164489746,6.935022354125977,-2.4675304889678955,3710.125,0
820.6049999999996,0.019817844033241272,-0.0333157479763031,0.0019444420468062162,0.0,0.0,0.0,0.0,-0.0034568055998533964,0.004623522982001305,0.0011572330258786678,1.000942349433899,0.0,0.0,0.0,-20.477535247802734,6.9232378005981445,-2.457033395767212,3706.474853515625,0
830.485999999999,0.01982911489903927,-0.03327440842986107,0.002009541727602482,0.0,0.0,0.0,0.0,-0.0020769068505614996,0.0036062123253941536,0.003161599161103368,0.9997867345809937,0.0,0.0,0.0,-20.508092880249023,6.939428329467773,-2.4554312229156494,3712.005615234375,0
840.3799999999992,0.01980341598391533,-0.0333431251347065,0.00202362472191453,0.0,0.0,0.0,0.0,0.0017609160859137774,0.004918480291962624,0.001861157943494618,0.9996170997619629,0.0,0.0,0.0,-20.48760986328125,6.935910701751709,-2.461742639541626,3708.29833984375,0
850.2579999999998,0.01976620778441429,-0.03331826254725456,0.002065804321318865,0.0,0.0,0.0,0.0,0.001149143441580236,-0.0019290848867967725,-0.002035754732787609,1.0022389888763428,0.0,0.0,0.0,-20.518417358398438,6.938347339630127,-2.4910106658935547,3713.874267578125,0
860.1489999999994,0.019815023988485336,-0.03331378847360611,0.002016986720263958,0.0,0.0,0.0,0.0,0.0012345772702246904,-0.0010681123239919543,-0.0010400805622339249,1.000805139541626,0.0,0.0,0.0,-20.49797248840332,6.923635959625244,-2.5004632472991943,3710.173583984375,0
870.0289999999986,0.01980842649936676,-0.033347152173519135,0.0020253804977983236,0.0,0.0,0.0,0.0,0.0004616577934939414,0.0033728459384292364,-0.0037751621566712856,0.9985979795455933,0.0,0.0,0.0,-20.477874755859375,6.923727512359619,-2.4897823333740234,3706.535888671875,0
879.9199999999983,0.019796565175056458,-0.033392954617738724,0.0020333505235612392,0.0,0.0,0.0,0.0,0.001555143971927464,0.0031631523743271828,0.0016805339837446809,0.9996544718742371,0.0,0.0,0.0,-20.457542419433594,6.915260314941406,-2.4921669960021973,3702.85595703125,0
889.7999999999993,0.01980079524219036,-0.03334752470254898,0.002122980309650302,0.0,0.0,0.0,0.0,-0.0012311249738559127,-0.00693933479487896,0.0012197329197078943,0.9989073276519775,0.0,0.0,0.0,-20.489294052124023,6.930558204650879,-2.496800661087036,3708.60302734375,0
899.6969999999983,0.01985713467001915,-0.0333288237452507,0.0020753582939505577,0.0,0.0,0.0,0.0,-0.0012893864186480641,-0.0014919150853529572,-0.0008100875420495868,0.9993051290512085,0.0,0.0,0.0,-20.468406677246094,6.92277717590332,-2.495436191558838,3704.822509765625,0
909.5719999999983,0.0197466928511858,-0.0332697294652462,0.002099504927173257,0.0,0.0,0.0,0.0,-1.3927511645306367e-05,0.0025493388529866934,-2.585768925200682e-06,1.0006035566329956,0.0,0.0,0.0,-20.496179580688477,6.936712741851807,-2.511671781539917,3709.84912109375,0
919.4679999999989,0.01978631317615509,-0.03327437490224838,0.002055108081549406,0.0,0.0,0.0,0.0,-0.0018958640284836292,0.003394258674234152,-0.002010748954489827,1.0018031597137451,0.0,0.0,0.0,-20.475383758544922,6.927840232849121,-2.508124351501465,3706.085205078125,0
929.3449999999993,0.019742803648114204,-0.03323410451412201,0.002096296288073063,0.0,0.0,0.0,0.0,-0.00025052230921573937,0.00038948803558014333,0.0014788719126954675,1.0005102157592773,0.0,0.0,0.0,-20.50347900390625,6.927576065063477,-2.5101075172424316,3711.17041015625,0
939.2419999999984,0.01976565271615982,-0.03328046202659607,0.0020445985719561577,0.0,0.0,0.0,0.0,0.003924830816686153,-0.0014257156290113926,0.002257832558825612,1.0007288455963135,0.0,0.0,0.0,-20.483003616333008,6.919004917144775,-2.5157742500305176,3707.46435546875,0
949.1179999999986,0.019752126187086105,-0.033272795379161835,0.0020828398410230875,0.0,0.0,0.0,0.0,-0.0007906640530563891,-0.00422975467517972,-0.0011402295203879476,1.0012435913085938,0.0,0.0,0.0,-20.513839721679688,6.918421745300293,-2.5155282020568848,3713.045654296875,0
959.0179999999982,0.019795026630163193,-0.03327392041683197,0.0020338220056146383,0.0,0.0,0.0,0.0,-0.0012338345404714346,0.001658054068684578,0.003701494075357914,1.0014050006866455,0.0,0.0,0.0,-20.49391746520996,6.914735317230225,-2.5088062286376953,3709.43994140625,0
968.8919999999998,0.019743042066693306,-0.033223383128643036,0.0020799452904611826,0.0,0.0,0.0,0.0,-0.0006694498588331044,-0.0031528875697404146,-0.0010967511916533113,0.9993187189102173,0.0,0.0,0.0,-20.524015426635742,6.921281814575195,-2.52268648147583,3714.887451171875,0
978.7859999999982,0.019776036962866783,-0.03323512151837349,0.0020364460069686174,0.0,0.0,0.0,0.0,0.00010622340050758794,0.006402359344065189,-0.0037779484409838915,0.9998067021369934,0.0,0.0,0.0,-20.502685546875,6.911355972290039,-2.5274510383605957,3711.027099609375,0
988.664999999999,0.01977877877652645,-0.03323841094970703,0.0020732758566737175,0.0,0.0,0.0,0.0,0.0016912398859858513,-0.000636330689303577,-0.0038296428974717855,0.9974852204322815,0.0,0.0,0.0,-20.522939682006836,6.9135541915893555,-2.5253164768218994,3714.693115234375,0
998.5639999999985,0.019784489646553993,-0.033295851200819016,0.0020374900195747614,0.0,0.0,0.0,0.0,-0.0020387587137520313,-0.0025821756571531296,0.002390857320278883,0.9969768524169922,0.0,0.0,0.0,-20.50287628173828,6.906994342803955,-2.5358192920684814,3711.0615234375,0
1008.4449999999997,0.019738852977752686,-0.033262867480516434,0.0020720341708511114,0.0,0.0,0.0,0.0,-3.134027429041453e-05,0.0032984435092657804,0.0034085377119481564,0.9988471269607544,0.0,0.0,0.0,-20.522924423217773,6.908452987670898,-2.5477590560913086,3714.690185546875,0
1018.3379999999997,0.019726082682609558,-0.03332281857728958,0.0020566326566040516,0.0,0.0,0.0,0.0,0.00113889598287642,0.002629987895488739,-0.0022795191034674644,0.9980493187904358,0.0,0.0,0.0,-20.502422332763672,6.906940460205078,-2.5371475219726562,3710.9794921875,0
1028.2129999999997,0.019785409793257713,-0.033310141414403915,0.0021278855856508017,0.0,0.0,0.0,0.0,-0.000968600797932595,3.422174631850794e-05,0.000718584458809346,1.0002251863479614,0.0,0.0,0.0,-20.530109405517578,6.912736415863037,-2.5347888469696045,3715.99072265625,0
1038.1089999999986,0.01983695849776268,-0.03330686688423157,0.002067229710519314,0.0,0.0,0.0,0.0,0.003006330458447337,-0.0025471767876297235,0.0001750459778122604,0.9991306066513062,0.0,0.0,0.0,-20.503093719482422,6.915544509887695,-2.5296883583068848,3711.1005859375,0
1047.985999999999,0.019828680902719498,-0.03334268182516098,0.002067690249532461,0.0,0.0,0.0,0.0,-0.0023402825463563204,-0.0001748364302329719,-0.003228718414902687,1.0001857280731201,0.0,0.0,0.0,-20.483129501342773,6.905636787414551,-2.520529270172119,3707.4873046875,0
1057.884,0.019818823784589767,-0.033396076411008835,0.0020583984442055225,0.0,0.0,0.0,0.0,-0.0011044781422242522,0.002606231952086091,-0.0018449645722284913,1.0006812810897827,0.0,0.0,0.0,-20.463680267333984,6.895913124084473,-2.518462896347046,3703.966796875,0
1067.7599999999984,0.01979915238916874,-0.033356793224811554,0.002121186815202236,0.0,0.0,0.0,0.0,0.0012300543021410704,-0.005668428260833025,0.004495096858590841,0.9999298453330994,0.0,0.0,0.0,-20.493066787719727,6.920626163482666,-2.529956102371216,3709.2861328125,0
1077.6639999999989,0.019870568066835403,-0.03334726765751839,0.002033073687925935,0.0,0.0,0.0,0.0,-0.0003441597509663552,-0.0006068079965189099,0.0014962805435061455,1.000477910041809,0.0,0.0,0.0,-20.473751068115234,6.910542011260986,-2.528536558151245,3705.789794921875,0
1087.539999999999,0.019861966371536255,-0.03338324651122093,0.002032318152487278,0.0,0.0,0.0,0.0,0.0003153280122205615,0.0005881476681679487,3.1656284136261092e-06,0.9995183348655701,0.0,0.0,0.0,-20.453950881958008,6.904351711273193,-2.5172221660614014,3702.205810546875,0
1097.4289999999983,0.019923383370041847,-0.03334396332502365,0.0019756420515477657,0.0,0.0,0.0,0.0,-0.001107086893171072,0.003900165669620037,0.0010827999794855714,0.9975009560585022,0.0,0.0,0.0,-20.441017150878906,6.929529666900635,-2.497929573059082,3699.864501953125,0
1107.307999999999,0.019865987822413445,-0.03329426795244217,0.0020032264292240143,0.0,0.0,0.0,0.0,-0.0036025880835950375,-0.006875681225210428,-0.0014391741715371609,1.0012843608856201,0.0,0.0,0.0,-20.465402603149414,6.942285537719727,-2.5239882469177246,3704.27880859375,0
1117.2149999999983,0.019902920350432396,-0.03331373259425163,0.0019365133484825492,0.0,0.0,0.0,0.0,0.0017820221837610006,0.0006278665387071669,-0.0009979752358049154,1.001328706741333,0.0,0.0,0.0,-20.44420623779297,6.939830780029297,-2.528162717819214,3700.44189453125,0
1127.08,0.019895678386092186,-0.03334752470254898,0.0019279994303360581,0.0,0.0,0.0,0.0,-0.00144476187415421,0.0020646043121814728,0.004238657187670469,1.0018150806427002,0.0,0.0,0.0,-20.424304962158203,6.931050777435303,-2.52891206741333,3696.83984375,0
1136.9849999999988,0.01991727203130722,-0.03337225690484047,0.0018811913905665278,0.0,0.0,0.0,0.0,-0.0008189218933694065,-0.003029347863048315,0.0017011129530146718,1.0010944604873657,0.0,0.0,0.0,-20.403350830078125,6.928460121154785,-2.5240907669067383,3693.047119140625,0
1146.8549999999996,0.019910138100385666,-0.03340945020318031,0.0018730164738371968,0.0,0.0,0.0,0.0,0.001157204038463533,0.0053062839433550835,-0.0006176962633617222,0.9995121955871582,0.0,0.0,0.0,-20.38260269165039,6.922813415527344,-2.5282373428344727,3689.291748046875,0
1156.7479999999996,0.01991526037454605,-0.03341415897011757,0.0018652528524398804,0.0,0.0,0.0,0.0,0.0008063411805778742,-4.5200969907455146e-05,0.005875844974070787,1.000839114189148,0.0,0.0,0.0,-20.367355346679688,6.926738739013672,-2.51845383644104,3686.53173828125,0
1166.6279999999988,0.019784651696681976,-0.03328755870461464,0.0018928212812170386,0.0,0.0,0.0,0.0,-0.0008540440467186272,0.0003027746279258281,-0.0008489989559166133,0.9984785318374634,0.0,0.0,0.0,-20.3963680267334,6.959760665893555,-2.5713765621185303,3691.783203125,0
1176.521999999999,0.019783467054367065,-0.03330817073583603,0.0018646551761776209,0.0,0.0,0.0,0.0,-0.0010018212487921119,0.001453363336622715,0.0004876736202277243,0.9983847141265869,0.0,0.0,0.0,-20.374570846557617,6.954655647277832,-2.5742039680480957,3687.837890625,0
1186.4029999999984,0.019794214516878128,-0.03323076292872429,0.0019516678294166923,0.0,0.0,0.0,0.0,-0.001518506440334022,-0.002310152631253004,0.0035577435046434402,1.0001060962677002,0.0,0.0,0.0,-20.407651901245117,6.9724249839782715,-2.569762706756592,3693.825439453125,0
1196.2999999999993,0.019795099273324013,-0.033246878534555435,0.0019205815624445677,0.0,0.0,0.0,0.0,-0.0010039691114798188,0.0019433065317571163,-0.000967457250226289,1.0006589889526367,0.0,0.0,0.0,-20.3867244720459,6.967514514923096,-2.5713274478912354,3690.03759765625,0
1206.173999999999,0.019742855802178383,-0.03319035470485687,0.001960777910426259,0.0,0.0,0.0,0.0,-0.001353176310658455,-0.002175004919990897,0.004002527333796024,1.0008751153945923,0.0,0.0,0.0,-20.418094635009766,6.9722161293029785,-2.5780811309814453,3695.715576171875,0
1216.0699999999997,0.019687458872795105,-0.033267587423324585,0.0019692545756697655,0.0,0.0,0.0,0.0,-0.0018158371094614267,-1.3994491382618435e-05,0.0009610703564248979,0.9971156716346741,0.0,0.0,0.0,-20.397769927978516,6.965967178344727,-2.575308084487915,3692.037109375,0
1225.9479999999985,0.01977435126900673,-0.03324282914400101,0.002061444567516446,0.0,0.0,0.0,0.0,0.0023617467377334833,0.0023774132132530212,-0.0004650806949939579,0.9978935718536377,0.0,0.0,0.0,-20.428361892700195,6.973789215087891,-2.554093837738037,3697.573974609375,0
1235.8439999999991,0.01973852701485157,-0.03330283612012863,0.0020615586545318365,0.0,0.0,0.0,0.0,-0.0005038613453507423,0.0016985797556117177,0.0009214573656208813,1.0003994703292847,0.0,0.0,0.0,-20.408803939819336,6.969057559967041,-2.5422534942626953,3694.0341796875,0
1245.732,0.019782235845923424,-0.03328760340809822,0.002134620677679777,0.0,0.0,0.0,0.0,0.0023362685460597277,-0.004246769472956657,0.001085016061551869,0.9994837641716003,0.0,0.0,0.0,-20.441232681274414,6.97746467590332,-2.5370278358459473,3699.90380859375,0
1255.6299999999992,0.01978878490626812,-0.033327359706163406,0.002086500870063901,0.0,0.0,0.0,0.0,0.0017602596199139953,0.0017062716651707888,0.0001939465437317267,0.9985402822494507,0.0,0.0,0.0,-20.420570373535156,6.967039108276367,-2.5221104621887207,3696.1640625,0
1265.494999999999,0.01976601406931877,-0.033267926424741745,0.0021575770806521177,0.0,0.0,0.0,0.0,0.0007514323806390166,0.001956478925421834,0.00017167351325042546,0.9980972409248352,0.0,0.0,0.0,-20.450271606445312,6.969781398773193,-2.540043592453003,3701.5400390625,0
1275.3899999999994,0.01975909247994423,-0.033304713666439056,0.0021337352227419615,0.0,0.0,0.0,0.0,-0.0003752112970687449,-0.0026510723400861025,0.001700187916867435,0.9978429675102234,0.0,0.0,0.0,-20.430225372314453,6.9637298583984375,-2.5304832458496094,3697.911376953125,0
1285.2689999999984,0.0197017602622509,-0.033263493329286575,0.002180068287998438,0.0,0.0,0.0,0.0,0.001716290251351893,0.0005683478666469455,0.0012961839092895389,0.9992102980613708,0.0,0.0,0.0,-20.457876205444336,6.966762542724609,-2.540029764175415,3702.91650390625,0
1295.164999999999,0.01970447413623333,-0.03329456225037575,0.0021419005934149027,0.0,0.0,0.0,0.0,0.0039224931970238686,0.0038058473728597164,0.0028475578874349594,1.0007455348968506,0.0,0.0,0.0,-20.43794822692871,6.963188171386719,-2.5294201374053955,3699.30908203125,0
1305.0429999999997,0.019737228751182556,-0.03327666223049164,0.0022118212655186653,0.0,0.0,0.0,0.0,-0.0013023184146732092,0.00427053589373827,-0.0047574350610375404,1.0033680200576782,0.0,0.0,0.0,-20.4660587310791,6.96057653427124,-2.5382485389709473,3704.397705078125,0
1314.9429999999993,0.01976880617439747,-0.03330367058515549,0.002134273061528802,0.0,0.0,0.0,0.0,-0.0011587128974497318,0.0026053597684949636,0.0022424731869250536,1.0007950067520142,0.0,0.0,0.0,-20.445154190063477,6.947630882263184,-2.550598621368408,3700.61328125,0
1324.8149999999987,0.01976957730948925,-0.033255212008953094,0.0022071124985814095,0.0,0.0,0.0,0.0,0.0018702744273468852,-0.0022011445835232735,0.00024608257808722556,0.9989654421806335,0.0,0.0,0.0,-20.474164962768555,6.95651912689209,-2.5562617778778076,3705.86474609375,0
1334.7079999999987,0.01978965289890766,-0.03329288959503174,0.00214223749935627,0.0,0.0,0.0,0.0,0.0016695590456947684,0.0011107083410024643,-0.000919816957321018,0.9997608661651611,0.0,0.0,0.0,-20.45426368713379,6.949345111846924,-2.5539119243621826,3702.2626953125,0
1344.592999999999,0.019799452275037766,-0.03330295905470848,0.0021810303442180157,0.0,0.0,0.0,0.0,-0.00022188694856595248,-0.0005390683654695749,0.004054118879139423,0.9982844591140747,0.0,0.0,0.0,-20.474620819091797,6.937049865722656,-2.5604090690612793,3705.947021484375,0
1354.4789999999994,0.01981186494231224,-0.03334873914718628,0.002127367537468672,0.0,0.0,0.0,0.0,0.0008479991229251027,-0.001883898046799004,-0.00233474001288414,0.9989155530929565,0.0,0.0,0.0,-20.453388214111328,6.930064678192139,-2.5650010108947754,3702.103759765625,0
1364.366,0.01979231834411621,-0.03332212567329407,0.0021783828269690275,0.0,0.0,0.0,0.0,-0.0022701399866491556,-0.00016126950504258275,0.001892986474558711,0.9985885620117188,0.0,0.0,0.0,-20.484867095947266,6.939449787139893,-2.560164213180542,3707.801513671875,0
1374.2609999999986,0.01979452185332775,-0.033356353640556335,0.0021459884010255337,0.0,0.0,0.0,0.0,-0.002358696423470974,-0.0017625408945605159,-0.0012713285395875573,0.9988611936569214,0.0,0.0,0.0,-20.464120864868164,6.9369587898254395,-2.5551743507385254,3704.04638671875,0
1384.146999999999,0.019772445783019066,-0.0333920493721962,0.0021477185655385256,0.0,0.0,0.0,0.0,-0.00048702320782467723,-0.0009486499475315213,-0.002213458064943552,0.9988743662834167,0.0,0.0,0.0,-20.443193435668945,6.932578086853027,-2.557724952697754,3700.2587890625,0
1394.030999999999,0.01981296017765999,-0.03337791934609413,0.0020828992128372192,0.0,0.0,0.0,0.0,-0.0008239943999797106,-0.0013445349177345634,-0.00019872239499818534,1.0014375448226929,0.0,0.0,0.0,-20.422090530395508,6.926401615142822,-2.540349006652832,3696.43896484375,0
1403.9159999999993,0.01979265734553337,-0.033415429294109344,0.0020784097723662853,0.0,0.0,0.0,0.0,-0.0019272899953648448,-0.004169507417827845,-0.0006578262546099722,0.9991739392280579,0.0,0.0,0.0,-20.401620864868164,6.921745777130127,-2.5361902713775635,3692.733642578125,0
1413.7979999999989,0.019807303324341774,-0.033455707132816315,0.002013780642300844,0.0,0.0,0.0,0.0,0.000367826345609501,-0.0020054036285728216,-0.00285016349516809,0.9996402263641357,0.0,0.0,0.0,-20.380695343017578,6.920729160308838,-2.514565944671631,3688.946533203125,0
1423.690999999999,0.019685791805386543,-0.033333919942379,0.0020608396735042334,0.0,0.0,0.0,0.0,-0.0006060111336410046,-0.0023462495300918818,0.000597216363530606,0.9985584020614624,0.0,0.0,0.0,-20.411739349365234,6.953428745269775,-2.5539298057556152,3694.5654296875,0
1433.5779999999995,0.01968829520046711,-0.03335389494895935,0.0020190065260976553,0.0,0.0,0.0,0.0,-0.002340101869776845,0.0034332983195781708,-0.0004787359794136137,0.9978340268135071,0.0,0.0,0.0,-20.397705078125,6.944869041442871,-2.546602487564087,3692.025390625,0
1443.4689999999991,0.019673489034175873,-0.03330319747328758,0.0020800072234123945,0.0,0.0,0.0,0.0,0.001295661786571145,-0.002944128355011344,0.00031229478190653026,0.9976242184638977,0.0,0.0,0.0,-20.427839279174805,6.970505714416504,-2.556333303451538,3697.4794921875,0
1453.3459999999995,0.019698670133948326,-0.03331955894827843,0.002001771703362465,0.0,0.0,0.0,0.0,0.0016286673489958048,-0.0008340243948623538,-0.000911401235498488,1.0000797510147095,0.0,0.0,0.0,-20.4073543548584,6.961404800415039,-2.553769111633301,3693.771728515625,0
1463.2389999999996,0.019679062068462372,-0.03327401354908943,0.002047852147370577,0.0,0.0,0.0,0.0,0.0006517992005683482,-0.0010454477742314339,-0.0005934312357567251,1.000334620475769,0.0,0.0,0.0,-20.43537712097168,6.972324848175049,-2.5564632415771484,3698.843994140625,0
1473.1239999999998,0.01966363750398159,-0.0333128497004509,0.0020084246061742306,0.0,0.0,0.0,0.0,0.0031577914487570524,0.0014071986079216003,-0.0006343044806271791,0.9990794062614441,0.0,0.0,0.0,-20.413631439208984,6.963801383972168,-2.545809268951416,3694.90771484375,0
1483.0119999999988,0.01969699189066887,-0.0332961305975914,0.0020593060180544853,0.0,0.0,0.0,0.0,-0.0017722520278766751,-0.00206643994897604,0.004507478792220354,0.9990943074226379,0.0,0.0,0.0,-20.438512802124023,6.9640607833862305,-2.553337812423706,3699.411376953125,0
1492.8929999999982,0.019684262573719025,-0.033329788595438004,0.0020271011162549257,0.0,0.0,0.0,0.0,-0.002269565360620618,0.0010267505422234535,0.0006189628038555384,1.0000520944595337,0.0,0.0,0.0,-20.418033599853516,6.960883617401123,-2.5450332164764404,3695.704833984375,0
1502.7849999999999,0.019673435017466545,-0.03328588232398033,0.0020774644799530506,0.0,0.0,0.0,0.0,-0.0002087789325742051,-0.0010393145494163036,-0.0023767873644828796,0.9990443587303162,0.0,0.0,0.0,-20.4477481842041,6.968772888183594,-2.554018497467041,3701.08349609375,0
1512.6659999999993,0.019743187353014946,-0.033266227692365646,0.0019609115552157164,0.0,0.0,0.0,0.0,-0.0032546573784202337,-0.0011100240517407656,0.003175299149006605,0.9983642101287842,0.0,0.0,0.0,-20.426490783691406,6.964590549468994,-2.546125888824463,3697.2353515625,0
1522.557999999999,0.01972188800573349,-0.033289991319179535,0.0019482473144307733,0.0,0.0,0.0,0.0,0.0007863530772738159,0.0024114742409437895,0.001435568556189537,1.0011423826217651,0.0,0.0,0.0,-20.406784057617188,6.963111400604248,-2.5454888343811035,3693.66845703125,0
1532.4389999999985,0.01973515748977661,-0.03329606354236603,0.0018955748528242111,0.0,0.0,0.0,0.0,0.0031492444686591625,0.003474131226539612,0.0036222636699676514,0.9995794892311096,0.0,0.0,0.0,-20.39236068725586,6.9634785652160645,-2.5446012020111084,3691.057861328125,0
1542.333999999999,0.019718337804079056,-0.03332311660051346,0.0018793103517964482,0.0,0.0,0.0,0.0,0.001509804860688746,-0.0016935586463660002,-0.0011063358979299664,1.0000845193862915,0.0,0.0,0.0,-20.371471405029297,6.955947399139404,-2.5404984951019287,3687.27685546875,0
1552.2119999999995,0.019751492887735367,-0.033319417387247086,0.0017968520987778902,0.0,0.0,0.0,0.0,0.0044365874491631985,0.003457952057942748,0.0017237236024811864,0.9977684020996094,0.0,0.0,0.0,-20.351987838745117,6.946009635925293,-2.543710708618164,3683.750244140625,0
1562.1049999999996,0.019738268107175827,-0.0333467535674572,0.0017751631094142795,0.0,0.0,0.0,0.0,-2.4337710783584043e-05,-0.005616157781332731,-0.00033542345045134425,0.9986554384231567,0.0,0.0,0.0,-20.331356048583984,6.932339191436768,-2.551307439804077,3680.015869140625,0
1571.9849999999988,0.019760672003030777,-0.0333426259458065,0.0017100706463679671,0.0,0.0,0.0,0.0,0.0023191357031464577,0.0015257765771821141,-0.0031645840499550104,1.0005033016204834,0.0,0.0,0.0,-20.3116512298584,6.915840148925781,-2.5503695011138916,3676.44921875,0
1581.8799999999992,0.019826548174023628,-0.033276963979005814,0.0018412515055388212,0.0,0.0,0.0,0.0,-0.0019880947656929493,0.0002587729541119188,0.0008754994487389922,0.998986542224884,0.0,0.0,0.0,-20.348712921142578,6.9462151527404785,-2.539644479751587,3683.15771484375,0
1591.7579999999998,0.019833365455269814,-0.03331374749541283,0.0017916790675371885,0.0,0.0,0.0,0.0,0.0033090964425355196,-0.0034175014588981867,-0.003365827491506934,0.997474193572998,0.0,0.0,0.0,-20.336322784423828,6.929076671600342,-2.5372607707977295,3680.9150390625,0
1601.6529999999984,0.019853921607136726,-0.03325415030121803,0.0018546843202784657,0.0,0.0,0.0,0.0,0.0010344189358875155,0.005060380324721336,-0.003361351089552045,0.9973285794258118,0.0,0.0,0.0,-20.369422912597656,6.944087028503418,-2.5283799171447754,3686.906005859375,0
1611.5319999999992,0.01985563151538372,-0.03329509124159813,0.0018138816813006997,0.0,0.0,0.0,0.0,0.00026188333868049085,0.00036059675039723516,-0.0006625130772590637,0.9977589249610901,0.0,0.0,0.0,-20.358686447143555,6.932201862335205,-2.520315647125244,3684.962890625,0
1621.4319999999989,0.01986808516085148,-0.03323959559202194,0.0018620536429807544,0.0,0.0,0.0,0.0,-0.0006919895531609654,0.0005301533965393901,0.0008117528632283211,0.9984312653541565,0.0,0.0,0.0,-20.390846252441406,6.939657688140869,-2.5354349613189697,3690.78369140625,0
1631.3049999999985,0.019793499261140823,-0.033335573971271515,0.0018966018687933683,0.0,0.0,0.0,0.0,0.0007937182672321796,-0.0008363689412362874,0.0022862351033836603,1.0008435249328613,0.0,0.0,0.0,-20.369348526000977,6.933712482452393,-2.5321383476257324,3686.892578125,0
1641.1989999999987,0.01982247829437256,-0.033278144896030426,0.0019619129598140717,0.0,0.0,0.0,0.0,0.0006700871745124459,-0.00385858491063118,-0.0010081344516947865,1.0034877061843872,0.0,0.0,0.0,-20.40438461303711,6.938016891479492,-2.5412564277648926,3693.23388671875,0
1651.0789999999997,0.019836943596601486,-0.03329385817050934,0.0019276238745078444,0.0,0.0,0.0,0.0,0.0031581073999404907,0.0017777003813534975,0.0012774138012900949,1.000644564628601,0.0,0.0,0.0,-20.390037536621094,6.934855937957764,-2.5267999172210693,3690.637451171875,0
1660.9799999999996,0.01983916014432907,-0.033244624733924866,0.0019844090566039085,0.0,0.0,0.0,0.0,0.0010766779305413365,0.0037887627258896828,0.0012570366961881518,0.9983820915222168,0.0,0.0,0.0,-20.42429542541504,6.942157745361328,-2.5335400104522705,3696.838134765625,0
1670.8529999999992,0.019813144579529762,-0.03332937881350517,0.0019698599353432655,0.0,0.0,0.0,0.0,0.0005238227895461023,-0.0022109122946858406,0.0001869329862529412,0.9987269639968872,0.0,0.0,0.0,-20.40386390686035,6.928384304046631,-2.5256590843200684,3693.139892578125,0
1680.7489999999998,0.019788438454270363,-0.03324546292424202,0.0020397440530359745,0.0,0.0,0.0,0.0,-0.00011305716907372698,-0.003690257202833891,-0.003869428765028715,1.000381588935852,0.0,0.0,0.0,-20.435258865356445,6.942334175109863,-2.5423569679260254,3698.822509765625,0
1690.6369999999988,0.01979970373213291,-0.033268243074417114,0.0020121161360293627,0.0,0.0,0.0,0.0,-0.0015311043243855238,-0.0029943750705569983,-0.0005267405067570508,1.000801682472229,0.0,0.0,0.0,-20.415843963623047,6.935279846191406,-2.521763801574707,3695.30859375,0
1700.5209999999988,0.01975422166287899,-0.03322884812951088,0.0020517006050795317,0.0,0.0,0.0,0.0,0.0012666058028116822,0.0033650833647698164,-0.000708522682543844,1.0003273487091064,0.0,0.0,0.0,-20.444551467895508,6.942335605621338,-2.522982597351074,3700.50439453125,0
1710.3999999999996,0.019764531403779984,-0.033289697021245956,0.001996395643800497,0.0,0.0,0.0,0.0,-0.0019495160086080432,-0.003631225321441889,-0.0003673340252134949,0.9995421767234802,0.0,0.0,0.0,-20.42436408996582,6.940217018127441,-2.5133016109466553,3696.850341796875,0
1720.2939999999999,0.01972268708050251,-0.03325977176427841,0.002029919996857643,0.0,0.0,0.0,0.0,-0.0009607906686142087,-0.0076698483899235725,6.655964625679189e-06,1.0003738403320312,0.0,0.0,0.0,-20.444711685180664,6.936351776123047,-2.528231620788574,3700.533447265625,0
1730.1729999999989,0.019756056368350983,-0.03326694294810295,0.001979616703465581,0.0,0.0,0.0,0.0,-0.0017652582610026002,-0.007594089489430189,-0.0005452201585285366,0.9995301365852356,0.0,0.0,0.0,-20.424917221069336,6.936750888824463,-2.511328935623169,3696.95068359375,0
1740.066999999999,0.01974998228251934,-0.03322889283299446,0.002033430151641369,0.0,0.0,0.0,0.0,0.001854417845606804,0.006598873529583216,0.0006835381500422955,1.0022227764129639,0.0,0.0,0.0,-20.44468879699707,6.9490180015563965,-2.492234706878662,3700.529296875,0
1749.949999999999,0.019793137907981873,-0.03325127437710762,0.0019539068453013897,0.0,0.0,0.0,0.0,-0.0012976001016795635,0.001070764265023172,0.001969069242477417,1.0009989738464355,0.0,0.0,0.0,-20.424680709838867,6.940016746520996,-2.495443105697632,3696.90771484375,0
1759.8489999999983,0.019758393988013268,-0.03322518989443779,0.0019880046602338552,0.0,0.0,0.0,0.0,-0.0018490644870325923,-0.004858846310526133,-0.0017676695715636015,1.0016682147979736,0.0,0.0,0.0,-20.45021629333496,6.944501876831055,-2.497347831726074,3701.52978515625,0
1769.726999999999,0.019826918840408325,-0.033186282962560654,0.0019119136268272996,0.0,0.0,0.0,0.0,0.0013918288750573993,0.0022806720808148384,0.0013552781892940402,1.0006418228149414,0.0,0.0,0.0,-20.43025779724121,6.934890270233154,-2.493906259536743,3697.9169921875,0
1779.6169999999984,0.01981351524591446,-0.03318887948989868,0.0019421627512201667,0.0,0.0,0.0,0.0,0.0020594652742147446,-0.006004019174724817,-7.618423842359334e-05,0.9995524287223816,0.0,0.0,0.0,-20.459091186523438,6.9353461265563965,-2.488729476928711,3703.13623046875,0
1789.4939999999988,0.019834017381072044,-0.03322815150022507,0.0018777415389195085,0.0,0.0,0.0,0.0,-0.002393832430243492,-0.004397937096655369,-0.00037967273965477943,0.9989233016967773,0.0,0.0,0.0,-20.43880844116211,6.931856632232666,-2.4778671264648438,3699.464599609375,0
1799.387999999999,0.01979658380150795,-0.03318120911717415,0.0019273862708359957,0.0,0.0,0.0,0.0,0.004265619907528162,-0.003251907415688038,-0.0043859523721039295,0.9988190531730652,0.0,0.0,0.0,-20.467920303344727,6.941751956939697,-2.4779422283172607,3704.734619140625,0
1809.2679999999982,0.0198204442858696,-0.03321487456560135,0.0018581913318485022,0.0,0.0,0.0,0.0,-0.0020532466005533934,-0.0015375354560092092,0.00047173682833090425,1.000165581703186,0.0,0.0,0.0,-20.447402954101562,6.930514812469482,-2.468592882156372,3701.020751953125,0
1819.1699999999983,0.01986442320048809,-0.03320404514670372,0.0019200760871171951,0.0,0.0,0.0,0.0,-0.0013199819950386882,-0.0016705055022612214,-0.0005769392009824514,0.9994154572486877,0.0,0.0,0.0,-20.475421905517578,6.935544967651367,-2.4627280235290527,3706.09228515625,0
1829.039999999999,0.01983923837542534,-0.03326649218797684,0.0019102991791442037,0.0,0.0,0.0,0.0,-1.536409035907127e-05,-0.001861713477410376,-0.0022452606353908777,1.000186800956726,0.0,0.0,0.0,-20.455413818359375,6.927980899810791,-2.4537336826324463,3702.470458984375,0
1838.9379999999983,0.019772393628954887,-0.03322489559650421,0.0019455159781500697,0.0,0.0,0.0,0.0,0.00034847570350393653,0.0013442562194541097,0.00401838356629014,0.9987020492553711,0.0,0.0,0.0,-20.475799560546875,6.935897350311279,-2.453113555908203,3706.160400390625,0
1848.8189999999995,0.019749710336327553,-0.033305954188108444,0.0019154355395585299,0.0,0.0,0.0,0.0,-0.0018353129271417856,-0.002852780744433403,0.0036053326912224293,1.000179648399353,0.0,0.0,0.0,-20.45502471923828,6.932492256164551,-2.44340181350708,3702.400390625,0
1858.7159999999985,0.019725613296031952,-0.033350273966789246,0.0019142951350659132,0.0,0.0,0.0,0.0,0.0006140384939499199,0.0004336975107435137,0.0004942581872455776,1.0006060600280762,0.0,0.0,0.0,-20.433963775634766,6.922523021697998,-2.437279224395752,3698.587890625,0
1868.5919999999987,0.019718404859304428,-0.033401668071746826,0.0018805733416229486,0.0,0.0,0.0,0.0,-0.004807466175407171,-0.008843015879392624,0.0006555502768605947,0.9970262050628662,0.0,0.0,0.0,-20.41345977783203,6.921603679656982,-2.4268476963043213,3694.876708984375,0
1878.4849999999988,0.019692711532115936,-0.03345087915658951,0.0018770500319078565,0.0,0.0,0.0,0.0,-0.002918777521699667,-0.0010155551135540009,0.0009373498614877462,0.997160792350769,0.0,0.0,0.0,-20.392412185668945,6.915781497955322,-2.421177864074707,3691.0673828125,0
1888.3629999999994,0.019676756113767624,-0.03346330299973488,0.0018793230410665274,0.0,0.0,0.0,0.0,0.00013017497258260846,-0.0013686709571629763,-0.002948679495602846,0.9988821744918823,0.0,0.0,0.0,-20.377321243286133,6.926677703857422,-2.4050590991973877,3688.335693359375,0
1898.2559999999994,0.01965026929974556,-0.033513061702251434,0.001872439868748188,0.0,0.0,0.0,0.0,-0.0020372725557535887,-0.003061239141970873,0.0010905390372499824,1.000817060470581,0.0,0.0,0.0,-20.357097625732422,6.924193859100342,-2.396580696105957,3684.675048828125,0
1908.1349999999984,0.019641317427158356,-0.03352000191807747,0.001862914185039699,0.0,0.0,0.0,0.0,0.001361630274914205,0.0018650263082236052,0.001119090709835291,1.0000149011611938,0.0,0.0,0.0,-20.345096588134766,6.934167385101318,-2.37424898147583,3682.5029296875,0
1918.0349999999999,0.01961619034409523,-0.033569660037755966,0.0018553214613348246,0.0,0.0,0.0,0.0,-0.0007359485025517642,0.001688677235506475,-0.0002208763180533424,0.9982149600982666,0.0,0.0,0.0,-20.324975967407227,6.9283294677734375,-2.370835304260254,3678.861328125,0
1927.9089999999997,0.019634049385786057,-0.03351449593901634,0.0018571713007986546,0.0,0.0,0.0,0.0,0.0010744979372248054,-0.0021126677747815847,4.8748988774605095e-05,0.9991051554679871,0.0,0.0,0.0,-20.314699172973633,6.963976860046387,-2.3634626865386963,3677.000732421875,0
1937.8019999999997,0.019614174962043762,-0.0335601270198822,0.0018490103539079428,0.0,0.0,0.0,0.0,0.002117718569934368,-0.0034040180034935474,0.002083163009956479,1.0002001523971558,0.0,0.0,0.0,-20.294235229492188,6.961510181427002,-2.3532984256744385,3673.296875,0
1947.6849999999995,0.019622856751084328,-0.03353700786828995,0.0018468910129740834,0.0,0.0,0.0,0.0,0.0031648785807192326,-0.0030318661592900753,0.0023138695396482944,0.9991756677627563,0.0,0.0,0.0,-20.2811336517334,6.99040412902832,-2.3401505947113037,3670.925537109375,0
1957.5829999999987,0.019603176042437553,-0.03358045965433121,0.0018382914131507277,0.0,0.0,0.0,0.0,-0.005192584823817015,-0.00016464888176415116,-0.0035642990842461586,0.9999299049377441,0.0,0.0,0.0,-20.261445999145508,6.980449676513672,-2.332637310028076,3667.362060546875,0
1967.4579999999987,0.01961853913962841,-0.03355056419968605,0.0018335651839151978,0.0,0.0,0.0,0.0,0.0019828975200653076,0.006966665852814913,-0.0009578379103913903,1.000090479850769,0.0,0.0,0.0,-20.252161026000977,7.006685256958008,-2.318110704421997,3665.681396484375,0
1977.3539999999994,0.019601017236709595,-0.03359184041619301,0.0018246726831421256,0.0,0.0,0.0,0.0,-0.001061552087776363,0.0047971336171031,1.0875975021917839e-05,1.000382661819458,0.0,0.0,0.0,-20.232927322387695,7.004149436950684,-2.3254871368408203,3662.199951171875,0
1987.2289999999994,0.019616462290287018,-0.0335647352039814,0.0018219123594462872,0.0,0.0,0.0,0.0,0.002835453487932682,-0.0013155913911759853,0.0009755672654137015,1.0012792348861694,0.0,0.0,0.0,-20.22530174255371,7.0276055335998535,-2.3193154335021973,3660.81982421875,0
1997.1209999999992,0.019600480794906616,-0.033605001866817474,0.001814187504351139,0.0,0.0,0.0,0.0,0.00037489383248612285,-0.007371318060904741,0.0013856401201337576,0.9999066591262817,0.0,0.0,0.0,-20.205245971679688,7.019496917724609,-2.3227622509002686,3657.189697265625,0
2007.0019999999986,0.01961538940668106,-0.033563293516635895,0.0018239164492115378,0.0,0.0,0.0,0.0,0.0017216779524460435,0.0016786787891760468,0.003484034677967429,0.999243974685669,0.0,0.0,0.0,-20.19632911682129,7.039797306060791,-2.305783271789551,3655.57568359375,0
2016.8949999999986,0.019602937623858452,-0.03360048681497574,0.001818206044845283,0.0,0.0,0.0,0.0,-0.0012523281620815396,-0.008761231787502766,0.004200148396193981,1.0002373456954956,0.0,0.0,0.0,-20.175254821777344,7.035054683685303,-2.291440486907959,3651.76123046875,0
2026.7759999999998,0.01964334212243557,-0.03357921168208122,0.0017908710287883878,0.0,0.0,0.0,0.0,-0.001189287519082427,0.0012256755726411939,-0.0017183416057378054,1.0015004873275757,0.0,0.0,0.0,-20.1688232421875,7.055943012237549,-2.2681725025177,3650.59716796875,0
2036.6699999999983,0.019633997231721878,-0.033613719046115875,0.0017825323157012463,0.0,0.0,0.0,0.0,0.0012773083290085196,-0.0033387544099241495,0.0007772311801090837,0.9996224045753479,0.0,0.0,0.0,-20.14832305908203,7.050751686096191,-2.2502548694610596,3646.886474609375,0
2046.548999999999,0.019624069333076477,-0.033649299293756485,0.0017754931468516588,0.0,0.0,0.0,0.0,-0.0011805016547441483,0.0028565912507474422,0.002939642174169421,0.9985657930374146,0.0,0.0,0.0,-20.128816604614258,7.040655612945557,-2.2483150959014893,3643.35595703125,0
2056.4489999999987,0.01961449533700943,-0.03368651121854782,0.001768909627571702,0.0,0.0,0.0,0.0,2.927919922512956e-05,-0.002512942999601364,0.0014117808314040303,1.001224398612976,0.0,0.0,0.0,-20.106433868408203,7.035864353179932,-2.2348079681396484,3639.3046875,0
2066.3229999999985,0.01960589550435543,-0.033725325018167496,0.001761712715961039,0.0,0.0,0.0,0.0,0.0016167497960850596,0.002383772050961852,-0.0001311788073508069,1.0017071962356567,0.0,0.0,0.0,-20.087644577026367,7.0367021560668945,-2.233949661254883,3635.90380859375,0
2076.2289999999994,0.019597956910729408,-0.033765532076358795,0.0017550624907016754,0.0,0.0,0.0,0.0,-0.0008406216511502862,-0.0014803444501012564,0.004496678244322538,1.0001304149627686,0.0,0.0,0.0,-20.066673278808594,7.029718399047852,-2.2257776260375977,3632.107666015625,0
2086.0959999999995,0.019591018557548523,-0.03380816429853439,0.001749924966134131,0.0,0.0,0.0,0.0,-0.001425105961970985,-0.0003265177074354142,0.0006975671276450157,1.0000303983688354,0.0,0.0,0.0,-20.044757843017578,7.020497798919678,-2.2281036376953125,3628.14111328125,0
2095.9919999999984,0.019610732793807983,-0.03351553902029991,0.002097322139889002,0.0,0.0,0.0,0.0,0.0006809474434703588,0.0001038135087583214,0.002122552366927266,0.9984350800514221,0.0,0.0,0.0,-20.095598220825195,7.106841087341309,-2.2582619190216064,3637.34326171875,0
2105.869999999999,0.019605476409196854,-0.0335422158241272,0.0021137611474841833,0.0,0.0,0.0,0.0,0.00035238696727901697,0.006265741307288408,0.00016919232439249754,0.9978146553039551,0.0,0.0,0.0,-20.074504852294922,7.105478286743164,-2.261638641357422,3633.525146484375,0
2115.7689999999984,0.019653527066111565,-0.033452413976192474,0.002299527870491147,0.0,0.0,0.0,0.0,0.0007841724436730146,-0.002000433159992099,0.0020493543706834316,0.9966979026794434,0.0,0.0,0.0,-20.1358585357666,7.134294033050537,-2.2636020183563232,3644.63037109375,0
2125.642999999998,0.019651561975479126,-0.033475033938884735,0.002322849817574024,0.0,0.0,0.0,0.0,-0.0007752504898235202,-0.0030414587818086147,-0.0017953300848603249,0.9976559281349182,0.0,0.0,0.0,-20.115909576416016,7.126178741455078,-2.25722074508667,3641.019775390625,0
2135.5369999999984,0.019633304327726364,-0.03343652933835983,0.0024136423598974943,0.0,0.0,0.0,0.0,0.0002970541827380657,-0.0038047372363507748,-0.0029732021503150463,1.0002915859222412,0.0,0.0,0.0,-20.172000885009766,7.134642124176025,-2.261964797973633,3651.172119140625,0
2145.4169999999995,0.019631067290902138,-0.03345870599150658,0.0024371319450438023,0.0,0.0,0.0,0.0,-0.0014010283630341291,0.0027693482115864754,0.0018270222935825586,1.0005403757095337,0.0,0.0,0.0,-20.152015686035156,7.131613731384277,-2.2579562664031982,3647.55517578125,0
2155.3129999999983,0.019656971096992493,-0.03342541679739952,0.0025338949635624886,0.0,0.0,0.0,0.0,-0.001371943624690175,0.00109559902921319,0.00310672540217638,1.0008323192596436,0.0,0.0,0.0,-20.209470748901367,7.138224124908447,-2.265375852584839,3657.95458984375,0
2165.190999999999,0.01965678483247757,-0.033444467931985855,0.0025636230129748583,0.0,0.0,0.0,0.0,-0.00026995738153345883,0.006492710672318935,-0.0011107483878731728,1.0000531673431396,0.0,0.0,0.0,-20.189697265625,7.131449222564697,-2.255809783935547,3654.37548828125,0
2175.0909999999985,0.019656924530863762,-0.033465154469013214,0.002594250487163663,0.0,0.0,0.0,0.0,0.00033004337456077337,0.0005427919095382094,-0.0020363912917673588,0.999113917350769,0.0,0.0,0.0,-20.170026779174805,7.128032684326172,-2.2614707946777344,3650.81494140625,0
2184.964,0.019656410440802574,-0.03348807990550995,0.00262527447193861,0.0,0.0,0.0,0.0,-0.0004341693711467087,-0.0007201674161478877,0.0009182710200548172,0.9988058805465698,0.0,0.0,0.0,-20.14929962158203,7.120046138763428,-2.256734848022461,3647.063232421875,0
2194.8599999999988,0.019654471427202225,-0.03347768262028694,0.002701616147533059,0.0,0.0,0.0,0.0,0.002669578418135643,0.0015548956580460072,-0.00471244752407074,1.0006953477859497,0.0,0.0,0.0,-20.211366653442383,7.125338554382324,-2.261993646621704,3658.297607421875,0
