timestamp,stateEstimate.x,stateEstimate.y,stateEstimate.z,controller.cmd_thrust,controller.cmd_roll,controller.cmd_pitch,controller.cmd_yaw,controller.r_roll,controller.r_pitch,controller.r_yaw,controller.accelz,controller.actuatorThrust,controller.roll,controller.pitch,controller.yaw,controller.rollRate,controller.pitchRate,controller.yawRate,controller.ctr_yaw
0.0,-0.00025975541211664677,-0.0006040051812306046,0.00029094520141370595,0.0,0.0,0.0,0.0,4.9139922339236364e-05,-0.0014131612842902541,-0.0018251400906592607,1.0015490055084229,0.0,0.0,0.0,-0.07750184834003448,6.084201335906982,-2.136802911758423,14.027989387512207,0
9.89600000000064,-0.00033419299870729446,-0.0005702961352653801,0.000309767056023702,0.0,0.0,0.0,0.0,-0.0005386953125707805,0.00035092735197395086,0.0031646888237446547,1.000925064086914,0.0,0.0,0.0,-0.07769225537776947,6.0772199630737305,-2.1244912147521973,14.06245231628418,0
19.775000000001455,-0.0002743862569332123,-0.0005946583696641028,0.00026467672432772815,0.0,0.0,0.0,0.0,-0.00018702022498473525,-0.005805366672575474,0.0010495814494788647,0.9994147419929504,0.0,0.0,0.0,-0.06831298023462296,6.073998928070068,-2.116408109664917,12.364785194396973,0
29.674000000000888,-0.00026149419136345387,-0.0006511335377581418,0.00026754100690595806,0.0,0.0,0.0,0.0,-0.0010859286412596703,0.0031773962546139956,0.0005265476647764444,0.9985274076461792,0.0,0.0,0.0,-0.0678035169839859,6.067116737365723,-2.102174997329712,12.272571563720703,0
39.55000000000109,-0.00021847257448825985,-0.0006880942382849753,0.0002370537113165483,0.0,0.0,0.0,0.0,0.003399466397240758,-0.002828223630785942,-0.0005348495906218886,1.0001072883605957,0.0,0.0,0.0,-0.057553552091121674,6.0656938552856445,-2.0890090465545654,10.41730785369873,0
49.44599999999991,-0.00029986631125211716,-0.0006343263667076826,0.00025743601145222783,0.0,0.0,0.0,0.0,-0.00405880669131875,0.0008317742613144219,0.0010808809893205762,1.0002468824386597,0.0,0.0,0.0,-0.06466010212898254,6.084403038024902,-2.10711932182312,11.703607559204102,0
59.32500000000073,-0.00024636276066303253,-0.0006715163472108543,0.0002084837615257129,0.0,0.0,0.0,0.0,-0.0017373237060382962,0.0026701230090111494,-0.0006157689495012164,0.9978901147842407,0.0,0.0,0.0,-0.06403728574514389,6.078501224517822,-2.1011123657226562,11.590876579284668,0
69.22400000000016,-0.00023258820874616504,-0.0007287458865903318,0.00020537340606097132,0.0,0.0,0.0,0.0,9.526771464152262e-05,-0.0018802289851009846,-0.0026919804513454437,0.9993623495101929,0.0,0.0,0.0,-0.06412892788648605,6.0775370597839355,-2.1027145385742188,11.607461929321289,0
79.09900000000016,-0.0001885078672785312,-0.0007315034745261073,0.00019203376723453403,0.0,0.0,0.0,0.0,0.0005863087717443705,0.0029659480787813663,-0.0021057322155684233,1.001927137374878,0.0,0.0,0.0,-0.056216102093458176,6.084252834320068,-2.0963618755340576,10.175226211547852,0
88.996000000001,-0.00029006198747083545,-0.0006466541672125459,0.00021049454517196864,0.0,0.0,0.0,0.0,0.0036182915791869164,-0.0052052815444767475,-0.0014000561786815524,1.0002909898757935,0.0,0.0,0.0,-0.0576334185898304,6.077256202697754,-2.0999596118927,10.431763648986816,0
98.87400000000162,-0.00019048074318561703,-0.0006147244712337852,0.0001322991884080693,0.0,0.0,0.0,0.0,0.0002151433000108227,0.00072649703361094,0.0005317836184985936,0.9995920658111572,0.0,0.0,0.0,-0.056601282209157944,6.07151985168457,-2.0951013565063477,10.24494457244873,0
108.77600000000166,-0.00018725275003816932,-0.0005718768225051463,0.0001749847288010642,0.0,0.0,0.0,0.0,0.0010767863132059574,0.005701550282537937,0.0018439370905980468,0.999290943145752,0.0,0.0,0.0,-0.06592670828104019,6.082374095916748,-2.0942986011505127,11.932865142822266,0
118.65000000000146,-0.00017590179049875587,-0.0006387109169736505,0.00016299859271384776,0.0,0.0,0.0,0.0,-0.0012433497468009591,-0.0018592126434668899,9.578449680702761e-05,1.0016874074935913,0.0,0.0,0.0,-0.06545761972665787,6.071624279022217,-2.1126835346221924,11.847959518432617,0
128.5520000000015,-0.00023686377971898764,-0.0005875483038835227,0.00018504861509427428,0.0,0.0,0.0,0.0,-3.370884951436892e-05,0.0028575528413057327,0.0018843855941668153,1.002234935760498,0.0,0.0,0.0,-0.07384998351335526,6.085331439971924,-2.1289308071136475,13.366994857788086,0
138.42300000000068,-0.00020179839339107275,-0.0006246109260246158,0.00015601207269355655,0.0,0.0,0.0,0.0,0.0006371411145664752,0.002578533487394452,-0.00310344691388309,0.9991048574447632,0.0,0.0,0.0,-0.07419488579034805,6.079987525939941,-2.1340296268463135,13.429423332214355,0
148.31800000000112,-0.00018840268603526056,-0.0006709147128276527,0.00015526794595643878,0.0,0.0,0.0,0.0,-0.00040143594378605485,0.002927343361079693,-0.00025129388086497784,0.9975639581680298,0.0,0.0,0.0,-0.07312430441379547,6.075957298278809,-2.1334097385406494,13.23564338684082,0
158.20000000000073,-0.0001735696423565969,-0.000719430681783706,0.00015404127771034837,0.0,0.0,0.0,0.0,-0.0020216272678226233,-0.0050991978496313095,-5.9142461395822465e-05,1.0005180835723877,0.0,0.0,0.0,-0.07355780899524689,6.070858478546143,-2.1327950954437256,13.314109802246094,0
168.09300000000076,-0.00015668245032429695,-0.0007703167502768338,0.0001517718774266541,0.0,0.0,0.0,0.0,-0.00101096008438617,0.00015127744700293988,0.00033051453647203743,0.9988776445388794,0.0,0.0,0.0,-0.07289507985115051,6.065155029296875,-2.1378509998321533,13.194153785705566,0
177.97200000000157,-9.585994121152908e-05,-0.0007436232990585268,0.00013662429410032928,0.0,0.0,0.0,0.0,-0.0011918789241462946,-0.0034066124353557825,-0.0052222576923668385,0.999222993850708,0.0,0.0,0.0,-0.0738300085067749,6.061969757080078,-2.127694845199585,13.363377571105957,0
187.8760000000002,-0.0002195534761995077,-0.0006356879603117704,0.00015578024613205343,0.0,0.0,0.0,0.0,-0.0004377275181468576,0.0008374098688364029,-0.0016062798677012324,0.9982832670211792,0.0,0.0,0.0,-0.0792054682970047,6.099612712860107,-2.1604042053222656,14.336347579956055,0
197.746000000001,-0.0002099061821354553,-0.0006780109251849353,0.00015584957145620137,0.0,0.0,0.0,0.0,0.001162256463430822,-0.00019169632287230343,-0.0005535646341741085,0.9991403818130493,0.0,0.0,0.0,-0.07080443203449249,6.0972442626953125,-2.1591732501983643,12.815742492675781,0
207.64900000000125,-0.00025373196694999933,-0.0006236615590751171,0.00019169351435266435,0.0,0.0,0.0,0.0,0.0022922696080058813,0.0001621596748009324,0.002282803412526846,1.0021084547042847,0.0,0.0,0.0,-0.08024389296770096,6.109318256378174,-2.1647896766662598,14.524304389953613,0
217.52000000000044,-0.00020816552569158375,-0.0006163372308947146,0.00017325991939287633,0.0,0.0,0.0,0.0,0.0005565048777498305,-0.0011163994204252958,-0.00138824840541929,1.0013725757598877,0.0,0.0,0.0,-0.06669363379478455,6.113324165344238,-2.161048650741577,12.071681022644043,0
227.4250000000011,-0.0002765667450148612,-0.0005735529121011496,0.0001901958166854456,0.0,0.0,0.0,0.0,-0.0010508066043257713,0.0005325171514414251,-0.0007137962966226041,0.9989627003669739,0.0,0.0,0.0,-0.07333043962717056,6.114129543304443,-2.165830612182617,13.272955894470215,0
355.9430000000011,-0.00023369572591036558,-0.0006641765357926488,0.0002806497795972973,0.0,0.0,0.0,0.0,0.0005012721521779895,0.0032296013087034225,0.0003207159461453557,0.9989124536514282,0.0,0.0,0.0,-0.06734636425971985,6.141411781311035,-2.143921136856079,12.189826011657715,0
365.83800000000156,-0.00028079072944819927,-0.0006267178105190396,0.00030763872200623155,0.0,0.0,0.0,0.0,0.0024194386787712574,-0.00037166979745961726,0.003197195241227746,1.0006067752838135,0.0,0.0,0.0,-0.07750596106052399,6.146627426147461,-2.1446468830108643,14.028733253479004,0
375.71700000000055,-0.0002519790141377598,-0.0006631556898355484,0.00029902157257311046,0.0,0.0,0.0,0.0,0.0011797959450632334,-0.00016452580166514963,0.0010904889786615968,0.9977946877479553,0.0,0.0,0.0,-0.07733642309904099,6.136225700378418,-2.147440195083618,13.998045921325684,0
385.6200000000008,-0.00023736749426461756,-0.0007072177832014859,0.000303894019452855,0.0,0.0,0.0,0.0,-0.0007805844652466476,0.00029458923381753266,0.0009129649843089283,0.999396026134491,0.0,0.0,0.0,-0.07727985829114914,6.128517150878906,-2.148547887802124,13.987808227539062,0
395.4920000000002,-0.0001846560771809891,-0.0007206642767414451,0.00026234419783577323,0.0,0.0,0.0,0.0,-0.000993354246020317,-0.002356029348447919,-0.003961826208978891,0.999168336391449,0.0,0.0,0.0,-0.06644434481859207,6.132340431213379,-2.1310715675354004,12.026558876037598,0
405.39600000000064,-0.00016956246690824628,-0.0007659434340894222,0.00026191427605226636,0.0,0.0,0.0,0.0,0.001321225892752409,-0.0008763984078541398,-0.00153390655759722,1.0007985830307007,0.0,0.0,0.0,-0.06577091664075851,6.125194072723389,-2.133946657180786,11.904666900634766,0
415.26600000000144,-0.00012527694343589246,-0.0007877828902564943,0.00022318806441035122,0.0,0.0,0.0,0.0,-0.0005827721324749291,0.004648125730454922,0.0021953426767140627,1.0001496076583862,0.0,0.0,0.0,-0.06641437858343124,6.1211090087890625,-2.120368242263794,12.021134376525879,0
425.1730000000007,-0.00010643101995810866,-0.0008341903449036181,0.0002200492162955925,0.0,0.0,0.0,0.0,-0.0002975573588628322,5.766120011685416e-05,0.0012760086683556437,0.9978143572807312,0.0,0.0,0.0,-0.0676882416009903,6.118730068206787,-2.1191492080688477,12.251707077026367,0
435.0460000000003,-7.589501183247194e-05,-0.0008498510578647256,0.0002158689749194309,0.0,0.0,0.0,0.0,0.00038928029243834317,0.002171638887375593,-0.0017479504458606243,0.9983629584312439,0.0,0.0,0.0,-0.05282969772815704,6.120701313018799,-2.11673641204834,9.562280654907227,0
444.9459999999999,-0.0002805367112159729,-0.0006444036844186485,0.00021881872089579701,0.0,0.0,0.0,0.0,-2.710729131649714e-05,-0.0017729169921949506,-0.0001520365331089124,0.997846245765686,0.0,0.0,0.0,-0.06061216816306114,6.177820682525635,-2.17567777633667,10.970922470092773,0
454.8160000000007,-0.0002571531804278493,-0.00066651456290856,0.00019183132098987699,0.0,0.0,0.0,0.0,-0.0001648604084039107,0.005517005454748869,0.0004009912081528455,1.0008208751678467,0.0,0.0,0.0,-0.05285162478685379,6.1771931648254395,-2.1635565757751465,9.56624984741211,0
464.71100000000115,-0.00031812480301596224,-0.000562378962058574,0.00024214484437834471,0.0,0.0,0.0,0.0,0.00018884662131313235,0.0019403515616431832,0.0031737128738313913,1.0009095668792725,0.0,0.0,0.0,-0.06285605579614639,6.193845748901367,-2.1643786430358887,11.377071380615234,0
474.59600000000137,-0.00022873672423884273,-0.0005298305186443031,0.00015502744645345956,0.0,0.0,0.0,0.0,0.0017132805660367012,0.0029183595906943083,0.00039061057032085955,0.9999741911888123,0.0,0.0,0.0,-0.05513767898082733,6.200881481170654,-2.143226385116577,9.980030059814453,0
484.4920000000002,-0.0002632650430314243,-0.0004605475114658475,0.00018932712555397302,0.0,0.0,0.0,0.0,0.0013917986070737243,3.98133706767112e-05,-3.0560154300474096e-06,0.9998883008956909,0.0,0.0,0.0,-0.06452395766973495,6.2061357498168945,-2.1711816787719727,11.678964614868164,0
494.3650000000016,-0.0002103138976963237,-0.00047212420031428337,0.00013092751032672822,0.0,0.0,0.0,0.0,0.004357718862593174,0.0033984105102717876,-0.0015560431638732553,1.001121163368225,0.0,0.0,0.0,-0.053970884531736374,6.2028279304504395,-2.16235089302063,9.768836975097656,0
504.2600000000002,-0.00020153398509137332,-0.0005049330065958202,0.0001228487817570567,0.0,0.0,0.0,0.0,0.00035345088690519333,0.0018504791660234332,0.0010847850935533643,1.0003401041030884,0.0,0.0,0.0,-0.05540474131703377,6.195446014404297,-2.1554126739501953,10.02836799621582,0
514.1470000000008,-0.0001933115563588217,-0.0005394615582190454,0.0001155091158580035,0.0,0.0,0.0,0.0,0.0018053571693599224,-0.004504338372498751,-0.00202623987570405,0.9995487928390503,0.0,0.0,0.0,-0.05523359403014183,6.183816909790039,-2.1639275550842285,9.997390747070312,0
524.0460000000003,-0.00018558705050963908,-0.0005755071179009974,0.00010863953502848744,0.0,0.0,0.0,0.0,0.0031026473734527826,-0.003208507550880313,0.0030550705268979073,0.998546838760376,0.0,0.0,0.0,-0.05551062896847725,6.180575370788574,-2.1576826572418213,10.047533988952637,0
533.9200000000001,-0.00022678282402921468,-0.0006357484380714595,0.0001778726582415402,0.0,0.0,0.0,0.0,-0.0012698573991656303,-0.0043873717077076435,0.002612002659589052,0.9980446696281433,0.0,0.0,0.0,-0.0549078993499279,6.174696922302246,-2.1543474197387695,9.93843936920166,0
543.8220000000001,-0.00021617155289277434,-0.0006155681912787259,0.00023959689133334905,0.0,0.0,0.0,0.0,-0.001012984779663384,0.0022667432203888893,-0.0011608056956902146,0.9998889565467834,0.0,0.0,0.0,-0.0649758130311966,6.187299728393555,-2.1506218910217285,11.760749816894531,0
553.6890000000003,-0.00024389702593907714,-0.0006883405731059611,0.00027157695149071515,0.0,0.0,0.0,0.0,0.0025680868420749903,-0.0005279554752632976,0.001707788440398872,1.001046061515808,0.0,0.0,0.0,-0.05678151920437813,6.169787406921387,-2.1463623046875,10.277567863464355,0
563.5870000000014,-0.0002323842199984938,-0.0006907143397256732,0.00031020352616906166,0.0,0.0,0.0,0.0,0.001002372009679675,0.0023112683556973934,0.0017124766018241644,1.0005748271942139,0.0,0.0,0.0,-0.05571020022034645,6.163430690765381,-2.1525375843048096,10.083657264709473,0
573.4720000000016,-0.00022033724235370755,-0.0007216359954327345,0.0003109477402176708,0.0,0.0,0.0,0.0,0.0014125762972980738,0.00569122564047575,0.0011064846767112613,1.0004814863204956,0.0,0.0,0.0,-0.05593957006931305,6.157565116882324,-2.152071714401245,10.12517261505127,0
583.366,-0.000242854657699354,-0.0006760023534297943,0.0003619461494963616,0.0,0.0,0.0,0.0,0.0005866363644599915,0.0007177011575549841,0.0008441657992079854,0.998838484287262,0.0,0.0,0.0,-0.0658089816570282,6.160911560058594,-2.164372682571411,11.911555290222168,0
593.2380000000012,-0.00019714351219590753,-0.0007260090205818415,0.00033782378886826336,0.0,0.0,0.0,0.0,-0.0014830431900918484,-0.0008938557584770024,-0.0034798746928572655,1.0001507997512817,0.0,0.0,0.0,-0.058173343539237976,6.153329849243164,-2.1597025394439697,10.52949047088623,0
603.134,-0.00031157126068137586,-0.000641972292214632,0.0003398322151042521,0.0,0.0,0.0,0.0,-0.00018264898972120136,-0.0015847082249820232,0.0013124517863616347,0.9977607727050781,0.0,0.0,0.0,-0.06507077813148499,6.1666717529296875,-2.172532320022583,11.77794075012207,0
613.014000000001,-0.0002539713168516755,-0.0006651402218267322,0.00029322082991711795,0.0,0.0,0.0,0.0,0.0019262671703472733,0.006537947338074446,-0.0011695760767906904,0.9998248815536499,0.0,0.0,0.0,-0.05612082779407501,6.163633823394775,-2.174194097518921,10.157981872558594,0
622.9090000000015,-0.0002539713168516755,-0.0006651402218267322,0.00029322082991711795,0.0,0.0,0.0,0.0,0.00107410061173141,0.0026979108806699514,-0.0003287097788415849,1.000546932220459,0.0,0.0,0.0,-0.05612082779407501,6.163633823394775,-2.174194097518921,10.157981872558594,0
632.7939999999999,-0.0002128190390067175,-0.0006926380447112024,0.00025988902780227363,0.0,0.0,0.0,0.0,-0.00046232627937570214,-0.00015599683683831245,-0.003334851237013936,0.9999637007713318,0.0,0.0,0.0,-0.04512684419751167,6.160353660583496,-2.1739699840545654,8.168048858642578,0
642.6880000000001,-0.0002128190390067175,-0.0006926380447112024,0.00025988902780227363,0.0,0.0,0.0,0.0,-0.0016354633262380958,-0.002470270497724414,-0.000747961865272373,0.9997477531433105,0.0,0.0,0.0,-0.04512684419751167,6.160353660583496,-2.1739699840545654,8.168048858642578,0
652.5630000000001,-0.00019425265782047063,-0.0007578116492368281,0.00024087869678623974,0.0,0.0,0.0,0.0,0.0015443763695657253,0.002772265113890171,0.00032460581860505044,0.9980131387710571,0.0,0.0,0.0,-0.03836759552359581,6.1564531326293945,-2.162518262863159,6.944610595703125,0
662.4630000000016,-0.000251651305006817,-0.0006293990300036967,0.0002976396935991943,0.0,0.0,0.0,0.0,-0.00011004295811289921,-0.001316100126132369,-0.0037335166707634926,0.998553454875946,0.0,0.0,0.0,-0.047543179243803024,6.187129974365234,-2.1753900051116943,8.6054105758667,0
672.3380000000016,-0.00022641346731688827,-0.0006917714490555227,0.00026398146292194724,0.0,0.0,0.0,0.0,-0.0011774476151913404,0.0011228634975850582,-0.0005784884560853243,1.0002028942108154,0.0,0.0,0.0,-0.0482032410800457,6.170485973358154,-2.170875310897827,8.724883079528809,0
682.232,-0.000305903609842062,-0.0006119093741290271,0.000276446167845279,0.0,0.0,0.0,0.0,0.00041237976984120905,0.0005428489530459046,-0.00029644311871379614,1.0011388063430786,0.0,0.0,0.0,-0.055557847023010254,6.185380458831787,-2.1821584701538086,10.056081771850586,0
692.1180000000004,-0.0003094044222962111,-0.0006800505798310041,0.0002808345598168671,0.0,0.0,0.0,0.0,-0.005618610419332981,-0.0030095349065959454,-0.0008016794454306364,0.999691367149353,0.0,0.0,0.0,-0.05532458797097206,6.17091178894043,-2.1775095462799072,10.013859748840332,0
702.0060000000012,-0.00033391316537745297,-0.0005898346425965428,0.0003249513392802328,0.0,0.0,0.0,0.0,0.0008203687029890716,0.0005691314581781626,0.002216879278421402,0.9988886713981628,0.0,0.0,0.0,-0.06510496884584427,6.186243534088135,-2.180805206298828,11.78412914276123,0
711.8970000000008,-0.000328623951645568,-0.0006571942358277738,0.00031791458604857326,0.0,0.0,0.0,0.0,0.0004961378872394562,-0.005021850578486919,-0.0021514720283448696,0.99732506275177,0.0,0.0,0.0,-0.058522626757621765,6.177361488342285,-2.1661596298217773,10.59271240234375,0
721.7810000000009,-0.00037567070103250444,-0.0005852659232914448,0.000343039573635906,0.0,0.0,0.0,0.0,8.745689410716295e-05,-0.001450846204534173,0.003252497874200344,0.9982840418815613,0.0,0.0,0.0,-0.06470368802547455,6.189173221588135,-2.171339273452759,11.711495399475098,0
731.6600000000017,-0.0003367736644577235,-0.0006356844678521156,0.0002872550394386053,0.0,0.0,0.0,0.0,-0.0014273027190938592,-0.001968227094039321,-0.002372056944295764,0.9998781681060791,0.0,0.0,0.0,-0.05462205037474632,6.184004783630371,-2.1496078968048096,9.886699676513672,0
741.5630000000001,-0.0003560469194781035,-0.0005654669948853552,0.0003242786624468863,0.0,0.0,0.0,0.0,-0.0011461019748821855,0.005834586452692747,-0.00026657016132958233,1.0004411935806274,0.0,0.0,0.0,-0.06218249723315239,6.195453643798828,-2.1513583660125732,11.255154609680176,0
751.4360000000015,-0.00032241205917671323,-0.0006322013214230537,0.00027091047377325594,0.0,0.0,0.0,0.0,-0.0011376278707757592,-0.0006754310452379286,0.0002325846435269341,0.9990478157997131,0.0,0.0,0.0,-0.0547943152487278,6.18765115737915,-2.1450297832489014,9.917880058288574,0
761.3310000000001,-0.00032241205917671323,-0.0006322013214230537,0.00027091047377325594,0.0,0.0,0.0,0.0,0.0015067473286762834,-0.001033177599310875,0.0010740837315097451,0.9989974498748779,0.0,0.0,0.0,-0.0547943152487278,6.18765115737915,-2.1450297832489014,9.917880058288574,0
771.210000000001,-0.0002909733448177576,-0.0007042740471661091,0.0002151565277017653,0.0,0.0,0.0,0.0,-0.001776271965354681,0.002557900734245777,-0.002648145193234086,1.0001232624053955,0.0,0.0,0.0,-0.04117027670145035,6.177375793457031,-2.1048755645751953,7.451902389526367,0
781.1150000000016,-0.00033459372934885323,-0.0006345207220874727,0.00023999495897442102,0.0,0.0,0.0,0.0,-0.0028283915016800165,0.004583069588989019,-0.004668437410145998,1.0007065534591675,0.0,0.0,0.0,-0.04745433107018471,6.192437648773193,-2.1127395629882812,8.58932876586914,0
790.9840000000004,-0.0002675364667084068,-0.0006963873165659606,0.00013732003571931273,0.0,0.0,0.0,0.0,0.0014012479223310947,-0.0043614269234240055,0.0017481875838711858,1.0004806518554688,0.0,0.0,0.0,-0.03943679854273796,6.203151226043701,-2.1058850288391113,7.138139247894287,0
800.8860000000004,-0.00030680879717692733,-0.00060602294979617,0.00017648155335336924,0.0,0.0,0.0,0.0,-0.0003082227485720068,-0.002631280105561018,0.0023168884217739105,0.9966683387756348,0.0,0.0,0.0,-0.04748393967747688,6.2200093269348145,-2.1110804080963135,8.594687461853027,0
810.759,-0.00031177609344013035,-0.0007019153563305736,0.000158695038408041,0.0,0.0,0.0,0.0,-0.0006586075178347528,0.0064324005506932735,0.0005674325511790812,0.9997825026512146,0.0,0.0,0.0,-0.04454086348414421,6.211647987365723,-2.087860584259033,8.06198501586914,0
820.6550000000007,-0.00027092976961284876,-0.0006155178998596966,0.0002202427276642993,0.0,0.0,0.0,0.0,-0.0003853437665384263,0.004211186897009611,0.0026245068293064833,1.0011727809906006,0.0,0.0,0.0,-0.04454086348414421,6.211647987365723,-2.087860584259033,8.06198501586914,0
830.5340000000015,-0.00019428231462370604,-0.0006096631404943764,0.00011645584891084582,0.0,0.0,0.0,0.0,-0.002459891140460968,-0.00023977698583621532,0.0015439403941854835,1.0016756057739258,0.0,0.0,0.0,-0.03538382798433304,6.217176914215088,-2.070434331893921,6.404543399810791,0
840.4400000000005,-0.00022250488109420985,-0.0005567814223468304,0.0001531191956019029,0.0,0.0,0.0,0.0,-0.0003009393985848874,0.002095257630571723,-0.0010734894312918186,1.0019807815551758,0.0,0.0,0.0,-0.0426463708281517,6.23815393447876,-2.0710387229919434,7.719078540802002,0
850.3150000000005,-0.00019424544007051736,-0.0006199931376613677,9.534623677609488e-05,0.0,0.0,0.0,0.0,-0.001842080382630229,-0.0034164751414209604,4.434945367393084e-05,1.0021816492080688,0.0,0.0,0.0,-0.04291291907429695,6.237222671508789,-2.0728018283843994,7.7673234939575195,0
860.210000000001,-0.00026310404064133763,-0.0005496240919455886,0.00012854533270001411,0.0,0.0,0.0,0.0,-0.0018319793744012713,-0.002044010441750288,-0.004921269603073597,1.002193808555603,0.0,0.0,0.0,-0.04232800379395485,6.2347612380981445,-2.068971872329712,7.661453723907471,0
870.0830000000005,-0.0002581626467872411,-0.0005902902339585125,0.00012702762614935637,0.0,0.0,0.0,0.0,-0.0010024576913565397,-0.001871026586741209,-0.002661582315340638,0.9982113242149353,0.0,0.0,0.0,-0.0427665077149868,6.230417728424072,-2.0681891441345215,7.740822792053223,0
879.9810000000016,-0.00025106436805799603,-0.0005693159182555974,0.00016403256449848413,0.0,0.0,0.0,0.0,0.00039530140929855406,0.0037334493827074766,-0.0011186995543539524,1.0005966424942017,0.0,0.0,0.0,-0.048987749963998795,6.240630149841309,-2.0685536861419678,8.866880416870117,0
889.8650000000016,-0.0002438930532662198,-0.0006086539942771196,0.00016587896971032023,0.0,0.0,0.0,0.0,-0.0014810946304351091,0.0029248306527733803,-4.7326626372523606e-05,1.0005996227264404,0.0,0.0,0.0,-0.049579571932554245,6.231075286865234,-2.076022148132324,8.97400188446045,0
899.7540000000008,-0.00026654722751118243,-0.0006057355203665793,0.00019021732441615313,0.0,0.0,0.0,0.0,0.0011734755244106054,-0.0033996207639575005,0.00033313449239358306,1.0021024942398071,0.0,0.0,0.0,-0.049498941749334335,6.229183197021484,-2.0828278064727783,8.959406852722168,0
909.6410000000014,-0.00025860764435492456,-0.0006434168317355216,0.0001958679495146498,0.0,0.0,0.0,0.0,-0.004882034379988909,0.00626744981855154,-0.0012994775315746665,0.9994125962257385,0.0,0.0,0.0,-0.049032989889383316,6.220178604125977,-2.0875442028045654,8.875068664550781,0
919.5280000000002,-0.0002856631763279438,-0.000628131499979645,0.0002353186282562092,0.0,0.0,0.0,0.0,0.0021244827657938004,0.001857647905126214,0.0015190045814961195,0.9990044236183167,0.0,0.0,0.0,-0.05789944529533386,6.242310523986816,-2.10569167137146,10.479914665222168,0
929.4060000000009,-0.0002771968429442495,-0.0006621708162128925,0.0002446757280267775,0.0,0.0,0.0,0.0,-0.0019594281911849976,-0.00019317677651997656,0.002080191159620881,0.9980536103248596,0.0,0.0,0.0,-0.05745431408286095,6.230587482452393,-2.108828067779541,10.399344444274902,0
939.3060000000005,-0.00025562525843270123,-0.0006343723507598042,0.00030362975667230785,0.0,0.0,0.0,0.0,0.00021607338567264378,0.00041179358959198,-0.0018928945064544678,0.9982227683067322,0.0,0.0,0.0,-0.06328460574150085,6.254522323608398,-2.1144001483917236,11.454639434814453,0
949.1890000000003,-0.00024295627372339368,-0.0006668370333500206,0.0003145492810290307,0.0,0.0,0.0,0.0,-0.004133624490350485,-0.004304630681872368,0.002047494053840637,0.999559223651886,0.0,0.0,0.0,-0.06365291774272919,6.248569488525391,-2.1074001789093018,11.521305084228516,0
959.0810000000001,-0.00028265261789783835,-0.0006648178095929325,0.0003408570191822946,0.0,0.0,0.0,0.0,-0.002861832734197378,-0.0015564181376248598,-0.0023676359560340643,1.0013383626937866,0.0,0.0,0.0,-0.06943091005086899,6.261869430541992,-2.107487201690674,12.567132949829102,0
968.9549999999999,-0.0002077177632600069,-0.000639370467979461,0.0002121151628671214,0.0,0.0,0.0,0.0,0.00033993987017311156,-0.0012875455431640148,-0.001113046077080071,1.000855565071106,0.0,0.0,0.0,-0.07630845159292221,6.271508693695068,-2.0920841693878174,13.811981201171875,0
978.8550000000014,-0.0002654146228451282,-0.0005635222769342363,0.00025507790269330144,0.0,0.0,0.0,0.0,-0.00017284693603869528,0.0006809623446315527,0.002238230314105749,1.0021154880523682,0.0,0.0,0.0,-0.08491146564483643,6.295301914215088,-2.097842216491699,15.369144439697266,0
988.732,-0.0002473399508744478,-0.0005895714275538921,0.00026556861121207476,0.0,0.0,0.0,0.0,-0.001998439198359847,-0.006150420755147934,0.000822654867079109,1.0021589994430542,0.0,0.0,0.0,-0.08416714519262314,6.2917799949646,-2.0972518920898438,15.234421730041504,0
998.6320000000014,-0.0002307811373611912,-0.000613686628639698,0.00027730094734579325,0.0,0.0,0.0,0.0,-0.0013067335821688175,0.001855175127275288,0.00012169250112492591,0.9999454021453857,0.0,0.0,0.0,-0.08452220261096954,6.289789199829102,-2.0745913982391357,15.298686981201172,0
1008.509,-0.00018896764959208667,-0.0006353191565722227,0.00021972709510009736,0.0,0.0,0.0,0.0,0.0023323458153754473,0.00043804445886053145,-0.00260519958101213,0.9990601539611816,0.0,0.0,0.0,-0.08506659418344498,6.287875652313232,-2.0692310333251953,15.397222518920898,0
1018.402,-0.00026459756190888584,-0.0005471987533383071,0.0002620510058477521,0.0,0.0,0.0,0.0,-0.0012329353485256433,0.0011169688077643514,0.0004052831791341305,1.0019465684890747,0.0,0.0,0.0,-0.08643011003732681,6.279138565063477,-2.068377733230591,15.644021987915039,0
1028.282000000001,-0.000265812617726624,-0.0005981700378470123,0.0002769206475932151,0.0,0.0,0.0,0.0,-0.00046974909491837025,0.00023357786994893104,0.002199143636971712,1.00137460231781,0.0,0.0,0.0,-0.08686530590057373,6.278256893157959,-2.0656015872955322,15.722792625427246,0
1038.1770000000015,-0.0002512057253625244,-0.0005907922168262303,0.00031585354008711874,0.0,0.0,0.0,0.0,-0.003735615871846676,-0.0020658692810684443,0.0014031974133104086,1.002527117729187,0.0,0.0,0.0,-0.09492199122905731,6.2766876220703125,-2.0677881240844727,17.18107032775879,0
1048.0560000000005,-0.00021376527729444206,-0.0006105511565692723,0.0002956742828246206,0.0,0.0,0.0,0.0,0.000590507872402668,-0.00230302382260561,0.00066153280204162,1.0014950037002563,0.0,0.0,0.0,-0.08604663610458374,6.272802352905273,-2.058703660964966,15.57461166381836,0
1057.9540000000015,-0.00019746608450077474,-0.0006164417136460543,0.000328983849612996,0.0,0.0,0.0,0.0,-0.00019529146084096283,0.002139466116204858,0.0009378605172969401,1.0005810260772705,0.0,0.0,0.0,-0.0918014869093895,6.271500587463379,-2.0488526821136475,16.616252899169922,0
1067.8310000000001,-0.0001653317449381575,-0.0006432546651922166,0.00031945534283295274,0.0,0.0,0.0,0.0,0.0006321501568891108,0.0006271370220929384,0.0016573568573221564,1.0000003576278687,0.0,0.0,0.0,-0.0818067416548729,6.268582820892334,-2.0509684085845947,14.807184219360352,0
1077.7260000000006,-0.0002347254048800096,-0.0006144770886749029,0.0003355831722728908,0.0,0.0,0.0,0.0,-0.0022157267667353153,-0.002776670502498746,0.0002027245645876974,0.9996559023857117,0.0,0.0,0.0,-0.09073061496019363,6.264952182769775,-2.057565927505493,16.422422409057617,0
1087.6060000000016,-0.00016960698121692985,-0.0005941191921010613,0.0003106418007519096,0.0,0.0,0.0,0.0,0.0014108851319178939,0.002512814477086067,0.0020135976374149323,1.0001782178878784,0.0,0.0,0.0,-0.07742974907159805,6.272568225860596,-2.0469863414764404,14.014939308166504,0
1097.5110000000004,-0.0001525657280581072,-0.0006228317506611347,0.00032547468435950577,0.0,0.0,0.0,0.0,-0.0007820309256203473,-0.001609617960639298,0.0045129177160561085,0.9987264275550842,0.0,0.0,0.0,-0.07744237035512924,6.26482629776001,-2.050478219985962,14.01722240447998,0
1107.3940000000002,-0.0001233057409990579,-0.0006793357897549868,0.00029839493799954653,0.0,0.0,0.0,0.0,0.003052992280572653,0.002440633950755,-0.003656381741166115,0.9982898831367493,0.0,0.0,0.0,-0.07619483023881912,6.260744571685791,-2.0472326278686523,13.791415214538574,0
1117.2750000000015,-0.00010513451707083732,-0.000714319699909538,0.00030869635520502925,0.0,0.0,0.0,0.0,-0.0012275216868147254,0.0010824853088706732,-0.0005449448945000768,0.9986553192138672,0.0,0.0,0.0,-0.0761713832616806,6.251662731170654,-2.052142381668091,13.787172317504883,0
1127.166000000001,-7.425037620123476e-05,-0.0007434003055095673,0.0003010459477081895,0.0,0.0,0.0,0.0,-0.0019140772055834532,-0.0032626206520944834,0.0001598686067154631,1.0006808042526245,0.0,0.0,0.0,-0.07010983675718307,6.247128963470459,-2.052858829498291,12.690019607543945,0
1137.0520000000015,-0.00021963768813293427,-0.0006529660313390195,0.00027763735852204263,0.0,0.0,0.0,0.0,0.0007453797734342515,0.003959236666560173,-0.0012837958056479692,0.9995285868644714,0.0,0.0,0.0,-0.07873179763555527,6.270018577575684,-2.0986838340759277,14.250612258911133,0
1146.933000000001,-0.00018182428902946413,-0.0006830244674347341,0.0002340962819289416,0.0,0.0,0.0,0.0,0.0003129742108285427,-0.007760427892208099,0.001298099639825523,0.999140202999115,0.0,0.0,0.0,-0.07817404717206955,6.256890773773193,-2.1071836948394775,14.149658203125,0
1156.83,-0.00024400505935773253,-0.000629429065156728,0.0002585141337476671,0.0,0.0,0.0,0.0,0.00045681421761401,0.005172059405595064,0.0020566321909427643,0.9984174966812134,0.0,0.0,0.0,-0.08861581236124039,6.263583660125732,-2.1023828983306885,16.03963851928711,0
1166.7120000000014,-0.00022482128406409174,-0.0006597964675165713,0.00024329479492735118,0.0,0.0,0.0,0.0,0.0006706694839522243,0.0005144553142599761,0.0009193696896545589,1.001829743385315,0.0,0.0,0.0,-0.08080688863992691,6.256075859069824,-2.1045494079589844,14.62620735168457,0
1176.6000000000004,-0.0002443355042487383,-0.0006042573368176818,0.0002894570352509618,0.0,0.0,0.0,0.0,-0.0006300467648543417,-0.0010405300417914987,-0.0015367880696430802,1.0004215240478516,0.0,0.0,0.0,-0.08877813816070557,6.26092004776001,-2.104492664337158,16.069019317626953,0
1186.4850000000006,-0.00021755826310254633,-0.000635015603620559,0.0002676330623216927,0.0,0.0,0.0,0.0,0.00011518372048158199,0.0016577196074649692,0.00025181760429404676,0.9992123246192932,0.0,0.0,0.0,-0.07953571528196335,6.25399112701416,-2.092437744140625,14.396122932434082,0
1196.3830000000016,-0.0003004361060447991,-0.0006024051108397543,0.0002762020449154079,0.0,0.0,0.0,0.0,0.0002697743766475469,0.002511692699044943,-0.0003343306598253548,0.9995033144950867,0.0,0.0,0.0,-0.08963273465633392,6.258758544921875,-2.1098880767822266,16.223703384399414,0
1206.2620000000006,-0.0002566007897257805,-0.0006257306085899472,0.0002260792680317536,0.0,0.0,0.0,0.0,0.0013684306759387255,0.0009424464660696685,0.0010821715695783496,0.9985460638999939,0.0,0.0,0.0,-0.09039494395256042,6.25239896774292,-2.1254262924194336,16.361665725708008,0
1216.148000000001,-0.0002771489671431482,-0.0005984551389701664,0.00025559018831700087,0.0,0.0,0.0,0.0,-0.000395132607081905,-0.00013175272033549845,-0.004938147496432066,0.998930037021637,0.0,0.0,0.0,-0.09023197740316391,6.239423751831055,-2.123162031173706,16.332168579101562,0
1226.0380000000005,-0.0002781732764560729,-0.0006509654922410846,0.0002545477182138711,0.0,0.0,0.0,0.0,0.0028452533297240734,0.0006290841847658157,-0.0018462876323610544,0.9996122717857361,0.0,0.0,0.0,-0.09191031754016876,6.233147144317627,-2.126838445663452,16.635950088500977,0
1235.9279999999999,-0.0002876704675145447,-0.0006403663428500295,0.00028240360552445054,0.0,0.0,0.0,0.0,0.002458152361214161,0.0006551683763973415,-0.0007477679173462093,0.9999439716339111,0.0,0.0,0.0,-0.09148163348436356,6.224159240722656,-2.1322407722473145,16.55835723876953,0
1245.812,-0.00028343588928692043,-0.000679647084325552,0.00028487900272011757,0.0,0.0,0.0,0.0,0.004354832228273153,0.005557527299970388,-0.001919969217851758,0.9995061159133911,0.0,0.0,0.0,-0.09185504913330078,6.216109752655029,-2.1371729373931885,16.625946044921875,0
1255.7020000000011,-0.000306361704133451,-0.0006571743288077414,0.0003176097525283694,0.0,0.0,0.0,0.0,0.0004358272417448461,0.0027630229014903307,-0.0018900306895375252,1.0013360977172852,0.0,0.0,0.0,-0.09985650330781937,6.21367073059082,-2.150686740875244,18.07422637939453,0
1265.5820000000003,-0.0002487210149411112,-0.0006639370112679899,0.0002572632220108062,0.0,0.0,0.0,0.0,-0.0014184159226715565,-0.00186431803740561,-0.003328795311972499,0.9993152618408203,0.0,0.0,0.0,-0.08782950043678284,6.217049598693848,-2.1467490196228027,15.897314071655273,0
1275.4710000000014,-0.0002989635104313493,-0.0006493473192676902,0.0002706163504626602,0.0,0.0,0.0,0.0,-0.00012111330579500645,0.00039979288703761995,0.0027100027073174715,1.000116229057312,0.0,0.0,0.0,-0.08903567492961884,6.217256546020508,-2.135465383529663,16.115633010864258,0
1285.3580000000002,-0.00029360470944084227,-0.0006925126654095948,0.0002726870879996568,0.0,0.0,0.0,0.0,-0.0009146335651166737,-0.0014734643045812845,0.0007100667571648955,0.9985617995262146,0.0,0.0,0.0,-0.08836130797863007,6.209629535675049,-2.1303176879882812,15.993572235107422,0
1295.246000000001,-0.00019159044313710183,-0.0006489261868409812,0.00017010618466883898,0.0,0.0,0.0,0.0,-3.048202233912889e-05,-0.0009914821712300181,0.0010628171730786562,0.9987973570823669,0.0,0.0,0.0,-0.07792127132415771,6.225426197052002,-2.106184959411621,14.103903770446777,0
1305.1420000000016,-0.00018072985403705388,-0.0006903752801008523,0.00016345598851330578,0.0,0.0,0.0,0.0,0.0019400193123146892,-0.005806253291666508,-0.0024260522332042456,1.0005749464035034,0.0,0.0,0.0,-0.07774154096841812,6.222105979919434,-2.104314088821411,14.07137393951416,0
1315.0260000000017,-0.00016860094910953194,-0.000733531138394028,0.00015653646551072598,0.0,0.0,0.0,0.0,0.00186760607175529,-0.001446014386601746,0.0005054420907981694,1.0009015798568726,0.0,0.0,0.0,-0.07800878584384918,6.219051837921143,-2.083205461502075,14.119746208190918,0
1324.9080000000013,-0.00015622127102687955,-0.0007798060541972518,0.00015038062701933086,0.0,0.0,0.0,0.0,0.0011726922821253538,0.010388352908194065,-0.0007506697438657284,0.9979819655418396,0.0,0.0,0.0,-0.077876977622509,6.211020469665527,-2.077662467956543,14.095888137817383,0
1334.8029999999999,-0.00014299778558779508,-0.0008282091002911329,0.00014420776278711855,0.0,0.0,0.0,0.0,0.0008557828259654343,0.0012142678024247289,0.0018219391349703074,0.9983910918235779,0.0,0.0,0.0,-0.07862266898155212,6.199598789215088,-2.1002702713012695,14.230859756469727,0
1344.6820000000007,-0.0001278288254979998,-0.0008771945722401142,0.0001365180069115013,0.0,0.0,0.0,0.0,-0.0017035191413015127,0.0005511214840225875,-0.0026752359699457884,0.998335063457489,0.0,0.0,0.0,-0.07830605655908585,6.190845012664795,-2.1022002696990967,14.173551559448242,0
1354.5770000000011,-0.00011167535558342934,-0.0009266131091862917,0.00012733956100419164,0.0,0.0,0.0,0.0,0.0013050505658611655,0.005272825248539448,0.000840024440549314,0.999372661113739,0.0,0.0,0.0,-0.07834582775831223,6.184699535369873,-2.0996081829071045,14.180749893188477,0
1364.455,-9.511829557595775e-05,-0.0009761182591319084,0.00011723657371476293,0.0,0.0,0.0,0.0,-0.001043501659296453,-0.001685506314970553,0.00033533968962728977,1.0003951787948608,0.0,0.0,0.0,-0.07862260192632675,6.177516460418701,-2.0991063117980957,14.230847358703613,0
1374.344000000001,-7.675417145946994e-05,-0.001025425735861063,0.00010699941776692867,0.0,0.0,0.0,0.0,0.0008458403754048049,-0.0002640512539073825,0.00289642415009439,0.999172568321228,0.0,0.0,0.0,-0.07783688604831696,6.172662258148193,-2.0895912647247314,14.088630676269531,0
1384.2300000000014,-5.60381704417523e-05,-0.0010753979440778494,9.65865037869662e-05,0.0,0.0,0.0,0.0,0.004615551792085171,-0.0011216950369998813,-0.0010489161359146237,0.9991397857666016,0.0,0.0,0.0,-0.0762878879904747,6.16574764251709,-2.0912787914276123,13.808259963989258,0
1394.1320000000014,-3.3639058528933674e-05,-0.0011268398957327008,8.547093602828681e-05,0.0,0.0,0.0,0.0,0.001078665954992175,-0.00015079951845109463,0.0036268597468733788,0.9983075261116028,0.0,0.0,0.0,-0.07611120492219925,6.15278434753418,-2.087437629699707,13.77627944946289,0
1404.0070000000014,-1.0003306670114398e-05,-0.0011804557871073484,7.34990753699094e-05,0.0,0.0,0.0,0.0,-0.0022097076289355755,-0.001709757256321609,0.0008348124683834612,0.9995782375335693,0.0,0.0,0.0,-0.07507943361997604,6.146756172180176,-2.0876424312591553,13.589526176452637,0
1413.898000000001,7.765548070892692e-05,-0.0010010643163695931,0.0001405461662216112,0.0,0.0,0.0,0.0,0.0004259785055182874,0.00029456536867655814,-0.0017280387692153454,1.0013333559036255,0.0,0.0,0.0,-0.07661181688308716,6.204714298248291,-2.06516432762146,13.866891860961914,0
1423.7810000000009,0.00010545114491833374,-0.001044797827489674,0.0001330609229626134,0.0,0.0,0.0,0.0,-0.001742087653838098,-0.0027162048500031233,-0.00210703257471323,1.0014883279800415,0.0,0.0,0.0,-0.0771619975566864,6.200325012207031,-2.0601887702941895,13.966475486755371,0
1433.6670000000013,0.00012143484491389245,-0.0009874238166958094,0.0002210530947195366,0.0,0.0,0.0,0.0,0.0004427115782164037,-0.00018957442080136389,0.0027701091021299362,0.9988812208175659,0.0,0.0,0.0,-0.06931459158658981,6.226470470428467,-2.052168607711792,12.546079635620117,0
1443.554,0.0001508968125563115,-0.0010294221574440598,0.00022046589583624154,0.0,0.0,0.0,0.0,-0.0014081501867622137,-0.0010914651211351156,-0.005172953940927982,0.9995103478431702,0.0,0.0,0.0,-0.0684635117650032,6.2205352783203125,-2.0416970252990723,12.3920316696167,0
1453.446,0.00017300016770604998,-0.0010074033634737134,0.00028009130619466305,0.0,0.0,0.0,0.0,-0.0019299652194604278,0.0007495248573832214,-0.0003478414728306234,0.9982153177261353,0.0,0.0,0.0,-0.06165756657719612,6.236629486083984,-2.0362396240234375,11.160141944885254,0
1463.3360000000011,0.0002078111720038578,-0.0010494240559637547,0.0002815434127114713,0.0,0.0,0.0,0.0,-0.002792407525703311,-0.0022668340243399143,-0.0010509623680263758,0.9978793859481812,0.0,0.0,0.0,-0.06151784956455231,6.23359489440918,-2.0352375507354736,11.13485336303711,0
1473.219000000001,0.00027520471485331655,-0.0010509942658245564,0.00027753313770517707,0.0,0.0,0.0,0.0,0.0027269006241112947,-0.003292422043159604,-0.0011062927078455687,0.999543309211731,0.0,0.0,0.0,-0.04890080541372299,6.2467522621154785,-2.0192835330963135,8.851142883300781,0
1483.103000000001,0.000313365162583068,-0.0010916098253801465,0.0002755490131676197,0.0,0.0,0.0,0.0,-0.0012855015229433775,0.00020153836521785706,0.0007064055535010993,1.000056266784668,0.0,0.0,0.0,-0.0496695376932621,6.236635208129883,-2.007094621658325,8.990285873413086,0
1492.9880000000012,0.0003502901236061007,-0.001131765078753233,0.0002732655848376453,0.0,0.0,0.0,0.0,0.001280740718357265,0.0003519300662446767,0.004493897780776024,0.9995350241661072,0.0,0.0,0.0,-0.04938659444451332,6.231500625610352,-2.0161843299865723,8.939072608947754,0
1502.8820000000014,0.00038658734411001205,-0.0011719336034730077,0.00027096568373963237,0.0,0.0,0.0,0.0,-0.0026715814601629972,0.0010351300006732345,0.00029249413637444377,0.9992539286613464,0.0,0.0,0.0,-0.0486619807779789,6.223830699920654,-2.017047882080078,8.807915687561035,0
1512.7660000000014,0.0004225206794217229,-0.0012126935180276632,0.000268320320174098,0.0,0.0,0.0,0.0,0.0007382400217466056,-0.0005347553524188697,0.002829776145517826,0.9986674785614014,0.0,0.0,0.0,-0.048350926488637924,6.226085662841797,-2.0128724575042725,8.75161361694336,0
1522.6530000000002,0.00045819973456673324,-0.001255293725989759,0.0002648543450050056,0.0,0.0,0.0,0.0,0.0021040639840066433,-0.003202032297849655,0.0036588432267308235,1.0026395320892334,0.0,0.0,0.0,-0.047471947968006134,6.221541404724121,-2.003791332244873,8.592517852783203,0
1532.5470000000005,-0.0002506047603674233,-0.000682799844071269,4.0470065869158134e-05,0.0,0.0,0.0,0.0,0.0013579560909420252,0.0020846747793257236,-0.0012426049215719104,1.0004490613937378,0.0,0.0,0.0,-0.059866879135370255,6.344211578369141,-2.1252076625823975,10.836024284362793,0
1542.4270000000015,-0.0002450386236887425,-0.0006984719075262547,3.624803139246069e-05,0.0,0.0,0.0,0.0,-1.7310643670498393e-05,-0.0013282594736665487,0.0014185868203639984,1.0015230178833008,0.0,0.0,0.0,-0.06034250929951668,6.334227085113525,-2.133471727371216,10.922114372253418,0
1552.3240000000005,-0.00023944111308082938,-0.0007153401966206729,3.328499951749109e-05,0.0,0.0,0.0,0.0,0.003524195635691285,0.003368690377101302,-0.0009572131093591452,1.0018724203109741,0.0,0.0,0.0,-0.059138037264347076,6.324155807495117,-2.1326303482055664,10.704102516174316,0
1562.2040000000015,-0.00023424187384080142,-0.0007342206663452089,3.2076317438622937e-05,0.0,0.0,0.0,0.0,-0.0020080888643860817,0.0011969635961577296,-0.0003624691744334996,1.0011146068572998,0.0,0.0,0.0,-0.05995839834213257,6.312302589416504,-2.1419434547424316,10.852590560913086,0
1572.0900000000001,-0.00022854647249914706,-0.0007557899807579815,3.25706168951001e-05,0.0,0.0,0.0,0.0,-0.0014579877024516463,-0.00146960630081594,-0.0036424160934984684,0.9991530776023865,0.0,0.0,0.0,-0.06044095382094383,6.310627460479736,-2.1453158855438232,10.939933776855469,0
1581.9760000000006,-0.00022150097356643528,-0.0007794174016453326,3.368284887983464e-05,0.0,0.0,0.0,0.0,0.000984154175966978,-0.0004995377967134118,0.0036634791176766157,0.998985230922699,0.0,0.0,0.0,-0.060683611780405045,6.306036949157715,-2.1434619426727295,10.983854293823242,0
1591.8760000000002,-0.00021375934011302888,-0.0008042390109039843,3.431678851484321e-05,0.0,0.0,0.0,0.0,-0.0007366706267930567,0.002000439679250121,-0.0020060327369719744,0.9998739957809448,0.0,0.0,0.0,-0.0585930272936821,6.297924518585205,-2.14235520362854,10.605454444885254,0
1601.7570000000014,-0.00020523481362033635,-0.0008298105094581842,3.461393862380646e-05,0.0,0.0,0.0,0.0,-0.003238116391003132,-0.002838768530637026,-0.0011757395695894957,1.0017225742340088,0.0,0.0,0.0,-0.05880014970898628,6.2926459312438965,-2.1379449367523193,10.6429443359375,0
1611.6400000000012,-0.0001954612525878474,-0.0008562729344703257,3.575882510631345e-05,0.0,0.0,0.0,0.0,-0.0014374988386407495,-0.0009761135443113744,-0.0004460746713448316,1.0002949237823486,0.0,0.0,0.0,-0.05882445350289345,6.294156551361084,-2.1302366256713867,10.647342681884766,0
1621.5330000000013,-0.0001853469293564558,-0.0008843132527545094,3.8164314901223406e-05,0.0,0.0,0.0,0.0,-0.0013635336654260755,-0.00520281121134758,-0.001775548211298883,0.9998560547828674,0.0,0.0,0.0,-0.058191973716020584,6.291927337646484,-2.1254384517669678,10.532862663269043,0
1631.4210000000003,-0.0001748376089381054,-0.0009143088827840984,4.1184128349414095e-05,0.0,0.0,0.0,0.0,-0.0007365448982454836,0.003414998995140195,-0.0006354668294079602,0.9997736215591431,0.0,0.0,0.0,-0.05826312303543091,6.286327362060547,-2.111957311630249,10.545741081237793,0
1641.3029999999999,-0.00016285438323393464,-0.0009460875880904496,4.44456200057175e-05,0.0,0.0,0.0,0.0,-0.0010925013339146972,0.00013903880608268082,-0.000534763268660754,0.9975525140762329,0.0,0.0,0.0,-0.05795877426862717,6.286415100097656,-2.1129627227783203,10.490653991699219,0
1651.1970000000001,-0.0001492266746936366,-0.0009789683390408754,4.676944445236586e-05,0.0,0.0,0.0,0.0,-0.0034889657981693745,-0.0004440274788066745,-0.0038906140252947807,1.0004405975341797,0.0,0.0,0.0,-0.05838773399591446,6.2833356857299805,-2.1050243377685547,10.5682954788208,0
1661.0790000000015,-0.00013457433669827878,-0.001013111905194819,4.818557863472961e-05,0.0,0.0,0.0,0.0,-0.0008418954093940556,0.006520688999444246,-0.0005499263643287122,1.0003752708435059,0.0,0.0,0.0,-0.05923205614089966,6.282612323760986,-2.1022777557373047,10.72111988067627,0
1670.9660000000003,-0.00011928645835723728,-0.0010487056570127606,4.998605800210498e-05,0.0,0.0,0.0,0.0,0.0028983275406062603,-0.004507696721702814,0.0014399060746654868,1.0016177892684937,0.0,0.0,0.0,-0.058986518532037735,6.274690628051758,-2.1195216178894043,10.676677703857422,0
1680.857,-0.00010287763871019706,-0.001085882424376905,5.284236613078974e-05,0.0,0.0,0.0,0.0,-0.0006602965295314789,0.0045013162307441235,0.004541710484772921,1.0015482902526855,0.0,0.0,0.0,-0.058725643903017044,6.263083457946777,-2.113804578781128,10.6294584274292,0
1690.7380000000012,-8.536536188330501e-05,-0.001125285984016955,5.7220338931074366e-05,0.0,0.0,0.0,0.0,-0.00011039779201382771,0.0005480480613186955,-0.00032420092611573637,0.9995514154434204,0.0,0.0,0.0,-0.05716390535235405,6.260725498199463,-2.1203672885894775,10.346780776977539,0
1700.6280000000006,-6.676600605715066e-05,-0.0011673062108457088,6.247300188988447e-05,0.0,0.0,0.0,0.0,-0.0009778629755601287,-0.0020150518976151943,-0.0018457559635862708,0.9982945919036865,0.0,0.0,0.0,-0.056653767824172974,6.254489421844482,-2.121251106262207,10.25444507598877,0
1710.5210000000006,-4.6931731048971415e-05,-0.0012115784920752048,6.700714584439993e-05,0.0,0.0,0.0,0.0,0.0012694132747128606,0.00022592468303628266,0.002537067513912916,0.9993924498558044,0.0,0.0,0.0,-0.05772620067000389,6.2498626708984375,-2.1247365474700928,10.448556900024414,0
1720.3990000000013,-2.7175025024916977e-05,-0.0012570724356919527,7.049617124721408e-05,0.0,0.0,0.0,0.0,0.0006981847109273076,-0.0005137335974723101,-0.0009105075732804835,0.997719943523407,0.0,0.0,0.0,-0.05677948519587517,6.2401204109191895,-2.1234405040740967,10.277200698852539,0
1730.2890000000007,-8.228558726841584e-06,-0.0013031059643253684,7.275980897247791e-05,0.0,0.0,0.0,0.0,0.00016211491310968995,0.0012022226583212614,5.774075543740764e-05,0.9991706609725952,0.0,0.0,0.0,-0.05748587101697922,6.235095024108887,-2.130247116088867,10.405056953430176,0
1740.1810000000005,1.0874620784306899e-05,-0.001348850317299366,7.336825365200639e-05,0.0,0.0,0.0,0.0,-0.0011748264078050852,0.0027727317065000534,0.0014491952024400234,0.9998840093612671,0.0,0.0,0.0,-0.057315241545438766,6.232827186584473,-2.1336727142333984,10.37417221069336,0
1750.062,3.077350265812129e-05,-0.0013950729044154286,7.345835911110044e-05,0.0,0.0,0.0,0.0,-0.002016548765823245,0.004762149881571531,0.00030213280115276575,1.0010212659835815,0.0,0.0,0.0,-0.05691298842430115,6.227808952331543,-2.1404871940612793,10.301363945007324,0
1759.955,5.157902342034504e-05,-0.0014438519719988108,7.419422036036849e-05,0.0,0.0,0.0,0.0,0.003260384313762188,0.0028343177400529385,-0.0015200134366750717,1.0007296800613403,0.0,0.0,0.0,-0.057147614657878876,6.223496913909912,-2.144782066345215,10.343832969665527,0
1769.8360000000011,7.293450471479446e-05,-0.0014953459613025188,7.591652683913708e-05,0.0,0.0,0.0,0.0,0.0009527638903819025,0.0012111460091546178,-0.0017099658725783229,1.0015480518341064,0.0,0.0,0.0,-0.05748102813959122,6.212327003479004,-2.148604393005371,10.404180526733398,0
1779.7240000000002,9.431746730115265e-05,-0.001549034146592021,7.8962417319417e-05,0.0,0.0,0.0,0.0,0.0010246341116726398,0.00137246772646904,0.002347328467294574,1.002459168434143,0.0,0.0,0.0,-0.05891933664679527,6.207608699798584,-2.151662826538086,10.664517402648926,0
1789.612000000001,0.00011603526945691556,-0.0016057697357609868,8.421542588621378e-05,0.0,0.0,0.0,0.0,0.0023470071610063314,-0.0007017447496764362,0.0008517595706507564,0.998498797416687,0.0,0.0,0.0,-0.0587984062731266,6.200932025909424,-2.1545777320861816,10.64262866973877,0
1799.5010000000002,0.00013768544886261225,-0.001666290103457868,9.047432104125619e-05,0.0,0.0,0.0,0.0,0.0021007766481488943,-0.0032664325553923845,-0.0007984788971953094,0.9987486004829407,0.0,0.0,0.0,-0.05866296589374542,6.191214084625244,-2.149702548980713,10.61811351776123,0
1809.3830000000016,0.00015873077791184187,-0.001730220508761704,9.592925198376179e-05,0.0,0.0,0.0,0.0,-0.0006521933828480542,0.004822188057005405,-0.0005602365708909929,0.9994873404502869,0.0,0.0,0.0,-0.05877656117081642,6.187502861022949,-2.137010335922241,10.638673782348633,0
1819.2720000000008,0.00017833981837611645,-0.0017964302096515894,0.00010063580702990294,0.0,0.0,0.0,0.0,-0.0007123098475858569,-0.0017706655198708177,-0.0025844182819128036,0.9985091686248779,0.0,0.0,0.0,-0.05841146036982536,6.184596061706543,-2.141878604888916,10.572589874267578,0
1829.1560000000009,0.0001955151092261076,-0.001864376594312489,0.00010431098053231835,0.0,0.0,0.0,0.0,0.003185960231348872,0.004868682008236647,-0.0005176363047212362,1.0007634162902832,0.0,0.0,0.0,-0.05875062197446823,6.178720951080322,-2.1369550228118896,10.633978843688965,0
1839.0480000000007,0.00021145418577361852,-0.0019345609471201897,0.000107712228782475,0.0,0.0,0.0,0.0,-0.00040430447552353144,0.00450263824313879,-0.001443654065951705,0.9995101094245911,0.0,0.0,0.0,-0.05922938138246536,6.165768623352051,-2.1462159156799316,10.720635414123535,0
1848.9279999999999,0.00022730650380253792,-0.0020073975902050734,0.00011147395707666874,0.0,0.0,0.0,0.0,-0.0008987041655927896,0.005155622959136963,0.0014044527197256684,0.9972671270370483,0.0,0.0,0.0,-0.05861200392246246,6.158589839935303,-2.1515352725982666,10.60888957977295,0
1858.8310000000001,-0.00048389239236712456,-0.0009129880927503109,0.0007513511809520423,0.0,0.0,0.0,0.0,-0.00018563536286819726,0.0008349818526767194,0.0010839080205187201,0.9977191686630249,0.0,0.0,0.0,-0.07133892923593521,6.3212890625,-2.28066349029541,12.91248893737793,0
1868.701000000001,-0.0004956983029842377,-0.0009472447563894093,0.0007707543554715812,0.0,0.0,0.0,0.0,-6.719907833030447e-05,0.003600535448640585,-0.003953651525080204,1.000846028327942,0.0,0.0,0.0,-0.07096090912818909,6.313324928283691,-2.280747413635254,12.84406566619873,0
1878.5970000000016,-0.0004654497606679797,-0.0009239275241270661,0.0008466225117444992,0.0,0.0,0.0,0.0,-0.0001626882585696876,0.0020567832980304956,-0.0016779311699792743,1.0022571086883545,0.0,0.0,0.0,-0.09138814359903336,6.313989639282227,-2.2817118167877197,16.54143524169922,0
1888.4790000000012,-0.00047670555068179965,-0.0009591502603143454,0.0008684353670105338,0.0,0.0,0.0,0.0,-0.0007427059463225305,0.005427438300102949,-0.0034412869717925787,1.0004650354385376,0.0,0.0,0.0,-0.09169362485408783,6.303504943847656,-2.2882485389709473,16.59672737121582,0
1898.3770000000004,-0.0005042662960477173,-0.0009539977763779461,0.0009061096934601665,0.0,0.0,0.0,0.0,-0.0022880176547914743,-0.0032813979778438807,-0.0010867355158552527,0.9993187785148621,0.0,0.0,0.0,-0.10250435769557953,6.305779933929443,-2.314523220062256,18.55349349975586,0
1908.2570000000014,-0.0005184215842746198,-0.000990482745692134,0.0009307024301961064,0.0,0.0,0.0,0.0,0.0012316936627030373,-0.0033107970375567675,0.0020406695548444986,0.9981125593185425,0.0,0.0,0.0,-0.10296253114938736,6.304533004760742,-2.3026599884033203,18.636423110961914,0
1918.1450000000004,-0.0005304395454004407,-0.0009604213992133737,0.0009796200320124626,0.0,0.0,0.0,0.0,-0.0002233366685686633,1.2223891644680407e-05,-0.001571742119267583,0.9994910955429077,0.0,0.0,0.0,-0.11151642352342606,6.3172926902771,-2.297114610671997,20.184694290161133,0
1928.0250000000015,-0.0005463251145556569,-0.0009959872113540769,0.001004283083602786,0.0,0.0,0.0,0.0,0.0027313220780342817,0.004767106380313635,-0.003242004429921508,1.002023458480835,0.0,0.0,0.0,-0.11160632967948914,6.313900947570801,-2.2909305095672607,20.20096778869629,0
1937.9230000000007,-0.0005634573753923178,-0.00103427330031991,0.0010295549873262644,0.0,0.0,0.0,0.0,-0.004589028190821409,-0.008162440732121468,0.0015495400875806808,0.9992204904556274,0.0,0.0,0.0,-0.11297547072172165,6.300571441650391,-2.300596237182617,20.44878387451172,0
1947.799000000001,-0.0005815455806441605,-0.0010761157609522343,0.0010556518100202084,0.0,0.0,0.0,0.0,0.0019147362327203155,-0.004236983601003885,0.0012554640416055918,0.9991885423660278,0.0,0.0,0.0,-0.11214189231395721,6.300466537475586,-2.2908833026885986,20.29790687561035,0
1957.7040000000015,-0.0005737259052693844,-0.0010779914446175098,0.0010831928811967373,0.0,0.0,0.0,0.0,0.0009062089375220239,0.0031748064793646336,0.0020024424884468317,0.9989843368530273,0.0,0.0,0.0,-0.12373413890600204,6.301250457763672,-2.2676680088043213,22.39612579345703,0
1967.5770000000011,-0.000591463060118258,-0.0011227891081944108,0.001110221492126584,0.0,0.0,0.0,0.0,0.0021500715520232916,0.0009304813574999571,-0.0019710748456418514,1.0002243518829346,0.0,0.0,0.0,-0.12359197437763214,6.296383380889893,-2.2647287845611572,22.370393753051758,0
1977.4740000000002,-0.0005431473255157471,-0.001095860148780048,0.001140739070251584,0.0,0.0,0.0,0.0,5.8390669437358156e-05,-0.0005762336077168584,-0.002567372051998973,1.0005539655685425,0.0,0.0,0.0,-0.13314737379550934,6.305534839630127,-2.249375104904175,24.099939346313477,0
1987.3490000000002,-0.0002576198021415621,-0.0006551126134581864,0.00034982594661414623,0.0,0.0,0.0,0.0,-0.0031639565713703632,-0.0061925058253109455,0.0008884815615601838,0.9990860223770142,0.0,0.0,0.0,-0.13596585392951965,6.343494415283203,-2.2170515060424805,24.610092163085938,0
1997.2440000000006,-0.0003395958920009434,-0.0006188637926243246,0.00038084134575910866,0.0,0.0,0.0,0.0,0.0009989443933591247,0.0006931805983185768,-0.002095637610182166,0.9984280467033386,0.0,0.0,0.0,-0.13492745161056519,6.341485023498535,-2.20525860786438,24.422136306762695,0
2007.1230000000014,-0.00023398175835609436,-0.000542702036909759,0.0001987074938369915,0.0,0.0,0.0,0.0,0.0051703196950256824,5.5725628044456244e-05,0.0005130725330673158,0.9981895685195923,0.0,0.0,0.0,-0.1357852667570114,6.33127498626709,-2.2017951011657715,24.577404022216797,0
2017.0260000000017,-0.00032281188759952784,-0.0005030167521908879,0.0002106751489918679,0.0,0.0,0.0,0.0,-0.00014926651783753186,-0.004804500378668308,0.000493814586661756,0.9996838569641113,0.0,0.0,0.0,-0.13479016721248627,6.3152594566345215,-2.197978973388672,24.397287368774414,0
2026.8990000000013,-0.00032887322595342994,-0.0005529773188754916,0.0001901265641208738,0.0,0.0,0.0,0.0,0.0006001121364533901,0.005224053747951984,-3.26176559610758e-05,0.9991414546966553,0.0,0.0,0.0,-0.12247675657272339,6.309828281402588,-2.180065631866455,22.168537139892578,0
2036.7939999999999,-0.0003284001140855253,-0.0005225969944149256,0.00024027274048421532,0.0,0.0,0.0,0.0,-0.001234896364621818,0.00550417834892869,-0.001924044219776988,0.9981076717376709,0.0,0.0,0.0,-0.12290161848068237,6.2951884269714355,-2.191359043121338,22.245437622070312,0
2046.6730000000007,-0.0002972454531118274,-0.0005162928136996925,0.00020917139772791415,0.0,0.0,0.0,0.0,-0.0010938821360468864,-0.0034937532618641853,0.0017334535950794816,0.9983723163604736,0.0,0.0,0.0,-0.10235431790351868,6.293744087219238,-2.1936657428741455,18.526334762573242,0
2056.567000000001,-0.0003067983197979629,-0.0005469741299748421,0.00020989701442886144,0.0,0.0,0.0,0.0,-0.0011895251227542758,-0.0015169981634244323,-0.0005748604307882488,0.9997929334640503,0.0,0.0,0.0,-0.10163622349500656,6.28804874420166,-2.1816699504852295,18.396358489990234,0
2066.447,-0.00030663126381114125,-0.0006020445725880563,0.000167694321135059,0.0,0.0,0.0,0.0,0.0007380043971352279,-0.000565655529499054,0.0004845937655773014,0.9993591904640198,0.0,0.0,0.0,-0.10194843262434006,6.283294200897217,-2.178842544555664,18.452869415283203,0
2076.3500000000004,-0.00031914893770590425,-0.0006379217957146466,0.0001644158037379384,0.0,0.0,0.0,0.0,-0.002901845844462514,0.006664363667368889,-0.0020143333822488785,1.0001755952835083,0.0,0.0,0.0,-0.1012464240193367,6.279207229614258,-2.166135311126709,18.3258056640625,0
2086.2220000000016,-0.0003170714480802417,-0.0006686199922114611,0.00013371916429605335,0.0,0.0,0.0,0.0,-0.0003187663678545505,0.0041144476272165775,0.0023174365051090717,1.0015277862548828,0.0,0.0,0.0,-0.09143301099538803,6.282111644744873,-2.1727001667022705,16.549556732177734,0
2096.1190000000006,-0.00026092829648405313,-0.0006717744981870055,0.00022137507039587945,0.0,0.0,0.0,0.0,0.0017323222709819674,-0.0012023580493405461,0.00041304557817056775,1.002137303352356,0.0,0.0,0.0,-0.09867595881223679,6.2839813232421875,-2.16914963722229,17.860544204711914,0
2105.996000000001,-0.00026698000147007406,-0.0007126054842956364,0.00022477736638393253,0.0,0.0,0.0,0.0,-0.0027756316121667624,0.0020606867037713528,-0.0006130230030976236,1.0008081197738647,0.0,0.0,0.0,-0.09802622348070145,6.273142337799072,-2.161858558654785,17.742942810058594,0
2115.897000000001,-0.0002538984117563814,-0.0006984916399233043,0.0002804734976962209,0.0,0.0,0.0,0.0,0.003994145896285772,0.0007331027882173657,0.0027465508319437504,0.9997528195381165,0.0,0.0,0.0,-0.0976417064666748,6.271065711975098,-2.1582868099212646,17.673341751098633,0
2125.773000000001,-0.0002549591881688684,-0.0007212182972580194,0.00030161155154928565,0.0,0.0,0.0,0.0,-0.0007104279357008636,0.0008322689100168645,0.0010815187124535441,0.9976264238357544,0.0,0.0,0.0,-0.09072332084178925,6.262584686279297,-2.1508443355560303,16.42110252380371,0
2135.675000000001,-0.00034216357744298875,-0.0006827415782026947,0.0003277860232628882,0.0,0.0,0.0,0.0,0.002529664896428585,-0.003952719271183014,0.0006582715432159603,1.0000113248825073,0.0,0.0,0.0,-0.09733179211616516,6.276191711425781,-2.154780864715576,17.617246627807617,0
2145.545,-0.00031765890889801085,-0.0006838619592599571,0.00031682272674515843,0.0,0.0,0.0,0.0,-1.5908899513306096e-05,2.4421891794190742e-05,-0.0007017880561761558,1.0004328489303589,0.0,0.0,0.0,-0.0974922776222229,6.26390266418457,-2.1484479904174805,17.64629554748535,0
2155.4400000000005,-0.00032360912882722914,-0.0007237263489514589,0.00032520288368687034,0.0,0.0,0.0,0.0,-0.00041693198727443814,0.0013530370779335499,0.00014325078518595546,0.9990106225013733,0.0,0.0,0.0,-0.09879957139492035,6.256801605224609,-2.151878833770752,17.88292121887207,0
2165.3340000000007,-0.00035950655001215637,-0.0006565809599123895,0.00040437522693537176,0.0,0.0,0.0,0.0,0.002011848846450448,0.004745366983115673,-0.0003610984713304788,0.9992798566818237,0.0,0.0,0.0,-0.09842643141746521,6.248654842376709,-2.159074068069458,17.815380096435547,0
2175.215,-0.00036922472645528615,-0.0006948427180759609,0.0004180557152722031,0.0,0.0,0.0,0.0,0.001917600049637258,0.003665362484753132,-0.0028664469718933105,0.9984557628631592,0.0,0.0,0.0,-0.09866135567426682,6.235851287841797,-2.1652145385742188,17.85790252685547,0
2185.095000000001,-0.00034998642513528466,-0.0007432844722643495,0.00036157405702397227,0.0,0.0,0.0,0.0,0.001600243034772575,-0.002684210194274783,0.000959040888119489,1.0003221035003662,0.0,0.0,0.0,-0.09893640130758286,6.228359222412109,-2.170198678970337,17.907686233520508,0
2195.0,-0.0004000994376838207,-0.0006861094734631479,0.0004195476067252457,0.0,0.0,0.0,0.0,-0.002555220853537321,0.0028558948542922735,-0.00547783263027668,1.0001193284988403,0.0,0.0,0.0,-0.09859953075647354,6.218994140625,-2.1719605922698975,17.846710205078125,0
2204.8740000000016,-0.0003883744066115469,-0.0006505497149191797,0.00048709663678891957,0.0,0.0,0.0,0.0,0.0022445463109761477,0.011002220213413239,0.0002953799266833812,0.9976397752761841,0.0,0.0,0.0,-0.09984030574560165,6.218511581420898,-2.1789956092834473,18.071292877197266,0
2214.764000000001,-0.00039249318069778383,-0.0006892743986099958,0.0005027293227612972,0.0,0.0,0.0,0.0,0.0007153634214773774,0.00893791951239109,-0.0029183600563555956,1.0015861988067627,0.0,0.0,0.0,-0.09908634424209595,6.208878517150879,-2.1923303604125977,17.934825897216797,0
