timestamp,stateEstimate.x,stateEstimate.y,stateEstimate.z,controller.cmd_thrust,controller.cmd_roll,controller.cmd_pitch,controller.cmd_yaw,controller.r_roll,controller.r_pitch,controller.r_yaw,controller.accelz,controller.actuatorThrust,controller.roll,controller.pitch,controller.yaw,controller.rollRate,controller.pitchRate,controller.yawRate,controller.ctr_yaw
0.0,-0.00041712154052220285,-0.00046134600415825844,0.0006121278274804354,0.0,0.0,0.0,0.0,-0.0009653570014052093,-0.002249815035611391,0.0021841921843588352,1.0002809762954712,0.0,0.0,0.0,0.2041095644235611,4.3085527420043945,4.322072982788086,-36.94424057006836,0
9.903000000000247,-0.00041940988739952445,-0.0004810087848454714,0.0006912890239618719,0.0,0.0,0.0,0.0,0.00028305716114118695,0.00648892717435956,-0.004207555204629898,1.0006067752838135,0.0,0.0,0.0,0.19493480026721954,4.309447288513184,4.336977005004883,-35.28358459472656,0
19.82800000000134,-0.00045842782128602266,-0.0005173487588763237,0.0007375133573077619,0.0,0.0,0.0,0.0,-0.0016458239406347275,-0.0003163189394399524,-0.0018835666123777628,1.0013738870620728,0.0,0.0,0.0,0.19393575191497803,4.3083086013793945,4.321035861968994,-35.102760314941406,0
29.730000000001382,-0.000440919742686674,-0.0005294419243000448,0.0008539410773664713,0.0,0.0,0.0,0.0,0.002084244042634964,0.0036093194503337145,0.0004041412321384996,1.0002076625823975,0.0,0.0,0.0,0.18616795539855957,4.313678741455078,4.353774547576904,-33.696773529052734,0
39.652000000000044,-0.0004737221752293408,-0.0005671854014508426,0.00090846634702757,0.0,0.0,0.0,0.0,0.0033212960697710514,0.0017518289387226105,0.002363030333071947,1.0004003047943115,0.0,0.0,0.0,0.1860688328742981,4.307591438293457,4.348047256469727,-33.678829193115234,0
49.556000000000495,-0.0004801004834007472,-0.0006109296809881926,0.0009920111624523997,0.0,0.0,0.0,0.0,-0.0035243735183030367,0.0001237264950759709,0.0007192399352788925,1.0023680925369263,0.0,0.0,0.0,0.18622426688671112,4.2937140464782715,4.33437967300415,-33.70696258544922,0
59.48000000000138,-0.0005107632023282349,-0.0006549590034410357,0.0010509444400668144,0.0,0.0,0.0,0.0,2.8652815672103316e-05,-0.001802649348974228,0.0009903177851811051,1.0010322332382202,0.0,0.0,0.0,0.18660059571266174,4.301400661468506,4.336139678955078,-33.77507781982422,0
69.38200000000143,-0.0005285636289045215,-0.0006789284525439143,0.0011567608453333378,0.0,0.0,0.0,0.0,-0.0007303723832592368,-0.0032419096678495407,-0.0009978656889870763,0.9990403056144714,0.0,0.0,0.0,0.19135455787181854,4.305368900299072,4.343068599700928,-34.635555267333984,0
79.3060000000005,-0.0005612301174551249,-0.0007259883568622172,0.0012219323543831706,0.0,0.0,0.0,0.0,0.003679559100419283,0.0012928495416417718,-0.002380616497248411,0.999243438243866,0.0,0.0,0.0,0.19140855967998505,4.302707672119141,4.340840816497803,-34.64533233642578,0
89.21300000000156,-0.0005698538152500987,-0.0007475952734239399,0.0013461587950587273,0.0,0.0,0.0,0.0,0.0008661734755150974,0.00027695493190549314,0.0016691751079633832,0.9989416599273682,0.0,0.0,0.0,0.1909399926662445,4.287999629974365,4.336763381958008,-34.56052017211914,0
99.13200000000143,-0.0006035540718585253,-0.0007968312711454928,0.0014152980875223875,0.0,0.0,0.0,0.0,-0.000849470030516386,-0.001273110625334084,-0.0030352051835507154,0.9982203841209412,0.0,0.0,0.0,0.19051973521709442,4.275283336639404,4.320960521697998,-34.48445510864258,0
109.04200000000128,-4.1091851016972214e-05,-0.0001554612535983324,3.708135773194954e-05,0.0,0.0,0.0,0.0,-0.0017776995664462447,-0.0008077195379883051,0.00011440597154432908,0.9982556104660034,0.0,0.0,0.0,0.19651083648204803,4.398591995239258,4.418577194213867,-35.56885528564453,0
118.95900000000074,-5.652299296343699e-05,-0.00018084500334225595,5.155469261808321e-05,0.0,0.0,0.0,0.0,-0.0010637323139235377,-0.0015439243288710713,0.0014808002160862088,0.9965179562568665,0.0,0.0,0.0,0.19525477290153503,4.398881912231445,4.4150590896606445,-35.34149932861328,0
128.8640000000014,-6.209624552866444e-05,-0.0001319492148468271,-1.309630442847265e-05,0.0,0.0,0.0,0.0,0.0011061945697292686,-0.0007047831895761192,-0.0010509237181395292,0.9975865483283997,0.0,0.0,0.0,0.20187906920909882,4.40054988861084,4.413349628448486,-36.54051208496094,0
138.79000000000087,-7.876133167883381e-05,-0.00015954853734001517,-6.525125172629487e-06,0.0,0.0,0.0,0.0,0.000875560799613595,0.0009166722884401679,-0.00037632440216839314,0.9990938305854797,0.0,0.0,0.0,0.20177075266838074,4.393531799316406,4.40190315246582,-36.52090835571289,0
148.6900000000005,-4.9819096602732316e-05,-0.0001369528181385249,-5.136967956786975e-05,0.0,0.0,0.0,0.0,-0.0011136149987578392,-0.004289284348487854,-0.00011672886466840282,0.9993072152137756,0.0,0.0,0.0,0.21599967777729034,4.395232677459717,4.399154186248779,-39.096370697021484,0
158.6110000000008,-6.717695214319974e-05,-0.00016481679631397128,-5.04618146806024e-05,0.0,0.0,0.0,0.0,0.001419029082171619,0.0008639603620395064,0.003993998747318983,0.9977192878723145,0.0,0.0,0.0,0.21617941558361053,4.391176223754883,4.395493030548096,-39.12890625,0
168.51700000000164,-2.2888052626512945e-06,-0.0001425200462108478,-5.1018687372561544e-05,0.0,0.0,0.0,0.0,0.002203861018642783,-0.002155710244551301,0.0010004965588450432,0.9980255365371704,0.0,0.0,0.0,0.2203637957572937,4.388092041015625,4.391056060791016,-39.886287689208984,0
178.44200000000092,-2.2101896320236847e-05,-0.00017189756908919662,-5.2569339459296316e-05,0.0,0.0,0.0,0.0,0.004304531961679459,-0.00041780510218814015,0.0012219109339639544,0.9997813105583191,0.0,0.0,0.0,0.22085930407047272,4.385496616363525,4.385387420654297,-39.975975036621094,0
188.34500000000116,-8.184766920749098e-05,-0.00010655681398930028,-7.585339335491881e-05,0.0,0.0,0.0,0.0,-0.0023567958269268274,-0.0012173433788120747,0.0003591235727071762,0.9996696710586548,0.0,0.0,0.0,0.21256627142429352,4.3882293701171875,4.38200044631958,-38.474918365478516,0
198.26700000000164,-0.00010666252637747675,-0.0001379542809445411,-8.036893996177241e-05,0.0,0.0,0.0,0.0,-0.0010821253526955843,0.0010074275778606534,0.0035030890721827745,1.003157377243042,0.0,0.0,0.0,0.2113543599843979,4.389896869659424,4.376399040222168,-38.25556182861328,0
208.1780000000017,-5.130279896548018e-05,-5.0238922995049506e-05,-8.611312659922987e-05,0.0,0.0,0.0,0.0,0.0013325156178325415,-0.0003590020351111889,-0.003082778537645936,0.9992513060569763,0.0,0.0,0.0,0.22143520414829254,4.393446445465088,4.370161056518555,-40.0802116394043,0
218.09600000000137,-7.586047286167741e-05,-8.084951696218923e-05,-8.805813558865339e-05,0.0,0.0,0.0,0.0,0.0001161583568318747,-0.0003671817830763757,-0.00481342663988471,0.9980857968330383,0.0,0.0,0.0,0.2224292904138565,4.390052318572998,4.364030361175537,-40.2601432800293,0
228.0010000000002,-2.5347111659357324e-05,-7.573194307042286e-05,-9.383467840962112e-05,0.0,0.0,0.0,0.0,-0.005004799924790859,0.00574703561142087,-0.0009839202975854278,0.9996753931045532,0.0,0.0,0.0,0.2277139276266098,4.38248348236084,4.358270168304443,-41.216670989990234,0
237.91800000000148,-5.1767674449365586e-05,-0.00010737044794950634,-9.784879512153566e-05,0.0,0.0,0.0,0.0,-0.002641200553625822,0.0022841922473162413,-0.0017736000008881092,0.9988251328468323,0.0,0.0,0.0,0.22737842798233032,4.38875675201416,4.35290002822876,-41.15594482421875,0
247.82400000000052,-3.938334430131363e-06,-0.00011983848526142538,-9.071054228115827e-05,0.0,0.0,0.0,0.0,-0.005904178600758314,7.061418000375852e-05,-0.0032134070061147213,0.9985930919647217,0.0,0.0,0.0,0.22020138800144196,4.393096923828125,4.353591442108154,-39.85688781738281,0
257.75800000000163,-3.2607866160105914e-05,-0.00015185245138127357,-9.48050437727943e-05,0.0,0.0,0.0,0.0,0.0049056666903197765,0.0089206388220191,-0.0039205788634717464,0.9989707469940186,0.0,0.0,0.0,0.21921373903751373,4.402495861053467,4.345547676086426,-39.678123474121094,0
267.65100000000166,-3.577943425625563e-05,-0.0001356371067231521,-7.38019953132607e-05,0.0,0.0,0.0,0.0,0.0012177984463050961,0.0033572434913367033,-0.001570624765008688,1.0007134675979614,0.0,0.0,0.0,0.2265785187482834,4.404603004455566,4.32760763168335,-41.01116180419922,0
277.58200000000033,-6.57005439279601e-05,-0.0001704331225482747,-7.73724532336928e-05,0.0,0.0,0.0,0.0,0.0008555595995858312,0.004272157326340675,-0.0037750157061964273,0.9994634985923767,0.0,0.0,0.0,0.22504174709320068,4.3947672843933105,4.312986373901367,-40.733001708984375,0
287.47700000000077,-3.290660242782906e-05,-0.00013565314293373376,-0.00012287023128010333,0.0,0.0,0.0,0.0,0.0014137814287096262,-0.0007277631666511297,-0.0009098965092562139,0.9993331432342529,0.0,0.0,0.0,0.22060486674308777,4.401158332824707,4.313861846923828,-39.9299201965332,0
297.40300000000025,-6.370378832798451e-05,-0.00017146533355116844,-0.00012915939441882074,0.0,0.0,0.0,0.0,0.00041397084714844823,-0.0008630785741843283,0.0022716084495186806,1.000437617301941,0.0,0.0,0.0,0.22103826701641083,4.394476413726807,4.307735919952393,-40.008365631103516,0
307.3070000000007,2.9167555112508126e-05,-0.00016702714492566884,-0.00013706693425774574,0.0,0.0,0.0,0.0,-0.0013548247516155243,0.0007058268529362977,-0.0038648226764053106,1.000533103942871,0.0,0.0,0.0,0.21367092430591583,4.384676456451416,4.3101935386657715,-38.674861907958984,0
317.22700000000077,-2.673177732503973e-06,-0.00020501913968473673,-0.0001424542861059308,0.0,0.0,0.0,0.0,-0.0005535822128877044,-0.0023997470270842314,-0.0012596413725987077,1.001155972480774,0.0,0.0,0.0,0.21269987523555756,4.381480693817139,4.299592971801758,-38.49909973144531,0
327.1310000000012,-2.1151041437406093e-05,-0.0002049008762696758,-0.00015449232887476683,0.0,0.0,0.0,0.0,-0.0005775877507403493,0.004668808542191982,-0.002147960476577282,1.001421570777893,0.0,0.0,0.0,0.2121937870979309,4.375882148742676,4.308297157287598,-38.40749740600586,0
337.0580000000009,-5.769296330981888e-05,-0.000245244795223698,-0.000158370821736753,0.0,0.0,0.0,0.0,-0.002253358019515872,-0.00023248560319188982,0.0034070392139256,0.9991474747657776,0.0,0.0,0.0,0.21162986755371094,4.369938850402832,4.295451641082764,-38.30542755126953,0
346.95900000000074,-5.08812845509965e-05,-0.00018640198686625808,-0.0001327778008999303,0.0,0.0,0.0,0.0,-0.00019003973284270614,0.00044713495299220085,0.0010440651094540954,0.9992856979370117,0.0,0.0,0.0,0.21298344433307648,4.394667148590088,4.295573711395264,-38.5504264831543,0
356.88300000000163,-8.951366908149794e-05,-0.00022366878692992032,-0.00013362873869482428,0.0,0.0,0.0,0.0,0.0006398753612302244,0.0022152436431497335,-0.005134438630193472,0.9964812994003296,0.0,0.0,0.0,0.21217180788516998,4.386894702911377,4.283083438873291,-38.40351867675781,0
366.78600000000006,-5.293128197081387e-05,-0.00018960583838634193,-0.0001149478048318997,0.0,0.0,0.0,0.0,-0.00013143256364855915,-0.0035315256100147963,0.0007571448804810643,0.9984680414199829,0.0,0.0,0.0,0.20498646795749664,4.392110824584961,4.284387111663818,-37.10295867919922,0
376.71200000000135,-5.344536839402281e-05,-0.0001567915314808488,-0.0001418298779753968,0.0,0.0,0.0,0.0,-0.001285593956708908,-0.0019485900411382318,-0.0039842575788497925,0.999794065952301,0.0,0.0,0.0,0.2123326063156128,4.391478538513184,4.284496784210205,-38.432621002197266,0
386.612000000001,1.3472453247231897e-05,-0.0001542173995403573,-0.00010246600868413225,0.0,0.0,0.0,0.0,0.0021370151080191135,0.0012960884487256408,0.0014689770760014653,1.0000301599502563,0.0,0.0,0.0,0.21111150085926056,4.382392406463623,4.282040119171143,-38.211605072021484,0
396.5400000000009,-2.525067247916013e-05,-0.000187629833817482,-0.00010503733210498467,0.0,0.0,0.0,0.0,-0.0005759891937486827,-0.003893293207511306,0.0016613246407359838,1.0014673471450806,0.0,0.0,0.0,0.21062326431274414,4.374350547790527,4.277592658996582,-38.12322998046875,0
406.4500000000007,-2.372387461946346e-05,-0.00017923051200341433,-8.362950757145882e-05,0.0,0.0,0.0,0.0,-0.0003162829962093383,-0.003803816856816411,0.00484469486400485,1.0007176399230957,0.0,0.0,0.0,0.20426292717456818,4.377942085266113,4.279930591583252,-36.97199630737305,0
416.3670000000002,-5.028935265727341e-05,-0.00019349752983544022,-0.00010288512567058206,0.0,0.0,0.0,0.0,0.0010986963752657175,-0.002709648571908474,0.004938449244946241,1.000426173210144,0.0,0.0,0.0,0.20470492541790009,4.36757230758667,4.28079891204834,-37.051998138427734,0
426.27000000000044,-9.283387043979019e-05,-0.0002290858537890017,-0.00010183657286688685,0.0,0.0,0.0,0.0,0.00031663503614254296,0.0020188656635582447,-0.0019974438473582268,0.9988105297088623,0.0,0.0,0.0,0.20544245839118958,4.364017486572266,4.279963493347168,-37.18549346923828,0
436.2000000000007,-9.215623867930844e-05,-0.000169423918123357,-0.0001387241209158674,0.0,0.0,0.0,0.0,-0.0028824140317738056,-0.0009509710362181067,-0.0032413548324257135,0.9963716268539429,0.0,0.0,0.0,0.2045256793498993,4.355128765106201,4.274914741516113,-37.019554138183594,0
446.09500000000116,-6.863372982479632e-05,-0.00017492259212303907,-0.00010407384252175689,0.0,0.0,0.0,0.0,0.0016108661657199264,-0.00039194137207232416,-0.0013019138714298606,0.9985181093215942,0.0,0.0,0.0,0.2043166309595108,4.354343891143799,4.27846622467041,-36.98171615600586,0
456.01300000000083,-7.094707689248025e-05,-0.0001382298651151359,-0.00013697690155822784,0.0,0.0,0.0,0.0,0.001969148637726903,0.0037182627711445093,0.00044654891826212406,0.9987334609031677,0.0,0.0,0.0,0.20388749241828918,4.344538688659668,4.270261764526367,-36.9040412902832,0
465.9190000000017,-0.00010935083264485002,-0.00010989538714056835,-0.00012378310202620924,0.0,0.0,0.0,0.0,0.0010495174210518599,-0.0013796500861644745,0.0016035939333960414,0.9989209175109863,0.0,0.0,0.0,0.2036803811788559,4.336585998535156,4.256006717681885,-36.86655807495117,0
475.84000000000015,-0.00015660523786209524,-0.00013887147360946983,-0.00012946184142492712,0.0,0.0,0.0,0.0,0.0026464725378900766,0.002026614034548402,-0.0020776388701051474,0.9984576106071472,0.0,0.0,0.0,0.20358949899673462,4.33158540725708,4.255749702453613,-36.8501091003418,0
485.746000000001,-0.0001451814459869638,-0.00012305339623708278,-0.00011226979404455051,0.0,0.0,0.0,0.0,0.004262631759047508,-0.0021055161487311125,-0.00249925022944808,0.999695897102356,0.0,0.0,0.0,0.2028004378080368,4.321152210235596,4.244969367980957,-36.70728302001953,0
495.6700000000001,-0.00019438927120063454,-0.00015302676183637232,-0.00011775749590015039,0.0,0.0,0.0,0.0,-0.0009224288514815271,0.003159784711897373,-0.0006371214985847473,0.9985437393188477,0.0,0.0,0.0,0.20308728516101837,4.3168416023254395,4.243072986602783,-36.75920104980469,0
505.5730000000003,-0.00016213538765441626,-0.00014022525283508003,-0.000100717916211579,0.0,0.0,0.0,0.0,0.002074843505397439,-0.00220384425483644,-0.0027947002090513706,0.9973902702331543,0.0,0.0,0.0,0.20212924480438232,4.320067882537842,4.228905200958252,-36.58579635620117,0
515.496000000001,-0.00016650749603286386,-9.849498746916652e-05,-0.0001666026801103726,0.0,0.0,0.0,0.0,-0.004416066687554121,-0.005169757176190615,0.00047859371989034116,0.9995373487472534,0.0,0.0,0.0,0.20238739252090454,4.316542148590088,4.226918697357178,-36.63252258300781,0
525.4000000000015,-0.0002170132502214983,-0.000127192513900809,-0.00017784182273317128,0.0,0.0,0.0,0.0,0.0033956326078623533,-0.0011298847384750843,0.0030142096802592278,1.001253366470337,0.0,0.0,0.0,0.20217622816562653,4.316476345062256,4.228414058685303,-36.594303131103516,0
535.3130000000001,-0.00023908769071567804,-0.00011204574548173696,-0.0002270158292958513,0.0,0.0,0.0,0.0,0.00042020916589535773,0.0015560680767521262,0.002556207124143839,1.0014159679412842,0.0,0.0,0.0,0.20863626897335052,4.318910121917725,4.2326273918151855,-37.76357650756836,0
545.2270000000008,-0.0002922591520473361,-0.00014206187915988266,-0.00023991223133634776,0.0,0.0,0.0,0.0,0.0007913848385214806,0.002950877184048295,0.0002566839393693954,1.0016303062438965,0.0,0.0,0.0,0.20905591547489166,4.314939498901367,4.219242572784424,-37.83953857421875,0
555.1400000000012,-0.00034836854320019484,-0.00017422513337805867,-0.0002511183265596628,0.0,0.0,0.0,0.0,-0.0025449434760957956,0.004567457363009453,-0.0019952659495174885,1.0014021396636963,0.0,0.0,0.0,0.20974543690681458,4.306246757507324,4.215702056884766,-37.96434020996094,0
565.0530000000017,-0.00010135314369108528,-0.00024063400633167475,-0.0001143429908552207,0.0,0.0,0.0,0.0,-0.0031418674625456333,0.0032078928779810667,-0.0019308042246848345,1.0010578632354736,0.0,0.0,0.0,0.21104352176189423,4.300261497497559,4.278841972351074,-38.19929885864258,0
574.9670000000006,-8.329085540026426e-05,-0.00018147245282307267,-0.0001684218441369012,0.0,0.0,0.0,0.0,-0.0016132460441440344,-0.0007563730468973517,0.0005438782973214984,1.0002816915512085,0.0,0.0,0.0,0.2176809161901474,4.324036598205566,4.278789520263672,-39.40067672729492,0
584.880000000001,-5.141578003531322e-05,-0.000184408767381683,-0.00012741108366753906,0.0,0.0,0.0,0.0,-0.0003134841681458056,-0.0041387309320271015,0.003887732746079564,1.0010713338851929,0.0,0.0,0.0,0.21122241020202637,4.331434726715088,4.276215076446533,-38.2316780090332,0
594.7940000000017,6.384675543813501e-07,-0.00011197521234862506,-0.00021744385594502091,0.0,0.0,0.0,0.0,0.00017267836665268987,0.005638278089463711,-0.005283359903842211,1.0017801523208618,0.0,0.0,0.0,0.217245414853096,4.346132755279541,4.2964768409729,-39.32185363769531,0
604.7060000000001,-7.389013717329362e-06,-9.792510536499321e-05,-0.00019644481653813273,0.0,0.0,0.0,0.0,-0.0008453097543679178,0.002298221690580249,0.0005855722120031714,0.9978772401809692,0.0,0.0,0.0,0.21625916659832,4.337896347045898,4.281793594360352,-39.14333724975586,0
614.6200000000008,-5.2924144256394356e-05,-0.00012330093886703253,-0.00019284764130134135,0.0,0.0,0.0,0.0,-1.5248694580805022e-05,-0.0026303508784621954,0.0014235767303034663,0.9987894296646118,0.0,0.0,0.0,0.22299151122570038,4.33744478225708,4.2731099128723145,-40.361907958984375,0
624.5370000000003,4.369592716102488e-06,-0.00010261643910780549,-0.00014168753114063293,0.0,0.0,0.0,0.0,0.0005550541100092232,0.0017924337880685925,-0.0023280922323465347,1.0007760524749756,0.0,0.0,0.0,0.2232256680727005,4.328928470611572,4.268955230712891,-40.404293060302734,0
634.4470000000001,-5.496432277141139e-05,-0.0001377003063680604,-0.00012142396008130163,0.0,0.0,0.0,0.0,-0.002240161644294858,0.0035122826229780912,-0.0009423910523764789,1.0007917881011963,0.0,0.0,0.0,0.23014944791793823,4.328466415405273,4.265046119689941,-41.65751266479492,0
644.3600000000006,3.2195100629905937e-06,-0.00016655867511872202,-7.858422031858936e-05,0.0,0.0,0.0,0.0,-0.00010267904144711792,0.0024149378295987844,0.0016712539363652468,1.0000866651535034,0.0,0.0,0.0,0.22341272234916687,4.3260498046875,4.266382217407227,-40.43814468383789,0
654.277,1.3395915630098898e-05,-0.00013845400826539844,-0.0001240424026036635,0.0,0.0,0.0,0.0,0.00038281301385723054,-0.002554734004661441,0.002089208457618952,1.000227451324463,0.0,0.0,0.0,0.22337989509105682,4.3215813636779785,4.254096508026123,-40.43220520019531,0
664.1870000000017,-3.2431248655484524e-06,-0.00014908838784322143,-0.00010604723502183333,0.0,0.0,0.0,0.0,0.001224254141561687,0.006991119123995304,-0.0018590025138109922,1.0015672445297241,0.0,0.0,0.0,0.2230668067932129,4.313846588134766,4.252688407897949,-40.37553787231445,0
674.1020000000008,1.3505086826626211e-06,-0.00010253942309645936,-0.00014203428872860968,0.0,0.0,0.0,0.0,0.0025027813389897346,-0.00066708168014884,0.0009640598436817527,1.0009148120880127,0.0,0.0,0.0,0.22949236631393433,4.322380542755127,4.247236251831055,-41.53857421875,0
684.014000000001,-2.035891156992875e-05,-0.00013949013373348862,-0.0001283474121009931,0.0,0.0,0.0,0.0,0.0016796709969639778,-0.0014640656299889088,-0.003183782333508134,1.0007166862487793,0.0,0.0,0.0,0.22087062895298004,4.314396858215332,4.238107681274414,-39.978023529052734,0
693.9270000000015,-5.9673668147297576e-05,-0.00014891382306814194,-0.00013077222683932632,0.0,0.0,0.0,0.0,0.00010248112812405452,-0.004306500311940908,-0.0025061429478228092,1.0010488033294678,0.0,0.0,0.0,0.22047315537929535,4.308119773864746,4.236530780792236,-39.90607833862305,0
703.8500000000004,-3.692561949719675e-05,-0.00014572709915228188,-8.989465277409181e-05,0.0,0.0,0.0,0.0,-0.0017165414756163955,-0.0019090095302090049,-0.0033948635682463646,1.000861406326294,0.0,0.0,0.0,0.22100535035133362,4.300265789031982,4.243062496185303,-40.00240707397461,0
713.7540000000008,-5.8723922848002985e-05,-0.00011962016287725419,-0.00010175673378398642,0.0,0.0,0.0,0.0,-0.0008367494447156787,0.006366717629134655,0.00010841029870789498,1.0011721849441528,0.0,0.0,0.0,0.22633951902389526,4.308503150939941,4.245153427124023,-40.96790313720703,0
723.6680000000015,-6.561471673194319e-05,-9.50281391851604e-05,-5.435040293377824e-05,0.0,0.0,0.0,0.0,-0.005398925393819809,-0.002531273989006877,0.0022850120440125465,1.0010865926742554,0.0,0.0,0.0,0.22609779238700867,4.305769443511963,4.232306480407715,-40.92415237426758,0
733.5880000000016,-0.00012393263750709593,-0.00012796912051271647,-3.2823631045175716e-05,0.0,0.0,0.0,0.0,-0.0020413799211382866,-0.0007789055816829205,0.0012229853309690952,1.0011216402053833,0.0,0.0,0.0,0.23456279933452606,4.303071022033691,4.227377891540527,-42.45633316040039,0
743.5020000000004,-9.381883864989504e-05,-0.00015177098975982517,1.382509981340263e-05,0.0,0.0,0.0,0.0,-0.0027584282215684652,0.001143349800258875,-5.740356573369354e-05,1.0010160207748413,0.0,0.0,0.0,0.22642265260219574,4.302188873291016,4.232827186584473,-40.98295211791992,0
753.4160000000011,-8.426813292317092e-05,-0.00012999778846278787,-2.9546994483098388e-05,0.0,0.0,0.0,0.0,-0.0017350747948512435,0.0033349553123116493,-0.004092481452971697,1.0032269954681396,0.0,0.0,0.0,0.23456674814224243,4.311191082000732,4.235188007354736,-42.45705032348633,0
763.3330000000005,-7.135463238228112e-05,-0.00012328295269981027,2.271467019454576e-05,0.0,0.0,0.0,0.0,-0.0022338374983519316,0.0009435368119738996,-0.0001477240730309859,0.9997976422309875,0.0,0.0,0.0,0.23441895842552185,4.3034987449646,4.22014045715332,-42.4302978515625,0
773.246000000001,-6.262333045015112e-05,-7.819064921932295e-05,-1.0158057193621062e-05,0.0,0.0,0.0,0.0,0.001250868896022439,-0.0019677970558404922,0.0002652764378581196,0.9990706443786621,0.0,0.0,0.0,0.23437733948230743,4.3051605224609375,4.214529514312744,-42.422767639160156,0
783.148000000001,-6.817911344114691e-05,-0.00012561149196699262,9.201881766784936e-06,0.0,0.0,0.0,0.0,-0.0027191615663468838,0.00021076915436424315,-0.0010799968149513006,1.000714659690857,0.0,0.0,0.0,0.23395280539989471,4.291172981262207,4.211589813232422,-42.345924377441406,0
793.0710000000017,-0.00012047692143823951,-0.00014994925004430115,2.813218452502042e-05,0.0,0.0,0.0,0.0,-0.0009657936170697212,0.0017870886949822307,-0.00040389675996266305,0.998721182346344,0.0,0.0,0.0,0.23391230404376984,4.284851551055908,4.216387748718262,-42.338592529296875,0
802.9750000000004,-6.513797416118905e-05,-0.0001685020251898095,8.785200043348595e-05,0.0,0.0,0.0,0.0,-0.001973452279344201,0.0015628745313733816,-0.0014400171348825097,0.9996945261955261,0.0,0.0,0.0,0.2242618352174759,4.285633087158203,4.222671031951904,-40.59183883666992,0
812.8990000000013,-3.1597628549207e-05,-0.00010579398076515645,2.4338778530363925e-05,0.0,0.0,0.0,0.0,-0.0008004644187167287,0.0008222291362471879,0.0008178197895176709,1.0021377801895142,0.0,0.0,0.0,0.2234843671321869,4.278647422790527,4.21551513671875,-40.451114654541016,0
822.8020000000015,-8.28932534204796e-05,-0.00013473141007125378,3.9163860492408276e-05,0.0,0.0,0.0,0.0,-0.002307770075276494,-0.0012588059762492776,-5.053505446994677e-05,1.0003526210784912,0.0,0.0,0.0,0.223348930478096,4.266303062438965,4.208005905151367,-40.42660140991211,0
832.7300000000014,-5.08368102600798e-05,-7.720092980889603e-05,-4.2288647819077596e-05,0.0,0.0,0.0,0.0,0.0035909477155655622,4.852660640608519e-05,-0.0005879774689674377,1.000209927558899,0.0,0.0,0.0,0.2233162820339203,4.27016019821167,4.2039947509765625,-40.42068862915039,0
842.6290000000008,-9.922983008436859e-05,-0.00010355337872169912,-3.293793633929454e-05,0.0,0.0,0.0,0.0,0.0045911469496786594,0.0021604348439723253,0.0024748812429606915,1.0005429983139038,0.0,0.0,0.0,0.2210186868906021,4.265279293060303,4.2009148597717285,-40.00482177734375,0
852.5580000000009,-8.836960478220135e-05,-8.866032294463366e-05,-0.00010834519343916327,0.0,0.0,0.0,0.0,-0.0008081474807113409,-0.005450793541967869,0.004208661615848541,0.9989678263664246,0.0,0.0,0.0,0.22267942130565643,4.257388114929199,4.190616607666016,-40.305416107177734,0
862.4560000000001,-5.2539729949785396e-05,-8.716883166925982e-05,-4.253464794601314e-05,0.0,0.0,0.0,0.0,-0.003693785984069109,-0.0033521694131195545,-0.0025442943442612886,0.9993557929992676,0.0,0.0,0.0,0.2142530232667923,4.253162384033203,4.209000587463379,-38.78022003173828,0
872.3820000000014,1.3571804629464168e-05,-2.830125140462769e-06,-0.0001405444781994447,0.0,0.0,0.0,0.0,-0.0019625790882855654,-0.003966342657804489,-0.0013401411706581712,0.9996361136436462,0.0,0.0,0.0,0.21379193663597107,4.2586989402771,4.219170570373535,-38.6967658996582,0
882.2820000000011,2.496776323823724e-05,-7.206948066595942e-05,-0.0001534472976345569,0.0,0.0,0.0,0.0,-0.0017564548179507256,0.0006758951349183917,0.0031959230545908213,0.9996773600578308,0.0,0.0,0.0,0.21319620311260223,4.261332035064697,4.222627639770508,-38.58893966674805,0
892.2040000000015,2.431651228107512e-05,-5.2494509873213246e-05,-0.00019186276767868549,0.0,0.0,0.0,0.0,0.0022490397095680237,-0.001198244048282504,-0.0011538217077031732,0.9979971051216125,0.0,0.0,0.0,0.21329034864902496,4.2634453773498535,4.226308822631836,-38.605979919433594,0
902.1110000000008,5.933497050136793e-06,-5.812568633700721e-05,-0.00019148184219375253,0.0,0.0,0.0,0.0,0.002152780769392848,-0.0024069848004728556,0.0026768469251692295,1.0008466243743896,0.0,0.0,0.0,0.21279099583625793,4.2540669441223145,4.216026782989502,-38.515594482421875,0
912.0460000000003,-3.8877744373166934e-05,-5.38655040145386e-05,-0.00018125813221558928,0.0,0.0,0.0,0.0,-0.0022181980311870575,-0.001786749460734427,-0.00036778810317628086,1.0023996829986572,0.0,0.0,0.0,0.21197029948234558,4.246555328369141,4.214402198791504,-38.367042541503906,0
921.9360000000015,-1.8618324247654527e-05,-0.00010483036021469161,-0.00017424375982955098,0.0,0.0,0.0,0.0,-0.0013549320865422487,0.0020380839705467224,-0.0011295016156509519,1.0005512237548828,0.0,0.0,0.0,0.20366188883781433,4.243286609649658,4.2175068855285645,-36.86320495605469,0
931.857,-6.205069075804204e-05,-0.00013188747107051313,-0.00017738821043167263,0.0,0.0,0.0,0.0,0.003907226957380772,-0.0002010124153457582,0.00025734666269272566,0.9991927742958069,0.0,0.0,0.0,0.21009372174739838,4.239340782165527,4.215908527374268,-38.027381896972656,0
941.7650000000012,-0.00010854080755962059,-0.00016659696120768785,-0.00017959032265935093,0.0,0.0,0.0,0.0,-0.0016624029958620667,-0.005174695979803801,-0.0020047808066010475,1.0003184080123901,0.0,0.0,0.0,0.21050108969211578,4.227431774139404,4.208720684051514,-38.10111618041992,0
951.6920000000009,-0.0001374995190417394,-0.00015166206867434084,-0.00019363098544999957,0.0,0.0,0.0,0.0,0.002832235535606742,0.001394364284351468,0.0026457037311047316,1.0003825426101685,0.0,0.0,0.0,0.2099226415157318,4.227152347564697,4.200161457061768,-37.99641799926758,0
961.5930000000008,-5.5838871048763394e-05,-0.00014130819181445986,-0.00012202683865325525,0.0,0.0,0.0,0.0,-0.0014862423995509744,-0.00028484364156611264,-0.00040331107447855175,1.0004675388336182,0.0,0.0,0.0,0.2106001377105713,4.223238468170166,4.200542449951172,-38.119041442871094,0
971.5110000000004,-0.00013481815403793007,-0.00020774060976691544,-8.444747072644532e-05,0.0,0.0,0.0,0.0,-0.001001675147563219,-0.000986776314675808,0.0006344675202853978,1.00113046169281,0.0,0.0,0.0,0.2090161293745041,4.219686985015869,4.190709114074707,-37.83233642578125,0
981.4170000000013,-0.00011407788406359032,-0.000220602480112575,-4.2494433728279546e-05,0.0,0.0,0.0,0.0,0.00019600740051828325,-0.0015549538657069206,0.004815709311515093,1.0041494369506836,0.0,0.0,0.0,0.20894795656204224,4.219933032989502,4.194740295410156,-37.81999969482422,0
991.3510000000006,-0.0001518737117294222,-0.00023906075512059033,-3.714828926604241e-05,0.0,0.0,0.0,0.0,0.0014067892916500568,0.00179022375959903,-0.0005358088528737426,1.0010125637054443,0.0,0.0,0.0,0.2094556987285614,4.215872764587402,4.194401264190674,-37.911895751953125,0
1001.2470000000012,-0.00012076301209162921,-0.00025008272496052086,1.7624348402023315e-05,0.0,0.0,0.0,0.0,0.00018132930563297123,0.003599731717258692,-0.001891882042400539,1.0004863739013672,0.0,0.0,0.0,0.20869189500808716,4.207456111907959,4.183066368103027,-37.77364730834961,0
1011.1640000000007,-9.073368710232899e-05,-0.00018215134332422167,-3.173751611029729e-05,0.0,0.0,0.0,0.0,-0.0011168423807248473,0.0031224966514855623,0.00033660887856967747,0.9980053901672363,0.0,0.0,0.0,0.21521279215812683,4.220075607299805,4.183512210845947,-38.953941345214844,0
1021.0790000000015,-4.452064968063496e-05,-0.0001642607821850106,3.305585778434761e-05,0.0,0.0,0.0,0.0,0.0022804613690823317,5.159085776540451e-05,-0.0013156248023733497,1.0002752542495728,0.0,0.0,0.0,0.21500806510448456,4.221716403961182,4.1719841957092285,-38.91688537597656,0
1030.9950000000008,-2.7326675990479998e-05,-0.000139697891427204,-1.766796594893094e-05,0.0,0.0,0.0,0.0,-0.0014145991299301386,0.002946447813883424,-0.0035448179114609957,1.0012511014938354,0.0,0.0,0.0,0.21423780918121338,4.216830253601074,4.164827346801758,-38.7774658203125,0
1040.8990000000013,-2.6061085009132512e-05,-0.00016836822032928467,2.1740745069109835e-05,0.0,0.0,0.0,0.0,-0.00015113558038137853,-0.0004972458118572831,0.0008095520897768438,1.0017961263656616,0.0,0.0,0.0,0.21422074735164642,4.209266662597656,4.163601398468018,-38.77437973022461,0
1050.8210000000017,-2.5121315047726966e-05,-0.0001461229840060696,-1.2685054571193177e-05,0.0,0.0,0.0,0.0,0.004073374904692173,0.00147843302693218,-0.0024610995315015316,0.9995389580726624,0.0,0.0,0.0,0.21383318305015564,4.201301097869873,4.152592658996582,-38.70423126220703,0
1060.7270000000008,-4.047978654853068e-05,-0.00020283016783650964,7.378803275059909e-06,0.0,0.0,0.0,0.0,0.00017348256369587034,0.001222898717969656,0.0003064650227315724,1.001049518585205,0.0,0.0,0.0,0.21369680762290955,4.1892571449279785,4.1456170082092285,-38.67954635620117,0
1070.6470000000008,-3.095098873018287e-05,-0.00016821532335598022,-3.694901170092635e-05,0.0,0.0,0.0,0.0,-0.0028389906510710716,0.0006130159599706531,0.0012372963828966022,1.0008646249771118,0.0,0.0,0.0,0.2208390235900879,4.196172714233398,4.143579959869385,-39.97230529785156,0
1080.5530000000017,-4.823355538974283e-06,-0.00018977133731823415,3.4373651942587458e-06,0.0,0.0,0.0,0.0,-0.005442287307232618,0.004192856140434742,0.001905952114611864,0.999415934085846,0.0,0.0,0.0,0.21976317465305328,4.196361541748047,4.134846210479736,-39.77757263183594,0
1090.4760000000006,-2.4451255740132183e-06,-0.00016859032621141523,-3.5360622860025615e-05,0.0,0.0,0.0,0.0,-0.00313733983784914,-0.0019189425511285663,0.0030483868904411793,1.0020976066589355,0.0,0.0,0.0,0.22004996240139008,4.20166015625,4.123544216156006,-39.82948303222656,0
1100.3780000000006,-5.6698150729062036e-05,-0.00015509776130784303,-7.790155905240681e-06,0.0,0.0,0.0,0.0,0.0018303365213796496,0.0013789855875074863,-0.0011984779266640544,0.9996112585067749,0.0,0.0,0.0,0.2196476310491562,4.196887016296387,4.119536876678467,-39.756656646728516,0
1110.2940000000017,-5.706419324269518e-05,-0.00014488953456748277,-5.133229205966927e-05,0.0,0.0,0.0,0.0,-0.00046668321010656655,0.003492978634312749,0.006144409533590078,1.0002304315567017,0.0,0.0,0.0,0.22003114223480225,4.19547176361084,4.1114959716796875,-39.826072692871094,0
1120.2070000000003,-6.763033889001235e-05,-0.00016297279216814786,-2.488326390448492e-05,0.0,0.0,0.0,0.0,0.0015289258444681764,9.208707342622802e-05,0.0013754003448411822,0.9991585612297058,0.0,0.0,0.0,0.21992383897304535,4.196934700012207,4.098562717437744,-39.80664825439453,0
1130.1230000000014,-5.4284624638967216e-05,-0.00011576686665648594,-7.604229176649824e-05,0.0,0.0,0.0,0.0,0.000608441885560751,0.0027202817145735025,0.00043776287930086255,1.0005723237991333,0.0,0.0,0.0,0.22670727968215942,4.199889659881592,4.103104591369629,-41.03446960449219,0
1140.0310000000009,-8.206240636354778e-06,-0.0001511639275122434,-3.2922576792771e-05,0.0,0.0,0.0,0.0,0.0020599823910743,0.002033818978816271,-0.0036376402713358402,1.0026218891143799,0.0,0.0,0.0,0.22571173310279846,4.200267791748047,4.094600677490234,-40.854270935058594,0
1149.955,-1.763122054398991e-05,-0.00012797833187505603,-6.369872426148504e-05,0.0,0.0,0.0,0.0,0.002798189641907811,-0.0013105827383697033,-0.0011372227454558015,1.0005569458007812,0.0,0.0,0.0,0.22550807893276215,4.189260482788086,4.092031955718994,-40.817413330078125,0
1159.8590000000004,-1.9964429156971164e-05,-0.00013389834202826023,-2.539210981922224e-05,0.0,0.0,0.0,0.0,-0.0007519364007748663,-0.00016439342289231718,0.0034363872837275267,1.0004687309265137,0.0,0.0,0.0,0.22543907165527344,4.182701110839844,4.099104881286621,-40.8049201965332,0
1169.7720000000008,-7.956688205013052e-05,-0.0001809590612538159,-1.4756347809452564e-05,0.0,0.0,0.0,0.0,0.002428945153951645,0.0010168662993237376,5.657642032019794e-05,0.9996953010559082,0.0,0.0,0.0,0.22536496818065643,4.178008556365967,4.086776256561279,-40.79150390625,0
1179.6900000000005,-0.0001417673920514062,-0.00023030428565107286,-3.753062628675252e-06,0.0,0.0,0.0,0.0,-0.0013781668385490775,0.0023006091360002756,-0.00185618014074862,0.998045802116394,0.0,0.0,0.0,0.2255157083272934,4.169057846069336,4.078688144683838,-40.81879425048828,0
1189.6020000000008,-0.00016905899974517524,-0.00022410314704757184,-2.5603254471207038e-05,0.0,0.0,0.0,0.0,0.001094142789952457,0.0003533711424097419,-0.0033093709498643875,0.9973931312561035,0.0,0.0,0.0,0.2239624559879303,4.167605400085449,4.0680365562438965,-40.53764724731445,0
1199.5130000000008,-0.00012909994984511286,-0.00022165644622873515,3.891896267305128e-05,0.0,0.0,0.0,0.0,-0.0010959894862025976,0.002453533699735999,-0.0019550425931811333,0.9972773790359497,0.0,0.0,0.0,0.22252316772937775,4.162987232208252,4.059054374694824,-40.277137756347656,0
1209.4270000000015,-0.0001548105210531503,-0.0002172201784560457,1.679501474427525e-05,0.0,0.0,0.0,0.0,0.0024414104409515858,0.002161412499845028,-0.0028700658585876226,1.0005395412445068,0.0,0.0,0.0,0.22138935327529907,4.1605000495910645,4.047967910766602,-40.0719108581543,0
1219.3420000000006,-0.00013353288522921503,-0.00022392180107999593,5.9225971199339256e-05,0.0,0.0,0.0,0.0,0.00018393958453089,0.0014182422310113907,-0.001805884880013764,1.001546025276184,0.0,0.0,0.0,0.22472478449344635,4.1655354499816895,4.052504062652588,-40.675636291503906,0
1229.264000000001,-0.0001915805332828313,-0.0002736844471655786,6.776678492315114e-05,0.0,0.0,0.0,0.0,-0.0013691980857402086,-0.0032175302039831877,-0.0033189740497618914,0.9977641701698303,0.0,0.0,0.0,0.22491534054279327,4.160848617553711,4.051149368286133,-40.71012496948242,0
1239.166000000001,-0.00016554778267163783,-0.00027768651489168406,0.00010685429151635617,0.0,0.0,0.0,0.0,0.0009832741925492883,-3.54541334672831e-05,0.0011094855144619942,0.9974192976951599,0.0,0.0,0.0,0.2160957306623459,4.1711344718933105,4.060471534729004,-39.11375427246094,0
1249.0790000000015,-0.0001055873726727441,-0.000187869809451513,-2.109536035277415e-05,0.0,0.0,0.0,0.0,-0.0022589219734072685,0.0030840339604765177,-0.0044379099272191525,0.9992256760597229,0.0,0.0,0.0,0.226112499833107,4.195540904998779,4.076568603515625,-40.92681121826172,0
1258.9930000000004,-0.00010631405166350305,-0.00021461113647092134,4.653910764318425e-06,0.0,0.0,0.0,0.0,0.0033931138459593058,0.0008470055181533098,0.003451715223491192,1.0018121004104614,0.0,0.0,0.0,0.21847669780254364,4.197172164916992,4.068953990936279,-39.544715881347656,0
1268.9060000000009,-9.466240589972585e-05,-0.00015867922047618777,-5.6011282140389085e-05,0.0,0.0,0.0,0.0,-0.0013893356081098318,-0.0005486290319822729,0.00038672861410304904,1.0005241632461548,0.0,0.0,0.0,0.21833878755569458,4.190591812133789,4.063199996948242,-39.519752502441406,0
1278.8200000000015,-2.7119935111841187e-05,-0.00017289724200963974,-7.547330824309029e-06,0.0,0.0,0.0,0.0,0.0006769670872017741,0.00059609638992697,0.0011746298987418413,0.9998769760131836,0.0,0.0,0.0,0.21853354573249817,4.186595439910889,4.065212249755859,-39.55501174926758,0
1288.7340000000004,-4.270871068001725e-05,-0.00015090229862835258,-5.037256778450683e-05,0.0,0.0,0.0,0.0,0.0030827014707028866,-0.00014138204278424382,-0.0005357853369787335,1.001257300376892,0.0,0.0,0.0,0.2186814844608307,4.183077335357666,4.057394027709961,-39.581783294677734,0
1298.6460000000006,-8.559990237699822e-05,-0.00021656136959791183,-4.6565655793529004e-05,0.0,0.0,0.0,0.0,-0.002255682833492756,0.0011144732125103474,-0.005697150249034166,1.0007572174072266,0.0,0.0,0.0,0.21783000230789185,4.175565242767334,4.050206661224365,-39.42766189575195,0
1308.5600000000013,-8.024163980735466e-05,-0.00020647674682550132,-0.00013444857904687524,0.0,0.0,0.0,0.0,-0.003877040231600404,0.0028475343715399504,-0.0007730895304121077,0.9988968968391418,0.0,0.0,0.0,0.21556632220745087,4.175483703613281,4.039885997772217,-39.0179328918457,0
1318.4740000000002,-0.000100430850579869,-0.00023017401690594852,-0.00011026962602045387,0.0,0.0,0.0,0.0,0.001899047987535596,-0.0008660858147777617,-0.0021302399691194296,0.9981441497802734,0.0,0.0,0.0,0.2083836793899536,4.176933765411377,4.034897804260254,-37.717857360839844,0
1328.3870000000006,-3.137918974971399e-05,-0.00011135975364595652,-0.0002443316043354571,0.0,0.0,0.0,0.0,-0.001190617447718978,-0.0025071727577596903,-0.0013458745088428259,1.0004674196243286,0.0,0.0,0.0,0.21503810584545135,4.192626476287842,4.050009250640869,-38.92232894897461,0
1338.3020000000015,-5.734307342208922e-05,-0.0001556215138407424,-0.00024000559642445296,0.0,0.0,0.0,0.0,-0.0005334962042979896,-0.0008981537539511919,0.0005806642584502697,1.0015065670013428,0.0,0.0,0.0,0.21442516148090363,4.190134525299072,4.049198627471924,-38.81138229370117,0
1348.214,-7.730786455795169e-05,-0.00010880451009143144,-0.00028412442770786583,0.0,0.0,0.0,0.0,-0.003634057706221938,0.0003968888777308166,-0.0012961506145074964,1.001898169517517,0.0,0.0,0.0,0.22555623948574066,4.199245929718018,4.052519798278809,-40.82612609863281,0
1358.134,-7.815664866939187e-05,-0.00014398290659300983,-0.0002676199364941567,0.0,0.0,0.0,0.0,0.0005345927784219384,-0.003489663125947118,0.0002595137630123645,1.0019017457962036,0.0,0.0,0.0,0.22489631175994873,4.202793598175049,4.052032947540283,-40.70668029785156,0
1368.049000000001,-0.00011663880286505446,-0.00015145275392569602,-0.00030667614191770554,0.0,0.0,0.0,0.0,0.0025137164629995823,-0.0011743647046387196,-0.004062614403665066,1.0010899305343628,0.0,0.0,0.0,0.22452908754348755,4.197265625,4.057475566864014,-40.64021301269531,0
1377.9660000000003,-3.955554711865261e-05,-0.00014500219549518079,-0.00024022423895075917,0.0,0.0,0.0,0.0,0.0031331581994891167,-0.0005649969098158181,0.002777121728286147,0.9996403455734253,0.0,0.0,0.0,0.21629703044891357,4.199595928192139,4.072759628295898,-39.15019226074219,0
1387.8780000000006,-0.00011816002370323986,-0.00016089199925772846,-0.00021501192532014102,0.0,0.0,0.0,0.0,0.001883485703729093,-0.0012119028251618147,0.0014563780277967453,0.999383807182312,0.0,0.0,0.0,0.21634893119335175,4.198063850402832,4.070248126983643,-39.159584045410156,0
1397.7900000000009,-0.00010042928624898195,-0.00018205442756880075,-0.0001730752846924588,0.0,0.0,0.0,0.0,-0.0002307130635017529,-0.0023550926707684994,0.0013515482423827052,0.9975466728210449,0.0,0.0,0.0,0.2094084918498993,4.198104381561279,4.080249786376953,-37.90335464477539,0
1407.7110000000011,-0.00015715908375568688,-0.0001961003872565925,-0.0001764904154697433,0.0,0.0,0.0,0.0,0.00038172531640157104,-0.0034492257982492447,-0.0007969087455421686,0.9994068741798401,0.0,0.0,0.0,0.2180079221725464,4.203833103179932,4.0792059898376465,-39.459869384765625,0
1417.621000000001,-0.00023037241771817207,-0.00024686718825250864,-0.00017666381609160453,0.0,0.0,0.0,0.0,-7.210030889837071e-05,-0.005109867546707392,-0.002620882820338011,0.9999207854270935,0.0,0.0,0.0,0.21737618744373322,4.200557708740234,4.08134126663208,-39.34552001953125,0
1427.5290000000005,-0.0002632469404488802,-0.00022473649005405605,-0.00021538804867304862,0.0,0.0,0.0,0.0,-0.0011181437876075506,0.001063561299815774,-0.0009551483090035617,1.000632405281067,0.0,0.0,0.0,0.2285519391298294,4.209698677062988,4.099010944366455,-41.36835479736328,0
1437.442000000001,-0.00019111415895167738,-0.00021226037642918527,-0.0001137078579631634,0.0,0.0,0.0,0.0,-0.000529223820194602,0.002163397613912821,-0.00016366594354622066,0.9997429847717285,0.0,0.0,0.0,0.2283116579055786,4.207651615142822,4.092766284942627,-41.32486343383789,0
1447.362000000001,-0.0002592048840597272,-0.0002209836820838973,-9.426009637536481e-05,0.0,0.0,0.0,0.0,-0.0009538203594274819,0.0064791785553097725,-0.0027523497119545937,0.9977250099182129,0.0,0.0,0.0,0.23836521804332733,4.206617832183838,4.087439060211182,-43.14457702636719,0
1457.277,-0.0001846795785240829,-0.00026845623506233096,-3.488824950181879e-05,0.0,0.0,0.0,0.0,0.000486720644403249,-0.00016797582793515176,-0.0025116135366261005,0.9980458617210388,0.0,0.0,0.0,0.23774473369121552,4.203502178192139,4.068723201751709,-43.03226852416992,0
1467.1860000000015,-0.00019006931688636541,-0.00023361219791695476,-8.354030433110893e-05,0.0,0.0,0.0,0.0,-0.000700021511875093,0.002371731912717223,-0.002714834874495864,1.0006487369537354,0.0,0.0,0.0,0.23715922236442566,4.195420265197754,4.06117057800293,-42.92628860473633,0
1477.107,-0.00016091976431198418,-0.00026542600244283676,-3.7678943044738844e-05,0.0,0.0,0.0,0.0,0.0031195483170449734,0.002405238337814808,0.002878461731597781,0.9993144869804382,0.0,0.0,0.0,0.22728689014911652,4.193601131439209,4.059701442718506,-41.13937759399414,0
1487.0170000000016,-0.00012733438052237034,-0.00018467569316271693,-0.00012308199075050652,0.0,0.0,0.0,0.0,-0.0010289738420397043,-0.0017852094024419785,0.002925445791333914,0.9989057779312134,0.0,0.0,0.0,0.22785285115242004,4.180433750152588,4.048806667327881,-41.2418212890625,0
1496.9280000000017,-7.890711276559159e-05,-0.00017250547534786165,-6.467338971560821e-05,0.0,0.0,0.0,0.0,0.0019467794336378574,-0.0014596465043723583,0.0016588830621913075,1.0015535354614258,0.0,0.0,0.0,0.228496715426445,4.182427406311035,4.045216083526611,-41.358360290527344,0
1506.848,-0.00011506108421599492,-0.00018409942276775837,-8.713379065738991e-05,0.0,0.0,0.0,0.0,0.0019596386700868607,-0.005007943604141474,0.0007853630813769996,1.0011448860168457,0.0,0.0,0.0,0.22835007309913635,4.174129009246826,4.041203022003174,-41.33182144165039,0
1516.7510000000002,-0.00011512343189679086,-0.0002183188044000417,-5.5130658438429236e-05,0.0,0.0,0.0,0.0,0.0025855498388409615,-0.0013299640268087387,0.00039778195787221193,0.9996788501739502,0.0,0.0,0.0,0.2220575213432312,4.165846824645996,4.063025951385498,-40.19285202026367,0
1526.674000000001,-0.00015217059990391135,-0.00021333733457140625,-7.147545693442225e-05,0.0,0.0,0.0,0.0,-0.0007663625874556601,-9.607163519831374e-05,0.00036458909744396806,0.9984027147293091,0.0,0.0,0.0,0.2293960601091385,4.166107177734375,4.068891525268555,-41.521141052246094,0
1536.5740000000005,-0.00012662188964895904,-0.00022879279276821762,-2.9358048777794465e-05,0.0,0.0,0.0,0.0,0.0039047803729772568,-0.005109857302159071,-0.0027909530326724052,0.9999305009841919,0.0,0.0,0.0,0.23005877435207367,4.165525913238525,4.068173408508301,-41.64109802246094,0
1546.4970000000012,-0.00010479648335603997,-0.000173843844095245,-0.00010929341078735888,0.0,0.0,0.0,0.0,-0.00023852950835134834,-0.0006524123018607497,-0.0023575800005346537,1.0000191926956177,0.0,0.0,0.0,0.22935402393341064,4.15381383895874,4.072075843811035,-41.51353454589844,0
1556.4100000000017,-0.0001640528644202277,-0.00020026913261972368,-0.00010498669871594757,0.0,0.0,0.0,0.0,0.0007786296191625297,0.00024429161567240953,0.004015237092971802,0.9998613595962524,0.0,0.0,0.0,0.2284812331199646,4.154240131378174,4.071705341339111,-41.35555648803711,0
1566.3190000000013,-0.00015974999405443668,-0.0001495742762926966,-0.0001689137570792809,0.0,0.0,0.0,0.0,-0.0013082197401672602,0.003170702839270234,0.00133137300144881,1.000174641609192,0.0,0.0,0.0,0.22887365520000458,4.1503424644470215,4.059895992279053,-41.42658615112305,0
1576.232,-8.646574133308604e-05,-0.0001963161921594292,-0.00013154928456060588,0.0,0.0,0.0,0.0,-0.0015178652247413993,-0.00019747675105463713,0.0029688302893191576,0.9991644620895386,0.0,0.0,0.0,0.22860665619373322,4.142581462860107,4.0471014976501465,-41.378257751464844,0
1586.1510000000017,-6.592644785996526e-05,-0.00014421201194636524,-0.00021466737962327898,0.0,0.0,0.0,0.0,-0.002803094917908311,4.755037298309617e-05,-0.0006869856151752174,1.0003849267959595,0.0,0.0,0.0,0.2290579378604889,4.143426418304443,4.046475887298584,-41.45994186401367,0
1596.0640000000003,-5.123440860188566e-05,-0.0001779243757482618,-0.0001939584908541292,0.0,0.0,0.0,0.0,-0.001591080566868186,0.0009432794176973403,0.004909303039312363,1.0008597373962402,0.0,0.0,0.0,0.2276523858308792,4.147495746612549,4.047048091888428,-41.20553207397461,0
1605.9860000000008,-0.0001022830037982203,-0.00019931411952711642,-0.00020563129510264844,0.0,0.0,0.0,0.0,-0.0010272630024701357,0.0016966387629508972,0.0014659910229966044,0.999811589717865,0.0,0.0,0.0,0.2278941571712494,4.1449875831604,4.045360565185547,-41.24929428100586,0
1615.8900000000012,-8.611239172751084e-05,-0.00017242529429495335,-0.0001580524112796411,0.0,0.0,0.0,0.0,0.0014228414511308074,0.0014674921985715628,-0.0010944386012852192,0.9993646740913391,0.0,0.0,0.0,0.2279004603624344,4.144665718078613,4.044483184814453,-41.25043487548828,0
1625.8120000000017,-0.00013368521467782557,-0.00019580856314860284,-0.00017150725761894137,0.0,0.0,0.0,0.0,9.54957286012359e-05,0.007563562132418156,-0.0005764626548625529,1.0010175704956055,0.0,0.0,0.0,0.23349705338478088,4.14109992980957,4.041945934295654,-42.263427734375,0
1635.7120000000014,-0.00012104911002097651,-0.00023925448476802558,-0.0001461043138988316,0.0,0.0,0.0,0.0,-0.000672843074426055,-0.0013544383691623807,0.001693177386187017,0.9982013702392578,0.0,0.0,0.0,0.23291562497615814,4.139390468597412,4.022867202758789,-42.1581916809082,0
1645.6320000000014,-0.00018736909260042012,-0.0002887680602725595,-0.00014595245011150837,0.0,0.0,0.0,0.0,0.0013174507766962051,-0.0010723033919930458,0.0016981272492557764,0.9995589256286621,0.0,0.0,0.0,0.23303908109664917,4.136126518249512,4.022242546081543,-42.18053436279297,0
1655.5460000000003,-0.00012206252722535282,-0.0002951432834379375,-0.00010972050222335383,0.0,0.0,0.0,0.0,-0.0013842119369655848,-0.0031040741596370935,0.0027184640057384968,1.0009353160858154,0.0,0.0,0.0,0.22559304535388947,4.137762069702148,4.039914131164551,-40.832786560058594,0
1665.4490000000005,-0.00018372738850302994,-0.0003002169542014599,-0.00010160475358134136,0.0,0.0,0.0,0.0,0.002088674111291766,0.0005893822526559234,0.0035473930183798075,1.0001585483551025,0.0,0.0,0.0,0.23583422601222992,4.144692420959473,4.043933868408203,-42.686466217041016,0
1675.3690000000006,-0.00015950182569213212,-0.00030045254970900714,-4.463715595193207e-05,0.0,0.0,0.0,0.0,0.0031736050732433796,0.003412094432860613,0.004137806594371796,1.000510811805725,0.0,0.0,0.0,0.2285909652709961,4.1446709632873535,4.04940128326416,-41.37541961669922,0
1685.2810000000009,-0.00023750332184135914,-0.00035604037111625075,-3.43018036801368e-05,0.0,0.0,0.0,0.0,0.0011503677815198898,0.0013030271511524916,-0.0031037568114697933,1.0019137859344482,0.0,0.0,0.0,0.22991588711738586,4.137220859527588,4.044153690338135,-41.615234375,0
1695.1990000000005,-0.00021389216999523342,-0.0003262318205088377,1.9440780306467786e-05,0.0,0.0,0.0,0.0,0.00022305716993287206,0.0006692539900541306,-0.0033700161147862673,1.0004582405090332,0.0,0.0,0.0,0.2206525206565857,4.145251750946045,4.048399925231934,-39.93854522705078,0
1705.1020000000008,-0.00028574003954418004,-0.00037602827069349587,3.56608688889537e-05,0.0,0.0,0.0,0.0,0.0006104647181928158,0.002286995528265834,-0.003140871413052082,0.9988054037094116,0.0,0.0,0.0,0.2204587310552597,4.139679431915283,4.037797451019287,-39.903472900390625,0
1715.027,-0.0002414679911453277,-0.00033652607817202806,9.4329341663979e-05,0.0,0.0,0.0,0.0,0.004392475355416536,-0.0049804565496742725,-0.0008851868915371597,0.9990841746330261,0.0,0.0,0.0,0.21959710121154785,4.131054878234863,4.03253173828125,-39.74750900268555,0
1724.929,-0.00023034235346131027,-0.000264395319391042,-3.470936462690588e-06,0.0,0.0,0.0,0.0,-0.001153254066593945,-0.0007369454251602292,0.0008661349420435727,0.9982314705848694,0.0,0.0,0.0,0.2294282615184784,4.1462931632995605,4.047147274017334,-41.52696990966797,0
1734.8550000000014,-0.0002388192806392908,-0.000225143478019163,6.619830674026161e-05,0.0,0.0,0.0,0.0,-0.0010552580934017897,0.0034868777729570866,-0.004323152359575033,1.0000752210617065,0.0,0.0,0.0,0.22019422054290771,4.162511348724365,4.052419662475586,-39.8555908203125,0
1744.759,-0.00030582916224375367,-0.0002675579162314534,8.071995398495346e-05,0.0,0.0,0.0,0.0,0.00585739454254508,0.0023475072812289,-1.0572825885901693e-05,1.000194787979126,0.0,0.0,0.0,0.21951889991760254,4.1593828201293945,4.043405532836914,-39.73335647583008,0
1754.675000000001,-0.0002748327679000795,-0.0002569427015259862,0.0001334418193437159,0.0,0.0,0.0,0.0,-0.0006847085896879435,0.0018232762813568115,-0.002383261453360319,1.0003021955490112,0.0,0.0,0.0,0.21349547803401947,4.158572673797607,4.04934549331665,-38.643104553222656,0
1764.5820000000003,-0.0002235059509985149,-0.00017936006770469248,-2.6157878892263398e-05,0.0,0.0,0.0,0.0,-0.0018341770628467202,0.0017107670428231359,-0.004100925289094448,1.0000096559524536,0.0,0.0,0.0,0.22050327062606812,4.1817803382873535,4.061429500579834,-39.91153335571289,0
1774.505000000001,-0.00018894390086643398,-0.00020763266365975142,2.160286567232106e-05,0.0,0.0,0.0,0.0,-0.0011756728636100888,-0.0010444684885442257,0.00068399723386392,0.9996309280395508,0.0,0.0,0.0,0.20961007475852966,4.185177803039551,4.065522193908691,-37.93983840942383,0
1784.4260000000013,-0.00017842641682364047,-0.0001633523206692189,-5.592123852693476e-05,0.0,0.0,0.0,0.0,0.0026360810734331608,0.00019714812515303493,-0.002214194508269429,1.0018138885498047,0.0,0.0,0.0,0.21669404208660126,4.196165084838867,4.07468843460083,-39.22205352783203,0
1794.33,-0.00015223838272504508,-0.00020428156130947173,-1.8788481611409225e-05,0.0,0.0,0.0,0.0,-0.0007678453694097698,0.004551045596599579,0.001425634021870792,0.999748706817627,0.0,0.0,0.0,0.20814238488674164,4.189141273498535,4.080714702606201,-37.67418670654297,0
1804.2440000000006,-0.00016009833780117333,-0.0001830936671467498,-7.100374932633713e-05,0.0,0.0,0.0,0.0,0.0018189535476267338,-0.0004185994330327958,0.003942482173442841,0.9985561370849609,0.0,0.0,0.0,0.20853552222251892,4.187082767486572,4.06559944152832,-37.74534225463867,0
1814.1580000000013,-8.21656794869341e-05,-0.0002460334508214146,-2.7795958885690197e-05,0.0,0.0,0.0,0.0,-0.004005983471870422,-0.0013604307314381003,-0.0011729977559298277,0.9978052973747253,0.0,0.0,0.0,0.20942917466163635,4.176699161529541,4.0532941818237305,-37.907100677490234,0
1824.076000000001,-9.012813825393096e-05,-0.00021196994930505753,-7.397530862363055e-05,0.0,0.0,0.0,0.0,0.0013661195989698172,-0.000923118379432708,0.0006569582619704306,0.9993795156478882,0.0,0.0,0.0,0.20799046754837036,4.177345275878906,4.0470499992370605,-37.646690368652344,0
1833.9800000000014,-5.66080525459256e-05,-0.00021309695148374885,-2.7733964088838547e-05,0.0,0.0,0.0,0.0,-0.002727327635511756,0.0017226481577381492,0.0015297316713258624,0.9994151592254639,0.0,0.0,0.0,0.20774653553962708,4.168340682983398,4.0416412353515625,-37.602535247802734,0
1843.8990000000013,-7.96614694991149e-05,-0.00020234283874742687,-6.396476237569004e-05,0.0,0.0,0.0,0.0,0.00252652820199728,-0.006339689716696739,-0.00045984244206920266,0.9992915987968445,0.0,0.0,0.0,0.21483361721038818,4.17295503616333,4.047473430633545,-38.885311126708984,0
1853.8110000000015,-0.00013132588355802,-0.00020812981529161334,-4.8989950300892815e-05,0.0,0.0,0.0,0.0,0.00034897789009846747,-0.003057981375604868,7.237850513774902e-05,1.000253677368164,0.0,0.0,0.0,0.2148471176624298,4.164405822753906,4.053278923034668,-38.88775634765625,0
1863.7240000000002,-0.00010419700265629217,-0.00014589579950552434,-0.00014146712783258408,0.0,0.0,0.0,0.0,0.0010897687170654535,-0.0057166083715856075,0.005014271941035986,0.9997928738594055,0.0,0.0,0.0,0.21432138979434967,4.161283016204834,4.059005260467529,-38.79259490966797,0
1873.6450000000004,-0.00011746640666387975,-0.00016680493718013167,-0.00012394468649290502,0.0,0.0,0.0,0.0,-0.0002738796756602824,-0.0009777547093108296,-0.0004076676268596202,1.0008965730667114,0.0,0.0,0.0,0.21414817869663239,4.156156063079834,4.072301864624023,-38.76124572753906,0
1883.5530000000017,-0.00016080807836260647,-0.00015791686018928885,-0.0001466415706090629,0.0,0.0,0.0,0.0,-0.0020204067695885897,-0.0019154847832396626,-9.32173861656338e-05,0.9971370697021484,0.0,0.0,0.0,0.21355505287647247,4.153841972351074,4.069160461425781,-38.65388870239258,0
1893.4610000000011,-0.0002345377579331398,-0.0002005494898185134,-0.0001508320274297148,0.0,0.0,0.0,0.0,0.0020262745674699545,0.0018556002760306,-0.0035437513142824173,0.9991206526756287,0.0,0.0,0.0,0.21277640759944916,4.150650501251221,4.066361427307129,-38.51295471191406,0
1903.3740000000016,-0.00022673109197057784,-0.00010885635856539011,-0.0002306897658854723,0.0,0.0,0.0,0.0,0.0010361050954088569,-0.002674638759344816,-0.00027960448642261326,0.9981051683425903,0.0,0.0,0.0,0.21189172565937042,4.141672611236572,4.056469917297363,-38.352821350097656,0
1913.2880000000005,-0.00010686719906516373,-0.00017254908743780106,-0.00016059461631812155,0.0,0.0,0.0,0.0,0.0015754059422761202,-0.0014991166535764933,0.0010388438822701573,0.9990217089653015,0.0,0.0,0.0,0.20472745597362518,4.13713264465332,4.096352577209473,-37.05607223510742,0
1923.2030000000013,-0.00015240596258081496,-0.00016301214054692537,-0.00017396676412317902,0.0,0.0,0.0,0.0,-0.002630861708894372,0.004016243387013674,-0.0029455162584781647,1.001084566116333,0.0,0.0,0.0,0.20537929236888885,4.124719619750977,4.096667766571045,-37.17406463623047,0
1933.1100000000006,-0.00010769568325486034,-0.00017969883629120886,-0.00013512269651982933,0.0,0.0,0.0,0.0,0.002244749339297414,0.0014395604375749826,-0.0030629264656454325,1.001348614692688,0.0,0.0,0.0,0.21134783327579498,4.127239227294922,4.106022357940674,-38.25437927246094,0
1943.0340000000015,-0.00014635510160587728,-0.00016279313422273844,-0.00015571013500448316,0.0,0.0,0.0,0.0,0.0008248569210991263,0.002078958787024021,0.0006342174601741135,1.0004867315292358,0.0,0.0,0.0,0.21020831167697906,4.122929096221924,4.100459575653076,-38.04812240600586,0
1952.938,-0.00021687100525014102,-0.00020934105850756168,-0.00015903687744867057,0.0,0.0,0.0,0.0,0.00029929837910458446,-0.00027731398586183786,0.0035296324640512466,1.0014903545379639,0.0,0.0,0.0,0.21016083657741547,4.112099647521973,4.088865756988525,-38.039527893066406,0
1962.8560000000016,-0.00025036383885890245,-0.00017769320402294397,-0.00019029575923923403,0.0,0.0,0.0,0.0,-0.00021828527678735554,0.0021502776071429253,-0.0007299182470887899,1.0005757808685303,0.0,0.0,0.0,0.2182595133781433,4.121407508850098,4.0910468101501465,-39.50540542602539,0
1972.7720000000008,-0.00017047941219061613,-0.00022151682060211897,-0.0001185413493658416,0.0,0.0,0.0,0.0,-0.0014341274509206414,-0.003424395341426134,-0.0036334397736936808,1.0032873153686523,0.0,0.0,0.0,0.2122258096933365,4.120893478393555,4.115769863128662,-38.413291931152344,0
1982.6860000000015,-0.00019462670024950057,-0.00020943264826200902,-0.00014878671208862215,0.0,0.0,0.0,0.0,0.003278790507465601,-0.0020160526037216187,0.0018769174348562956,1.0011075735092163,0.0,0.0,0.0,0.22175858914852142,4.131002902984619,4.122979164123535,-40.13874435424805,0
1992.5900000000001,-0.00013620531535707414,-0.00019512473954819143,-7.79859401518479e-05,0.0,0.0,0.0,0.0,-0.0006262089009396732,-0.0013031130656599998,-0.001433279481716454,0.9987056255340576,0.0,0.0,0.0,0.2222890555858612,4.127616882324219,4.124790191650391,-40.23476028442383,0
2002.5110000000004,-0.00015105155762284994,-0.0001830138935474679,-0.00011446879216236994,0.0,0.0,0.0,0.0,-0.0036074984818696976,4.3224848923273385e-05,-0.0012967344373464584,1.0009032487869263,0.0,0.0,0.0,0.22955946624279022,4.140925884246826,4.127985954284668,-41.550716400146484,0
2012.4170000000013,-0.0001236856624018401,-0.00019300763960927725,-7.024392834864557e-05,0.0,0.0,0.0,0.0,-0.003607821185141802,-0.005467127542942762,-0.005190045572817326,1.0000075101852417,0.0,0.0,0.0,0.22974500060081482,4.138604640960693,4.123782157897949,-41.58430099487305,0
2022.3520000000008,-9.424891322851181e-05,-0.0001349041995126754,-0.00014965026639401913,0.0,0.0,0.0,0.0,-0.0014693773118779063,-0.0022689856123179197,8.910697215469554e-05,1.0001243352890015,0.0,0.0,0.0,0.22896569967269897,4.146036624908447,4.127687931060791,-41.44324493408203,0
2032.241,-0.0001535812916699797,-0.0001774950505932793,-0.0001468951813876629,0.0,0.0,0.0,0.0,-0.0048907604068517685,0.0013401098549365997,0.009382601827383041,0.9992932677268982,0.0,0.0,0.0,0.2299606055021286,4.148317813873291,4.128740310668945,-41.623329162597656,0
2042.1630000000005,-0.000155034547788091,-0.00014281526091508567,-0.00020716355356853455,0.0,0.0,0.0,0.0,0.0013170778984203935,-0.0018534043338149786,-0.00512583926320076,0.9995124340057373,0.0,0.0,0.0,0.22984324395656586,4.14428186416626,4.126548767089844,-41.60208511352539,0
2052.068000000001,-7.948686106828973e-05,-0.0001740193838486448,-0.00013783566828351468,0.0,0.0,0.0,0.0,0.007161159534007311,0.00019482251082081348,-0.001847065519541502,1.0024240016937256,0.0,0.0,0.0,0.22111642360687256,4.148721218109131,4.153660774230957,-40.02251052856445,0
2061.9890000000014,-6.823262083344162e-05,-0.00013931978901382536,-0.0001961409579962492,0.0,0.0,0.0,0.0,-0.0034409246873110533,0.005211568437516689,0.00045717001194134355,1.0046435594558716,0.0,0.0,0.0,0.22214584052562714,4.133985996246338,4.141180515289307,-40.20883560180664,0
2071.9040000000005,-5.9961363149341196e-05,-0.0001708303316263482,-0.0001651031052460894,0.0,0.0,0.0,0.0,0.004881478380411863,-0.0050000944174826145,0.0030648494139313698,0.998227596282959,0.0,0.0,0.0,0.2135441154241562,4.141608715057373,4.135937213897705,-38.65190887451172,0
2081.818000000001,-0.00011016595817636698,-0.00019586221606004983,-0.00015630274720024318,0.0,0.0,0.0,0.0,-0.0036224881187081337,0.004452585242688656,0.0019297333201393485,0.9977366328239441,0.0,0.0,0.0,0.21310020983219147,4.129980564117432,4.128415584564209,-38.571563720703125,0
2091.7260000000006,-4.226246164762415e-05,-0.00022433183039538562,-9.937563299899921e-05,0.0,0.0,0.0,0.0,0.00033886940218508244,-0.008002481423318386,0.0012356751831248403,0.9996324777603149,0.0,0.0,0.0,0.20387309789657593,4.133303165435791,4.129476070404053,-36.90143966674805,0
2101.6490000000013,-5.653552580042742e-05,-0.00019223085837438703,-0.00011597206321312115,0.0,0.0,0.0,0.0,0.003116350620985031,0.001393271959386766,-0.004425744991749525,0.9986052513122559,0.0,0.0,0.0,0.2044745236635208,4.131514072418213,4.1397199630737305,-37.01029586791992,0
2111.5480000000007,-2.694886461540591e-05,-0.00020848948042839766,-7.403405470540747e-05,0.0,0.0,0.0,0.0,-0.0005888540181331336,0.003073791041970253,0.0007822262123227119,0.9986783862113953,0.0,0.0,0.0,0.203626811504364,4.123592853546143,4.12998104095459,-36.85685729980469,0
