timestamp,stateEstimate.x,stateEstimate.y,stateEstimate.z,controller.cmd_thrust,controller.cmd_roll,controller.cmd_pitch,controller.cmd_yaw,controller.r_roll,controller.r_pitch,controller.r_yaw,controller.accelz,controller.actuatorThrust,controller.roll,controller.pitch,controller.yaw,controller.rollRate,controller.pitchRate,controller.yawRate,controller.ctr_yaw
0.0,0.010516474023461342,-0.019241422414779663,-0.00018213846487924457,0.0,0.0,0.0,0.0,-0.00015035629621706903,-0.00014054783969186246,0.0004521284718066454,0.9964393973350525,0.0,0.0,0.0,1.5853722095489502,2.1190619468688965,5.954962253570557,-286.9555358886719,0
9.90899999999965,0.010516474023461342,-0.019241422414779663,-0.00018213846487924457,0.0,0.0,0.0,0.0,0.004714778624475002,-0.0006112352712079883,-0.000523518247064203,0.9975764751434326,0.0,0.0,0.0,1.5853722095489502,2.1190619468688965,5.954962253570557,-286.9555358886719,0
19.820999999999913,0.010631144978106022,-0.01917135715484619,-4.357237776275724e-05,0.0,0.0,0.0,0.0,-0.00039993468089960515,0.00034572926233522594,0.005441906861960888,0.9997637271881104,0.0,0.0,0.0,1.5801031589508057,2.1423590183258057,5.9931111335754395,-286.0018310546875,0
29.72899999999936,0.01062312163412571,-0.01915443129837513,-0.0001213096475112252,0.0,0.0,0.0,0.0,-0.0009434386738575995,-0.00376088242046535,0.0005821419763378799,0.998092770576477,0.0,0.0,0.0,1.5787843465805054,2.1341068744659424,5.990757942199707,-285.76312255859375,0
39.64300000000003,0.010680649429559708,-0.019104106351733208,-6.17224068264477e-05,0.0,0.0,0.0,0.0,-0.0029881803784519434,0.0014544507721439004,0.0016886950470507145,0.9986377954483032,0.0,0.0,0.0,1.5779656171798706,2.126951217651367,5.979818344116211,-285.61492919921875,0
49.56600000000071,0.010641486383974552,-0.019126655533909798,-0.00010040953202405944,0.0,0.0,0.0,0.0,0.0005779349012300372,-0.002699820790439844,-0.0026377281174063683,1.0004074573516846,0.0,0.0,0.0,1.5768784284591675,2.1230051517486572,5.984683036804199,-285.4181213378906,0
59.46800000000076,0.010767764411866665,-0.019118202850222588,-3.9904392906464636e-05,0.0,0.0,0.0,0.0,0.001493919058702886,0.0014071556506678462,-0.0004946193657815456,1.0010677576065063,0.0,0.0,0.0,1.5748342275619507,2.1275172233581543,5.978439807891846,-285.0481262207031,0
69.37900000000081,0.010708136484026909,-0.01914491131901741,-4.336283018346876e-05,0.0,0.0,0.0,0.0,-0.0017573281656950712,0.0027866733726114035,-0.0007059621857479215,1.0016459226608276,0.0,0.0,0.0,1.5741006135940552,2.1207122802734375,5.971628665924072,-284.91534423828125,0
79.29199999999946,0.010728265158832073,-0.019151492044329643,-2.729184961935971e-05,0.0,0.0,0.0,0.0,-0.00063385657267645,0.001165299559943378,0.0032220303546637297,1.0004017353057861,0.0,0.0,0.0,1.5708016157150269,2.1192946434020996,5.957572937011719,-284.3182067871094,0
89.20900000000074,0.01074229460209608,-0.019130107015371323,-0.00013372143439482898,0.0,0.0,0.0,0.0,0.0012599984183907509,-0.00038116617361083627,0.0021638742182403803,0.9998824596405029,0.0,0.0,0.0,1.5681675672531128,2.120046377182007,5.9443840980529785,-283.8414306640625,0
99.1190000000006,0.010680322535336018,-0.019160212948918343,-0.00014050900063011795,0.0,0.0,0.0,0.0,-6.874428072478622e-05,-0.003150730160996318,-0.0008713116403669119,1.0012868642807007,0.0,0.0,0.0,1.567813754081726,2.1146273612976074,5.935741424560547,-283.7774353027344,0
109.02900000000045,0.010644761845469475,-0.0191551111638546,-0.0001787822402548045,0.0,0.0,0.0,0.0,0.002950682770460844,0.0035157371312379837,-0.0002428466104902327,0.9996118545532227,0.0,0.0,0.0,1.5664373636245728,2.1102681159973145,5.935887336730957,-283.5282897949219,0
118.9429999999993,0.010731281712651253,-0.01913917437195778,-0.00010497828043298796,0.0,0.0,0.0,0.0,-8.756274473853409e-05,-0.004092658869922161,-0.0017350097186863422,1.0001170635223389,0.0,0.0,0.0,1.5645251274108887,2.1044411659240723,5.930878639221191,-283.1821594238281,0
128.8610000000008,0.010739646852016449,-0.01911022514104843,-0.00017911304894369096,0.0,0.0,0.0,0.0,0.0008312498684972525,-0.0006835124222561717,-0.0012266819830983877,0.9975776672363281,0.0,0.0,0.0,1.5740976333618164,2.1140871047973633,5.9415082931518555,-284.914794921875,0
138.77199999999903,0.010761672630906105,-0.01910415291786194,-0.00015108197112567723,0.0,0.0,0.0,0.0,0.0018032258376479149,0.006636300589889288,-2.3386442080663983e-06,0.9989001154899597,0.0,0.0,0.0,1.5726667642593384,2.1067636013031006,5.948626518249512,-284.65582275390625,0
148.6880000000001,0.010786939412355423,-0.019055545330047607,-0.00024887837935239077,0.0,0.0,0.0,0.0,-0.0004208469472359866,0.0018637158209457994,-0.0010392742697149515,1.0006767511367798,0.0,0.0,0.0,1.570422649383545,2.1054019927978516,5.934006690979004,-284.2496337890625,0
158.60399999999936,0.010784115642309189,-0.019024282693862915,-0.00022699267719872296,0.0,0.0,0.0,0.0,0.003920091316103935,0.004237835295498371,-0.0016324201133102179,0.9999504685401917,0.0,0.0,0.0,1.5685960054397583,2.101318597793579,5.924204349517822,-283.91900634765625,0
168.512999999999,0.01077246479690075,-0.019013818353414536,-0.00029642682056874037,0.0,0.0,0.0,0.0,0.0016025824006646872,-0.0019306907197460532,-0.002625581808388233,0.9999440312385559,0.0,0.0,0.0,1.5671523809432983,2.0986735820770264,5.912789821624756,-283.65771484375,0
178.41699999999946,0.010817553848028183,-0.019015541300177574,-0.00027059821877628565,0.0,0.0,0.0,0.0,-0.0033655273728072643,0.005760927684605122,-0.002028512768447399,0.9986473917961121,0.0,0.0,0.0,1.5648837089538574,2.09248423576355,5.903195858001709,-283.2471008300781,0
188.33899999999994,0.010798114351928234,-0.018984101712703705,-0.00032044449471868575,0.0,0.0,0.0,0.0,0.0016362587921321392,0.0005416189087554812,-0.0045007881708443165,0.9990792274475098,0.0,0.0,0.0,1.5627208948135376,2.091600179672241,5.887238025665283,-282.8555603027344,0
198.25400000000081,0.010837522335350513,-0.01900377869606018,-0.0003052165557164699,0.0,0.0,0.0,0.0,-0.0009009760688059032,-0.002977098571136594,-0.003233609488233924,0.9991226196289062,0.0,0.0,0.0,1.5614328384399414,2.083481788635254,5.882114887237549,-282.6224365234375,0
208.16799999999967,0.010761399753391743,-0.019031470641493797,-0.00030553853139281273,0.0,0.0,0.0,0.0,2.9075174097670242e-05,-0.0011725721415132284,0.00040565046947449446,0.9981627464294434,0.0,0.0,0.0,1.5591808557510376,2.077332019805908,5.871129035949707,-282.2148132324219,0
218.07200000000012,0.010851784609258175,-0.019012711942195892,-0.00025344628375023603,0.0,0.0,0.0,0.0,-0.00017741916235536337,0.001906949793919921,-0.0014937985688447952,1.0018621683120728,0.0,0.0,0.0,1.5577164888381958,2.077629804611206,5.8673319816589355,-281.9497985839844,0
227.99099999999999,0.010785965248942375,-0.019033556804060936,-0.0002623030450195074,0.0,0.0,0.0,0.0,0.003637958550825715,0.002377048134803772,-0.002597987651824951,1.0020196437835693,0.0,0.0,0.0,1.555481195449829,2.074767589569092,5.8681721687316895,-281.5451965332031,0
237.89300000000003,0.010714715346693993,-0.01906660944223404,-0.0002712870482355356,0.0,0.0,0.0,0.0,-0.000507822900544852,0.003194435266777873,-0.00032561225816607475,0.999751627445221,0.0,0.0,0.0,1.5546678304672241,2.074218511581421,5.852309703826904,-281.39794921875,0
247.8160000000007,0.010636535473167896,-0.019067546352744102,-0.00025939702754840255,0.0,0.0,0.0,0.0,0.00016965730173978955,0.0020747901871800423,0.0008540058042854071,0.9978219270706177,0.0,0.0,0.0,1.5538225173950195,2.070068597793579,5.8460307121276855,-281.2449645996094,0
257.72500000000036,0.010751394554972649,-0.019107092171907425,-0.00018687680130824447,0.0,0.0,0.0,0.0,0.0012038726126775146,-0.00030065164901316166,0.00017830556316766888,0.9997691512107849,0.0,0.0,0.0,1.5518823862075806,2.0586330890655518,5.827007293701172,-280.893798828125,0
267.64300000000003,0.010679512284696102,-0.019147049635648727,-0.00018755020573735237,0.0,0.0,0.0,0.0,0.0016088982811197639,-0.0004892637371085584,-0.0007087098201736808,1.0000500679016113,0.0,0.0,0.0,1.5515942573547363,2.0536768436431885,5.813791751861572,-280.8416748046875,0
277.5480000000007,0.010628560557961464,-0.01911873370409012,-0.00013292017683852464,0.0,0.0,0.0,0.0,0.0026423155795782804,-0.0030980755109339952,-0.0020615786779671907,1.0020711421966553,0.0,0.0,0.0,1.547440767288208,2.0522241592407227,5.811567306518555,-280.08984375,0
287.46399999999994,0.010643952526152134,-0.019108809530735016,-0.00015579718456137925,0.0,0.0,0.0,0.0,0.0017588353948667645,0.0038777419831603765,0.001347328769043088,1.0008794069290161,0.0,0.0,0.0,1.547440767288208,2.0522241592407227,5.811567306518555,-280.08984375,0
297.3709999999992,0.010648177936673164,-0.01916237361729145,-9.309048618888482e-05,0.0,0.0,0.0,0.0,-0.0006172009743750095,-0.00202502915635705,0.0005714182043448091,1.0001816749572754,0.0,0.0,0.0,1.544583797454834,2.043631076812744,5.801270008087158,-279.57275390625,0
307.29299999999967,0.010678471066057682,-0.019136371091008186,-0.00012681940279435366,0.0,0.0,0.0,0.0,0.001027684542350471,0.0010899842018261552,-0.0019740459974855185,1.0003573894500732,0.0,0.0,0.0,1.544583797454834,2.043631076812744,5.801270008087158,-279.57275390625,0
317.1949999999997,0.01052585244178772,-0.019217094406485558,-0.00011340876517351717,0.0,0.0,0.0,0.0,0.001659511006437242,0.0017983481520786881,0.001963747665286064,0.9984714984893799,0.0,0.0,0.0,1.54058837890625,2.039391279220581,5.788059234619141,-278.84954833984375,0
327.1149999999998,0.01052585244178772,-0.019217094406485558,-0.00011340876517351717,0.0,0.0,0.0,0.0,-0.0024955119006335735,-0.0017727642552927136,-0.003133390797302127,0.9993307590484619,0.0,0.0,0.0,1.54058837890625,2.039391279220581,5.788059234619141,-278.84954833984375,0
337.02000000000044,0.010436776094138622,-0.01926591247320175,-0.00010662809654604644,0.0,0.0,0.0,0.0,0.0012338170781731606,-0.0036825789138674736,-0.0013772640377283096,0.9991163611412048,0.0,0.0,0.0,1.5393593311309814,2.038396120071411,5.780711650848389,-278.6271057128906,0
346.9459999999999,0.010479790158569813,-0.019144369289278984,-0.00024271987786050886,0.0,0.0,0.0,0.0,0.00095580198103562,0.0009401238057762384,0.002646889304742217,0.9990020990371704,0.0,0.0,0.0,1.536910057067871,2.099339485168457,5.824717998504639,-278.1838073730469,0
356.85499999999956,0.010403400287032127,-0.019182642921805382,-0.0002485185978002846,0.0,0.0,0.0,0.0,0.00014504280989058316,-0.0006465267506428063,0.0014852816238999367,1.0012298822402954,0.0,0.0,0.0,1.5359883308410645,2.100520610809326,5.827159881591797,-278.0169677734375,0
366.77299999999923,0.010413882322609425,-0.01911439374089241,-0.0003590871347114444,0.0,0.0,0.0,0.0,0.0018909055506810546,-0.002954870229586959,0.0007637781673111022,1.000962257385254,0.0,0.0,0.0,1.5439144372940063,2.1409778594970703,5.85617733001709,-279.4515686035156,0
376.67399999999907,0.01070369128137827,-0.019144000485539436,-0.00014654436381533742,0.0,0.0,0.0,0.0,-0.000547972449567169,0.0035165660083293915,-0.0018606047378852963,0.9999393224716187,0.0,0.0,0.0,1.5369014739990234,2.136564254760742,5.947092056274414,-278.1822204589844,0
386.59699999999975,0.010714198462665081,-0.01909380592405796,-0.00020048700389452279,0.0,0.0,0.0,0.0,0.00019432352564763278,9.99721305561252e-05,-0.0049353111535310745,1.0004383325576782,0.0,0.0,0.0,1.5365568399429321,2.128570556640625,5.942973613739014,-278.1198425292969,0
396.5,0.010843495838344097,-0.019127637147903442,-0.0001447913673473522,0.0,0.0,0.0,0.0,-0.0015611059498041868,-0.0026907685678452253,-0.0010315347462892532,1.0020068883895874,0.0,0.0,0.0,1.5337496995925903,2.1287734508514404,5.937618255615234,-277.61175537109375,0
406.41899999999987,0.010843327268958092,-0.019097570329904556,-0.0001834089489420876,0.0,0.0,0.0,0.0,0.0021892560180276632,-0.0020407377742230892,0.003444367554038763,1.002534031867981,0.0,0.0,0.0,1.5466856956481934,2.1404924392700195,5.947084903717041,-279.95318603515625,0
416.3279999999995,0.010799563489854336,-0.019076049327850342,-0.00016676167433615774,0.0,0.0,0.0,0.0,8.784960664343089e-05,-0.004048813600093126,0.0025215381756424904,1.0043789148330688,0.0,0.0,0.0,1.5440030097961426,2.1439058780670166,5.94160270690918,-279.46759033203125,0
426.2520000000004,0.010818463750183582,-0.019047193229198456,-0.00023542431881651282,0.0,0.0,0.0,0.0,-0.00256528053432703,-0.0010704603046178818,-0.0019548602867871523,1.0011351108551025,0.0,0.0,0.0,1.5435532331466675,2.1380457878112793,5.942508697509766,-279.3861999511719,0
436.15599999999904,0.010821524076163769,-0.019046390429139137,-0.00020886915444862098,0.0,0.0,0.0,0.0,-0.0010898448526859283,-0.0008113188087008893,-0.00017907118308357894,0.999976634979248,0.0,0.0,0.0,1.5426104068756104,2.1336493492126465,5.940089702606201,-279.215576171875,0
446.0669999999991,0.010792931541800499,-0.019050661474466324,-0.00022775930119678378,0.0,0.0,0.0,0.0,-0.002164504025131464,0.001269266358576715,-0.0007741014123894274,1.0005887746810913,0.0,0.0,0.0,1.554278016090393,2.1372311115264893,5.928704738616943,-281.327392578125,0
455.97700000000077,0.010859216563403606,-0.019057966768741608,-0.00018361832189839333,0.0,0.0,0.0,0.0,-0.0010031112469732761,-0.00033456916571594775,-0.0001369231758872047,0.9984024167060852,0.0,0.0,0.0,1.553368330001831,2.136415481567383,5.928064823150635,-281.16278076171875,0
465.90599999999904,0.010816632770001888,-0.019103610888123512,-0.0002003576373681426,0.0,0.0,0.0,0.0,-0.0001606104924576357,0.002060430822893977,-0.002348510315641761,0.9993215203285217,0.0,0.0,0.0,1.5605944395065308,2.1356043815612793,5.9322381019592285,-282.4706726074219,0
475.7980000000007,0.010832933709025383,-0.019062712788581848,-0.0001491476723458618,0.0,0.0,0.0,0.0,0.005654782522469759,-0.002248921664431691,-0.002081930637359619,0.9998720288276672,0.0,0.0,0.0,1.5589146614074707,2.1383843421936035,5.915183067321777,-282.1666259765625,0
485.71800000000076,0.010791772045195103,-0.019095873460173607,-0.00017118248797487468,0.0,0.0,0.0,0.0,0.0015839950647205114,-0.0019002555636689067,-0.0022017639130353928,0.9990365505218506,0.0,0.0,0.0,1.5576692819595337,2.136854648590088,5.910996437072754,-281.94122314453125,0
495.6239999999998,0.010787541046738625,-0.019081616774201393,-0.00013558578211814165,0.0,0.0,0.0,0.0,-2.8586022381205112e-05,0.000566557515412569,-0.003964571747928858,0.9987741112709045,0.0,0.0,0.0,1.5553057193756104,2.1262786388397217,5.909383296966553,-281.5134582519531,0
505.5540000000001,0.010768734849989414,-0.019056813791394234,-0.00017308705719187856,0.0,0.0,0.0,0.0,0.0007002897909842432,0.006579059641808271,-0.0005485941655933857,1.0001695156097412,0.0,0.0,0.0,1.552246332168579,2.132459878921509,5.914486885070801,-280.9596862792969,0
515.4549999999999,0.01080369669944048,-0.019049866124987602,-0.00013092839799355716,0.0,0.0,0.0,0.0,0.003950447775423527,0.0025102703366428614,-0.0002449460735078901,0.9993895888328552,0.0,0.0,0.0,1.5501418113708496,2.129218578338623,5.904129981994629,-280.5787658691406,0
525.3619999999992,0.010736347176134586,-0.019071515649557114,-0.00012406606401782483,0.0,0.0,0.0,0.0,-0.0011060726828873158,-0.0033854148350656033,-0.0011980085400864482,1.000041127204895,0.0,0.0,0.0,1.547619342803955,2.1207668781280518,5.881877422332764,-280.1221618652344,0
535.2739999999994,0.010740166530013084,-0.019045960158109665,-9.281245002057403e-05,0.0,0.0,0.0,0.0,0.00022284216538537294,0.009247277863323689,-0.0019912540446966887,1.000410795211792,0.0,0.0,0.0,1.5459264516830444,2.117833137512207,5.875818252563477,-279.8157653808594,0
545.1919999999991,0.010694107040762901,-0.019052617251873016,-0.00011450054444139823,0.0,0.0,0.0,0.0,0.0008076396188698709,-0.0016169714508578181,0.0004888175753876567,0.9999771118164062,0.0,0.0,0.0,1.556803822517395,2.1213390827178955,5.872668743133545,-281.7845764160156,0
555.1010000000006,0.010746954008936882,-0.019083643332123756,-7.901589560788125e-05,0.0,0.0,0.0,0.0,-0.002499997615814209,-0.0027390182949602604,0.0016957513289526105,1.001803994178772,0.0,0.0,0.0,1.554526925086975,2.1191892623901367,5.864428997039795,-281.3724670410156,0
565.012999999999,0.010705122724175453,-0.01909553073346615,-0.0001034740635077469,0.0,0.0,0.0,0.0,0.0018928786739706993,0.0007664267322979867,-0.0018568180967122316,1.0026875734329224,0.0,0.0,0.0,1.5634537935256958,2.1165993213653564,5.8508758544921875,-282.9882507324219,0
574.9310000000005,0.010764339938759804,-0.019137917086482048,-6.386842142092064e-05,0.0,0.0,0.0,0.0,-0.0004568225413095206,0.0013600641395896673,0.003648063400760293,1.0007225275039673,0.0,0.0,0.0,1.5569382905960083,2.1108365058898926,5.86025857925415,-281.8089294433594,0
584.8420000000006,0.010690959170460701,-0.019166529178619385,-5.0088165153283626e-05,0.0,0.0,0.0,0.0,-0.002323815133422613,-0.002610065508633852,0.001911036903038621,1.0012558698654175,0.0,0.0,0.0,1.5562469959259033,2.105214834213257,5.847330093383789,-281.6838073730469,0
594.7489999999998,0.010710509493947029,-0.01915018819272518,-7.440956323989667e-06,0.0,0.0,0.0,0.0,0.003385159419849515,-0.0013538934290409088,-0.0024829998146742582,1.0015078783035278,0.0,0.0,0.0,1.5558216571807861,2.099672794342041,5.8389081954956055,-281.6068115234375,0
604.6630000000005,0.010690788738429546,-0.019130107015371323,-5.960720227449201e-05,0.0,0.0,0.0,0.0,0.0008677112055011094,0.0006789513281546533,0.002324360888451338,1.0013439655303955,0.0,0.0,0.0,1.5547099113464355,2.100675106048584,5.838059902191162,-281.40557861328125,0
614.5779999999995,0.010649755597114563,-0.019166598096489906,1.246038664248772e-05,0.0,0.0,0.0,0.0,-0.00011426502896938473,-0.00033791319583542645,-0.0003695738851092756,1.0004122257232666,0.0,0.0,0.0,1.5465679168701172,2.0988540649414062,5.841716289520264,-279.931884765625,0
624.4879999999994,0.010693256743252277,-0.019136279821395874,-3.863022357109003e-05,0.0,0.0,0.0,0.0,0.0003151523997075856,0.00437326030805707,-0.0026549806352704763,0.9993320107460022,0.0,0.0,0.0,1.5465679168701172,2.0988540649414062,5.841716289520264,-279.931884765625,0
634.405999999999,0.010533989407122135,-0.019198888912796974,-4.3198342609684914e-06,0.0,0.0,0.0,0.0,-0.001049559097737074,0.00302023533731699,0.0008449493325315416,1.0007176399230957,0.0,0.0,0.0,1.5434010028839111,2.0895135402679443,5.814558506011963,-279.358642578125,0
644.3140000000003,0.010624568909406662,-0.019087614491581917,-0.00010570446465862915,0.0,0.0,0.0,0.0,-0.0030021315906196833,0.0006340343970805407,0.0022556139156222343,1.0007266998291016,0.0,0.0,0.0,1.5434010028839111,2.0895135402679443,5.814558506011963,-279.358642578125,0
654.2440000000006,0.010628540068864822,-0.019134078174829483,-1.834010618040338e-05,0.0,0.0,0.0,0.0,-0.0009730380843393505,-0.0009890133515000343,-0.005369444377720356,1.0003703832626343,0.0,0.0,0.0,1.5403138399124146,2.0946898460388184,5.791770935058594,-278.79986572265625,0
664.137999999999,0.010609407909214497,-0.019120091572403908,-6.503412441816181e-05,0.0,0.0,0.0,0.0,0.0002958338591270149,0.0038679579738527536,-0.0023881446104496717,0.9987953305244446,0.0,0.0,0.0,1.5472157001495361,2.0960254669189453,5.795376300811768,-280.0491027832031,0
674.0599999999995,0.010658646933734417,-0.01914215460419655,-1.564363992656581e-05,0.0,0.0,0.0,0.0,-0.0027041807770729065,0.003669008379802108,0.00017799233319237828,1.0004327297210693,0.0,0.0,0.0,1.5459749698638916,2.0966577529907227,5.779345989227295,-279.82452392578125,0
683.9660000000003,0.010583944618701935,-0.01917274482548237,-2.415250492049381e-06,0.0,0.0,0.0,0.0,0.0019150159787386656,0.00048759099445305765,0.0024001062847673893,0.9986359477043152,0.0,0.0,0.0,1.5450931787490845,2.092209815979004,5.775146961212158,-279.6649475097656,0
693.8889999999992,0.010666921734809875,-0.019200313836336136,3.7477970181498677e-05,0.0,0.0,0.0,0.0,-0.00038411407149396837,-0.0026788741815835238,-0.00577225536108017,1.000972032546997,0.0,0.0,0.0,1.5430818796157837,2.0837457180023193,5.773221969604492,-279.3008728027344,0
703.7939999999999,0.010707907378673553,-0.019133375957608223,-9.219904313795269e-05,0.0,0.0,0.0,0.0,0.0026343856006860733,-0.004891684744507074,-0.00014933572674635798,1.0012868642807007,0.0,0.0,0.0,1.552298665046692,2.10623836517334,5.798725128173828,-280.9691467285156,0
713.7129999999997,0.01074148714542389,-0.0191242266446352,-4.05565369874239e-05,0.0,0.0,0.0,0.0,-0.0020637197885662317,-0.0034670799504965544,0.002851444762200117,1.0006424188613892,0.0,0.0,0.0,1.5514130592346191,2.106423854827881,5.800175666809082,-280.808837890625,0
723.6190000000006,0.010717395693063736,-0.019150402396917343,-9.482922177994624e-05,0.0,0.0,0.0,0.0,0.0009479661239311099,-0.0014788141706958413,-0.0005140563589520752,1.002262830734253,0.0,0.0,0.0,1.5499703884124756,2.1012048721313477,5.801143646240234,-280.5477600097656,0
733.5339999999997,0.010646222159266472,-0.01918642781674862,-8.641285967314616e-05,0.0,0.0,0.0,0.0,0.0029525014106184244,-0.0003241540107410401,0.0005564637831412256,1.0007660388946533,0.0,0.0,0.0,1.5480881929397583,2.103910446166992,5.802760124206543,-280.20703125,0
743.4459999999999,0.010635871440172195,-0.01912866346538067,-0.00014038912195246667,0.0,0.0,0.0,0.0,-0.0021153155248612165,-0.0036712686996906996,0.0016831394750624895,1.0011913776397705,0.0,0.0,0.0,1.5463416576385498,2.0945510864257812,5.800770282745361,-279.8908996582031,0
753.3700000000008,0.010564757511019707,-0.01916407234966755,-0.00013381520693656057,0.0,0.0,0.0,0.0,0.00039529064088128507,-0.005235078278928995,-0.001266301842406392,1.001358151435852,0.0,0.0,0.0,1.544919490814209,2.09737491607666,5.807218074798584,-279.6335144042969,0
763.2659999999996,0.010562077164649963,-0.019086457788944244,-0.00020405591931194067,0.0,0.0,0.0,0.0,-0.0024468102492392063,-0.0038008287083357573,-0.0004438121395651251,0.9993549585342407,0.0,0.0,0.0,1.5563126802444458,2.1288697719573975,5.833462238311768,-281.6957092285156,0
773.1880000000001,0.010659514926373959,-0.019085455685853958,-0.00010083565575769171,0.0,0.0,0.0,0.0,0.0026658130809664726,-0.0002857105864677578,1.6471014532726258e-05,0.9995327591896057,0.0,0.0,0.0,1.5549736022949219,2.1269054412841797,5.825356960296631,-281.45330810546875,0
783.0920000000006,0.010608174838125706,-0.01914803683757782,-0.00012791990593541414,0.0,0.0,0.0,0.0,-0.001083686831407249,-0.0004878632025793195,-0.002334193792194128,1.0028873682022095,0.0,0.0,0.0,1.5640323162078857,2.116192102432251,5.825516700744629,-283.09295654296875,0
793.012999999999,0.010729986242949963,-0.01919393613934517,-6.1027392803225666e-05,0.0,0.0,0.0,0.0,0.0008008410222828388,-0.0016197236254811287,0.0008473499328829348,1.0013068914413452,0.0,0.0,0.0,1.5612471103668213,2.109286308288574,5.819609642028809,-282.5888366699219,0
802.9179999999997,0.010666223242878914,-0.019238727167248726,-4.891558637609705e-05,0.0,0.0,0.0,0.0,0.0008950820192694664,0.002775487955659628,0.00314090377651155,0.9999797940254211,0.0,0.0,0.0,1.5678799152374268,2.103397846221924,5.809589385986328,-283.7893981933594,0
812.8349999999991,0.01060035452246666,-0.019283005967736244,-3.4691438486333936e-05,0.0,0.0,0.0,0.0,0.0008377297199331224,-0.0024383878335356712,-0.002142738550901413,1.0002527236938477,0.0,0.0,0.0,1.5666099786758423,2.097069263458252,5.801963806152344,-283.55950927734375,0
822.7420000000002,0.010545097291469574,-0.019273173063993454,-1.8299324437975883e-05,0.0,0.0,0.0,0.0,0.0016372116515412927,0.002713386435061693,-0.000389610679121688,1.0016636848449707,0.0,0.0,0.0,1.556654930114746,2.1047701835632324,5.795561790466309,-281.7576599121094,0
832.6599999999999,0.01060220506042242,-0.01925877295434475,7.87647077231668e-05,0.0,0.0,0.0,0.0,-0.0019252952188253403,-0.0005440869717858732,-0.0019990631844848394,1.0028854608535767,0.0,0.0,0.0,1.55496084690094,2.1026535034179688,5.787552356719971,-281.4510192871094,0
842.5669999999991,0.010614262893795967,-0.019226742908358574,1.707988303678576e-05,0.0,0.0,0.0,0.0,0.004066867753863335,-0.004700366407632828,-1.957187669177074e-05,0.9997439980506897,0.0,0.0,0.0,1.5534486770629883,2.1040496826171875,5.776655673980713,-281.17730712890625,0
852.4799999999996,0.010682482272386551,-0.019245585426688194,8.82815511431545e-05,0.0,0.0,0.0,0.0,-0.0008511611958965659,-0.0009339821990579367,0.000529413518961519,0.9992271065711975,0.0,0.0,0.0,1.5521986484527588,2.091155767440796,5.773111820220947,-280.9510803222656,0
862.3989999999994,0.010683657601475716,-0.01924080401659012,2.6914105546893552e-05,0.0,0.0,0.0,0.0,-0.00024959235452115536,0.0023547171149402857,-0.0003787210152950138,1.0006414651870728,0.0,0.0,0.0,1.5622361898422241,2.0942959785461426,5.7799601554870605,-282.767822265625,0
872.3109999999997,0.01074917521327734,-0.019229980185627937,0.00010580866364762187,0.0,0.0,0.0,0.0,-0.0003628188860602677,0.005215257406234741,-0.0006970093818381429,1.0011508464813232,0.0,0.0,0.0,1.5603994131088257,2.0922458171844482,5.764341831207275,-282.4353942871094,0
882.2170000000006,0.01067937258630991,-0.01927165500819683,0.00012831168714910746,0.0,0.0,0.0,0.0,0.0008073333301581442,0.00036236882442608476,0.0025845044292509556,0.9994383454322815,0.0,0.0,0.0,1.5581403970718384,2.092106819152832,5.751613616943359,-282.0265197753906,0
892.1329999999998,0.010695818811655045,-0.01926657184958458,0.00017943468992598355,0.0,0.0,0.0,0.0,0.0014803954400122166,-0.0049217259511351585,0.004179827868938446,1.000680685043335,0.0,0.0,0.0,1.5572377443313599,2.089752674102783,5.747227191925049,-281.8631286621094,0
902.0419999999995,0.010780827142298222,-0.019161183387041092,1.3291956747707445e-05,0.0,0.0,0.0,0.0,0.003120795823633671,-0.0012553249252960086,-0.0015848038019612432,1.0014046430587769,0.0,0.0,0.0,1.565969467163086,2.1142160892486572,5.7637128829956055,-283.443603515625,0
911.9750000000004,0.010705627501010895,-0.019206853583455086,2.8836835554102436e-05,0.0,0.0,0.0,0.0,0.0007669614278711379,-0.0015470997896045446,0.0019339685095474124,1.0012402534484863,0.0,0.0,0.0,1.5636875629425049,2.110757350921631,5.762457847595215,-283.030517578125,0
921.8680000000004,0.010791546665132046,-0.01913595385849476,-8.157549018505961e-05,0.0,0.0,0.0,0.0,-0.0013441897463053465,-0.00028407888021320105,-4.5613749534823e-05,1.0015672445297241,0.0,0.0,0.0,1.573400616645813,2.1267669200897217,5.7847185134887695,-284.78863525390625,0
931.7939999999999,0.010682347230613232,-0.019160795956850052,-3.802260471275076e-05,0.0,0.0,0.0,0.0,0.000898017839062959,-0.0016921627102419734,0.0005975916283205152,0.9999585151672363,0.0,0.0,0.0,1.5705610513687134,2.1144187450408936,5.779932498931885,-284.2746887207031,0
941.6949999999997,0.010738546028733253,-0.019131280481815338,-0.0001047215992002748,0.0,0.0,0.0,0.0,0.0026987444143742323,-0.002549482276663184,0.001001744531095028,1.000525712966919,0.0,0.0,0.0,1.5705610513687134,2.1144187450408936,5.779932498931885,-284.2746887207031,0
951.6170000000002,0.010705282911658287,-0.019151832908391953,-3.020934309461154e-05,0.0,0.0,0.0,0.0,0.0010533054592087865,0.0032808773685246706,-0.00019339489517733455,0.9993630647659302,0.0,0.0,0.0,1.566849946975708,2.1056816577911377,5.7770304679870605,-283.60296630859375,0
961.5200000000004,0.010753114707767963,-0.01909504272043705,-7.343730248976499e-05,0.0,0.0,0.0,0.0,-0.0008532080100849271,-0.0005380070651881397,0.0005177134298719466,1.0000114440917969,0.0,0.0,0.0,1.5765773057937622,2.1138665676116943,5.78377628326416,-285.3636474609375,0
971.4429999999993,0.010607123374938965,-0.019177909940481186,-5.672716361004859e-05,0.0,0.0,0.0,0.0,0.002042959211394191,-0.0001639906840864569,0.005624543875455856,1.001142144203186,0.0,0.0,0.0,1.5739340782165527,2.108563184738159,5.778445243835449,-284.88519287109375,0
981.3439999999991,0.010675446130335331,-0.019096937030553818,-0.0001324290642514825,0.0,0.0,0.0,0.0,0.001794088981114328,0.0034898598678410053,0.0033911000937223434,1.0004527568817139,0.0,0.0,0.0,1.5739340782165527,2.108563184738159,5.778445243835449,-284.88519287109375,0
991.2639999999992,0.010712365619838238,-0.01908699795603752,-5.5156764574348927e-05,0.0,0.0,0.0,0.0,-0.003594209672883153,-0.0006525080534629524,-8.115397577057593e-06,0.9987970590591431,0.0,0.0,0.0,1.572866439819336,2.1038007736206055,5.777502536773682,-284.69195556640625,0
1001.1720000000005,0.010723874904215336,-0.01905343309044838,-0.00012680370127782226,0.0,0.0,0.0,0.0,-0.0005970065831206739,0.0006709112785756588,0.0010213329223915935,0.998699963092804,0.0,0.0,0.0,1.5713146924972534,2.0947344303131104,5.774455547332764,-284.41107177734375,0
1011.1000000000004,0.010725720785558224,-0.01905260793864727,-9.071313979802653e-05,0.0,0.0,0.0,0.0,0.005620392970740795,0.0023959612008184195,0.0019692587666213512,1.0004701614379883,0.0,0.0,0.0,1.5705244541168213,2.09240460395813,5.767398357391357,-284.26806640625,0
1020.9959999999992,0.010760902427136898,-0.018976837396621704,-0.0001853661087807268,0.0,0.0,0.0,0.0,0.0036915901582688093,-0.0015789343742653728,0.00028915118309669197,1.0012294054031372,0.0,0.0,0.0,1.5691416263580322,2.087681293487549,5.768678665161133,-284.01776123046875,0
1030.9220000000005,0.010836903005838394,-0.019002100452780724,-0.00014138262486085296,0.0,0.0,0.0,0.0,-0.00248409784398973,0.0014537931419909,-0.0009038627031259239,0.9997356534004211,0.0,0.0,0.0,1.5684051513671875,2.0833659172058105,5.755467414855957,-283.88446044921875,0
1040.8240000000005,0.0108030391857028,-0.019022762775421143,-0.0001799892052076757,0.0,0.0,0.0,0.0,0.004915147554129362,-0.003176068654283881,0.0014927689917385578,0.9987366199493408,0.0,0.0,0.0,1.5740033388137817,2.0808205604553223,5.768501281738281,-284.8977355957031,0
1050.7450000000008,0.010786561295390129,-0.019034260883927345,-0.00015946138591971248,0.0,0.0,0.0,0.0,0.001898131798952818,-0.002672274596989155,-0.0008205603808164597,0.999760091304779,0.0,0.0,0.0,1.572927474975586,2.075934886932373,5.761953353881836,-284.7030029296875,0
1060.6460000000006,0.010728302411735058,-0.019058702513575554,-0.0001721828884910792,0.0,0.0,0.0,0.0,-0.0022508488036692142,0.0015563371125608683,0.0019355013500899076,0.9992303252220154,0.0,0.0,0.0,1.5846283435821533,2.071052312850952,5.773387908935547,-286.8208923339844,0
1070.571,0.010830340906977654,-0.01909460872411728,-0.0001213701325468719,0.0,0.0,0.0,0.0,-0.003728283802047372,-0.0025513535365462303,0.002946150954812765,0.9994965195655823,0.0,0.0,0.0,1.5830867290496826,2.0710196495056152,5.772198677062988,-286.5418701171875,0
1080.4709999999995,0.01080772839486599,-0.019078556448221207,-0.00016337318811565638,0.0,0.0,0.0,0.0,-0.00014388284762389958,-0.00648143608123064,0.0027563467156141996,1.0020357370376587,0.0,0.0,0.0,1.5814812183380127,2.0726354122161865,5.770908355712891,-286.25128173828125,0
1090.3989999999994,0.010786431841552258,-0.019084090366959572,-0.00014193265815265477,0.0,0.0,0.0,0.0,0.0011530262418091297,0.003718250896781683,0.0003797391545958817,1.0000317096710205,0.0,0.0,0.0,1.5808426141738892,2.0688531398773193,5.775475978851318,-286.1356506347656,0
1100.2960000000003,0.010768085718154907,-0.01906917244195938,-0.00019232855993323028,0.0,0.0,0.0,0.0,-8.586973126512021e-05,-2.8077343813492917e-05,-0.0031779264099895954,0.9988484382629395,0.0,0.0,0.0,1.5797336101531982,2.0638608932495117,5.7775774002075195,-285.9349365234375,0
1110.2209999999995,0.010757112875580788,-0.019046727567911148,-0.00015512717072851956,0.0,0.0,0.0,0.0,0.0016117204213514924,-0.002615252509713173,0.0026943900156766176,1.0011422634124756,0.0,0.0,0.0,1.5774455070495605,2.058379888534546,5.75744104385376,-285.520751953125,0
1120.1239999999998,0.010698751546442509,-0.019076623022556305,-0.00017212503007613122,0.0,0.0,0.0,0.0,0.0009276859927922487,-0.0006004981696605682,0.0032790633849799633,1.0007840394973755,0.0,0.0,0.0,1.5851287841796875,2.051711082458496,5.753398418426514,-286.9114685058594,0
1130.0429999999997,0.010621685534715652,-0.01912054605782032,-0.0001717285776976496,0.0,0.0,0.0,0.0,-0.0005854804185219109,0.0022310076747089624,0.0007328141364268959,1.0009723901748657,0.0,0.0,0.0,1.5838969945907593,2.05090594291687,5.7494378089904785,-286.68853759765625,0
1139.9470000000001,0.010541911236941814,-0.019166698679327965,-0.0001704090682324022,0.0,0.0,0.0,0.0,0.0003679858346004039,0.004860918968915939,-0.00031322758877649903,0.9997687339782715,0.0,0.0,0.0,1.5818272829055786,2.0512356758117676,5.7615885734558105,-286.3138732910156,0
1149.8729999999996,0.010459991171956062,-0.01921539194881916,-0.00016828012303449214,0.0,0.0,0.0,0.0,-0.00011293086572550237,0.0029154550284147263,0.0034214991610497236,1.0008255243301392,0.0,0.0,0.0,1.5798152685165405,2.046560049057007,5.738059043884277,-285.94970703125,0
1159.7729999999992,0.010375629179179668,-0.019266588613390923,-0.00016589227016083896,0.0,0.0,0.0,0.0,-0.0008709219982847571,-0.007092261221259832,-0.0027752630412578583,1.0025608539581299,0.0,0.0,0.0,1.578020453453064,2.0404157638549805,5.723201751708984,-285.62481689453125,0
1169.6980000000003,0.010619652457535267,-0.01923074945807457,1.877409522421658e-05,0.0,0.0,0.0,0.0,0.00021232750441413373,-0.0010707398178055882,0.00047440960770472884,1.0013235807418823,0.0,0.0,0.0,1.5692754983901978,2.0678324699401855,5.819958209991455,-284.0419921875,0
1179.5990000000002,0.010686101391911507,-0.019124705344438553,-0.00014634180115535855,0.0,0.0,0.0,0.0,-1.8663457012735307e-05,0.0032182415015995502,0.0009093678090721369,0.9991169571876526,0.0,0.0,0.0,1.569764494895935,2.115854263305664,5.856090068817139,-284.1304931640625,0
1189.5249999999996,0.010728279128670692,-0.019133172929286957,-9.606072126189247e-05,0.0,0.0,0.0,0.0,0.0008427964057773352,-0.004904429893940687,0.003730169264599681,0.9985342025756836,0.0,0.0,0.0,1.5686800479888916,2.1127896308898926,5.849011421203613,-283.9342041015625,0
1199.4249999999993,0.010665438137948513,-0.019170047715306282,-8.629877265775576e-05,0.0,0.0,0.0,0.0,0.004650875926017761,-0.0004720716970041394,0.0009055369300767779,1.0013937950134277,0.0,0.0,0.0,1.567033290863037,2.109376907348633,5.834200382232666,-283.6361389160156,0
1209.3439999999991,0.010751238092780113,-0.01913856528699398,-2.977843178086914e-05,0.0,0.0,0.0,0.0,0.00039239530451595783,0.004162639379501343,-0.0032080451492220163,1.0014325380325317,0.0,0.0,0.0,1.5646895170211792,2.1048061847686768,5.83297061920166,-283.2119140625,0
1219.2569999999996,0.01072841975837946,-0.019167503342032433,-8.133433584589511e-05,0.0,0.0,0.0,0.0,-0.0012008625781163573,0.0005578724085353315,0.003068177495151758,1.0000965595245361,0.0,0.0,0.0,1.5726863145828247,2.0928120613098145,5.823971748352051,-284.65936279296875,0
1229.1710000000003,0.010718649253249168,-0.01914975605905056,-3.940418173442595e-05,0.0,0.0,0.0,0.0,0.0014105383306741714,-0.0038106772117316723,-0.005010928027331829,1.0018632411956787,0.0,0.0,0.0,1.570736289024353,2.0887529850006104,5.8114914894104,-284.306396484375,0
1239.075999999999,0.010747486725449562,-0.019090473651885986,-0.00012650257849600166,0.0,0.0,0.0,0.0,0.0008121425053104758,0.0036415313370525837,-0.0004776366986334324,1.0022248029708862,0.0,0.0,0.0,1.5684326887130737,2.089865207672119,5.807047367095947,-283.8894348144531,0
1248.9950000000008,0.010667013004422188,-0.01910204440355301,-7.253888907143846e-05,0.0,0.0,0.0,0.0,-0.0015622329665347934,-0.001525644212961197,-0.00019758135022129864,1.00054132938385,0.0,0.0,0.0,1.5657634735107422,2.0900464057922363,5.790614604949951,-283.4063415527344,0
1258.902,0.010723340325057507,-0.019085239619016647,-0.00014497226220555604,0.0,0.0,0.0,0.0,0.002847569528967142,0.004396830685436726,-0.003528002882376313,0.9992178678512573,0.0,0.0,0.0,1.5657634735107422,2.0900464057922363,5.790614604949951,-283.4063415527344,0
1268.8289999999997,0.010728925466537476,-0.019120018929243088,-6.975029828026891e-05,0.0,0.0,0.0,0.0,-0.00026448065182194114,-0.0013311277143657207,-0.0004416079609654844,1.0001083612442017,0.0,0.0,0.0,1.562512993812561,2.079977512359619,5.78041934967041,-282.8179626464844,0
1278.7240000000002,0.010787587612867355,-0.019062815234065056,-0.0001285774342250079,0.0,0.0,0.0,0.0,0.001991827739402652,-0.0006857200060039759,0.002257471438497305,0.9995331168174744,0.0,0.0,0.0,1.562512993812561,2.079977512359619,5.78041934967041,-282.8179626464844,0
1288.6460000000006,0.01065882109105587,-0.01913456805050373,-0.00011236077989451587,0.0,0.0,0.0,0.0,0.0037117418833076954,-0.0017312164418399334,-0.0031547099351882935,0.9985575079917908,0.0,0.0,0.0,1.5592613220214844,2.0701732635498047,5.76698112487793,-282.2293701171875,0
1298.5499999999993,0.01070772297680378,-0.019117582589387894,-0.00018113710393663496,0.0,0.0,0.0,0.0,0.0006049493094906211,0.0010893003782257438,-0.0006308023585006595,0.9988082647323608,0.0,0.0,0.0,1.569503903388977,2.0734620094299316,5.779853820800781,-284.08331298828125,0
1308.4709999999995,0.010574867948889732,-0.019196445122361183,-0.00017754854343365878,0.0,0.0,0.0,0.0,0.0006594602600671351,-0.002339018974453211,-0.002362554892897606,1.001301646232605,0.0,0.0,0.0,1.5647072792053223,2.065000057220459,5.762585163116455,-283.21514892578125,0
1318.375,0.010557926259934902,-0.019176427274942398,-0.00024512107484042645,0.0,0.0,0.0,0.0,0.0009002877632156014,-0.00297869136556983,-0.0027895502280443907,0.9993849992752075,0.0,0.0,0.0,1.5757761001586914,2.0723698139190674,5.776124477386475,-285.2185974121094,0
1328.2970000000005,0.010486318729817867,-0.01921743154525757,-0.0002483683929312974,0.0,0.0,0.0,0.0,0.0013117340859025717,0.002508781384676695,-0.0023371954448521137,0.9994312524795532,0.0,0.0,0.0,1.5730503797531128,2.0738561153411865,5.771965980529785,-284.7252197265625,0
1338.2019999999993,0.010468792170286179,-0.01919206790626049,-0.00032357030431739986,0.0,0.0,0.0,0.0,-0.0023385100066661835,0.0005215124110691249,0.0023997132666409016,1.00088632106781,0.0,0.0,0.0,1.5802229642868042,2.0905728340148926,5.790210247039795,-286.02349853515625,0
1348.1239999999998,0.010394961573183537,-0.019235288724303246,-0.0003317026421427727,0.0,0.0,0.0,0.0,0.0012442750157788396,-0.0010861691553145647,-0.005207926966249943,1.0012658834457397,0.0,0.0,0.0,1.5787585973739624,2.0923125743865967,5.791133403778076,-285.7584533691406,0
1358.0280000000002,0.010318371467292309,-0.019280903041362762,-0.00033863980206660926,0.0,0.0,0.0,0.0,-0.005856796633452177,-0.002408156171441078,-0.00037616476765833795,0.9999839663505554,0.0,0.0,0.0,1.5751720666885376,2.087953805923462,5.790380001068115,-285.1092529296875,0
1367.9619999999995,0.01024076621979475,-0.019328363239765167,-0.00034535586019046605,0.0,0.0,0.0,0.0,0.0015340723330155015,-0.0017217571148648858,0.0008235157001763582,0.99949049949646,0.0,0.0,0.0,1.574259877204895,2.0933003425598145,5.786150932312012,-284.94415283203125,0
1377.8510000000006,0.010232770815491676,-0.01927279122173786,-0.00041615962982177734,0.0,0.0,0.0,0.0,-0.0004211112391203642,-0.0013639547396451235,-0.002044446300715208,1.0026990175247192,0.0,0.0,0.0,1.5849800109863281,2.122225761413574,5.8039422035217285,-286.8845520019531,0
1387.7759999999998,0.01016109250485897,-0.019315581768751144,-0.00042648095404729247,0.0,0.0,0.0,0.0,0.004216061905026436,0.0018308062572032213,0.0014392536832019687,1.000771164894104,0.0,0.0,0.0,1.5821126699447632,2.121934413909912,5.8014020919799805,-286.36553955078125,0
1397.6769999999997,0.010087301023304462,-0.019360139966011047,-0.0004357090510893613,0.0,0.0,0.0,0.0,-0.002452506683766842,-0.0025269670877605677,0.0034795021638274193,0.9975588917732239,0.0,0.0,0.0,1.5817304849624634,2.11686372756958,5.798165798187256,-286.29638671875,0
1407.6100000000006,0.010011035948991776,-0.019407683983445168,-0.0004463987424969673,0.0,0.0,0.0,0.0,0.0012310491874814034,-0.00582059845328331,-0.0035789364483207464,0.9968836307525635,0.0,0.0,0.0,1.580214500427246,2.1167778968811035,5.799226760864258,-286.0220031738281,0
1417.5020000000004,0.010059143416583538,-0.019208448007702827,-0.0005327207618393004,0.0,0.0,0.0,0.0,-0.0017337274039164186,0.0007103931275196373,-0.0007516428595408797,0.9985873103141785,0.0,0.0,0.0,1.5891586542129517,2.1963837146759033,5.844263076782227,-287.640869140625,0
1427.4269999999997,0.009990030899643898,-0.019242404028773308,-0.0005540946731343865,0.0,0.0,0.0,0.0,0.0019839259330183268,-0.0022512199357151985,-0.0020806128159165382,0.9982491135597229,0.0,0.0,0.0,1.5874987840652466,2.196485757827759,5.849969387054443,-287.3404235839844,0
1437.3340000000007,0.009988167323172092,-0.019156595692038536,-0.0006205040263012052,0.0,0.0,0.0,0.0,0.0009281524689868093,0.003276695031672716,-0.004711488727480173,0.9989438056945801,0.0,0.0,0.0,1.596815824508667,2.232349395751953,5.8638763427734375,-289.02685546875,0
1447.2530000000006,0.009918558411300182,-0.019184645265340805,-0.0006481318268924952,0.0,0.0,0.0,0.0,-0.0009380191913805902,-0.001302907126955688,-0.003812665119767189,0.998786985874176,0.0,0.0,0.0,1.5951834917068481,2.2275710105895996,5.851574897766113,-288.7314147949219,0
1457.1530000000002,0.009845959953963757,-0.019214339554309845,-0.000676304567605257,0.0,0.0,0.0,0.0,0.001092236489057541,-0.0008171526715159416,0.0006555899162776768,1.0004323720932007,0.0,0.0,0.0,1.592278003692627,2.2256317138671875,5.840541839599609,-288.20550537109375,0
1467.0789999999997,0.009770920500159264,-0.019245721399784088,-0.0007043105433695018,0.0,0.0,0.0,0.0,9.959586896002293e-05,0.003011520253494382,0.0014881982933729887,1.001290202140808,0.0,0.0,0.0,1.5915095806121826,2.2187609672546387,5.838459014892578,-288.06640625,0
1476.9799999999996,0.009693625383079052,-0.019278910011053085,-0.0007311353692784905,0.0,0.0,0.0,0.0,-0.0014704960631206632,0.00010793888213811442,0.0022681273985654116,1.000989317893982,0.0,0.0,0.0,1.5906257629394531,2.214224100112915,5.830728530883789,-287.90643310546875,0
1486.9040000000005,0.009614193812012672,-0.019313987344503403,-0.0007568986620754004,0.0,0.0,0.0,0.0,-0.0030916030518710613,-0.0008457177318632603,-0.001636084751226008,1.0003150701522827,0.0,0.0,0.0,1.590693473815918,2.2083277702331543,5.823906421661377,-287.9186706542969,0
1496.813,0.00953282043337822,-0.019350886344909668,-0.000782356015406549,0.0,0.0,0.0,0.0,0.00010923723311861977,0.0008321813074871898,-0.002587970346212387,0.9999853372573853,0.0,0.0,0.0,1.5886212587356567,2.2051875591278076,5.826582908630371,-287.5436096191406,0
1506.7309999999998,0.009449463337659836,-0.01938970759510994,-0.0008071154588833451,0.0,0.0,0.0,0.0,-0.005096875596791506,-0.0031402036547660828,-0.0007383280317299068,1.0014781951904297,0.0,0.0,0.0,1.5857876539230347,2.2009923458099365,5.814162254333496,-287.0307312011719,0
1516.6290000000008,0.00936443917453289,-0.019429942592978477,-0.0008305741939693689,0.0,0.0,0.0,0.0,-0.00047443941002711654,0.002384899416938424,-0.0012908370699733496,1.0004390478134155,0.0,0.0,0.0,1.5851519107818604,2.209113359451294,5.814661979675293,-286.9156799316406,0
1526.5560000000005,0.010555983521044254,-0.01937790773808956,0.0002555846003815532,0.0,0.0,0.0,0.0,0.0015890777576714754,0.0008149872883222997,-0.0024653675500303507,1.0019477605819702,0.0,0.0,0.0,1.5832985639572144,2.250025749206543,6.018945693969727,-286.5802001953125,0
1536.4619999999995,0.010519742034375668,-0.019411146640777588,0.00027971353847533464,0.0,0.0,0.0,0.0,0.005036028102040291,0.003626776859164238,-0.002404202241450548,0.9996957778930664,0.0,0.0,0.0,1.581415057182312,2.2426955699920654,6.007313251495361,-286.2392883300781,0
1546.3809999999994,0.010528821498155594,-0.019366582855582237,0.0003822519211098552,0.0,0.0,0.0,0.0,-0.0024193970020860434,-0.0031999966595321894,0.00037729422911070287,0.9979434013366699,0.0,0.0,0.0,1.5728754997253418,2.2578978538513184,6.002837181091309,-284.6935729980469,0
1556.2880000000005,0.010486888699233532,-0.019395658746361732,0.00040965666994452477,0.0,0.0,0.0,0.0,0.006635129917412996,0.0008136201067827642,-0.0007504737586714327,1.0000741481781006,0.0,0.0,0.0,1.5722057819366455,2.25105357170105,5.998007297515869,-284.5723571777344,0
1566.205,0.01049469131976366,-0.019396398216485977,0.00047927600098773837,0.0,0.0,0.0,0.0,-0.0033640675246715546,0.003515825839713216,-0.0009103743941523135,1.0019381046295166,0.0,0.0,0.0,1.5586968660354614,2.250278949737549,6.000145435333252,-282.1272277832031,0
1576.107,0.01049469131976366,-0.019396398216485977,0.00047927600098773837,0.0,0.0,0.0,0.0,0.002404638333246112,0.0011089498875662684,-0.001564877456985414,1.000169277191162,0.0,0.0,0.0,1.5586968660354614,2.250278949737549,6.000145435333252,-282.1272277832031,0
1586.0259999999998,0.010445984080433846,-0.01943284645676613,0.0005750115378759801,0.0,0.0,0.0,0.0,-0.002863314701244235,0.00046199187636375427,0.0010004729265347123,1.000921368598938,0.0,0.0,0.0,1.5469390153884888,2.256455421447754,5.989831924438477,-279.9990539550781,0
1595.9300000000003,0.010445984080433846,-0.01943284645676613,0.0005750115378759801,0.0,0.0,0.0,0.0,0.001256345771253109,0.0034369900822639465,0.00013697439862880856,1.0001744031906128,0.0,0.0,0.0,1.5469390153884888,2.256455421447754,5.989831924438477,-279.9990539550781,0
1605.8639999999996,0.010428909212350845,-0.019453972578048706,0.0007012566784396768,0.0,0.0,0.0,0.0,0.00030129076912999153,-0.0014688748633489013,0.003246096894145012,0.9984946250915527,0.0,0.0,0.0,1.5339592695236206,2.261105537414551,6.00309419631958,-277.64971923828125,0
1615.7620000000006,0.010428909212350845,-0.019453972578048706,0.0007012566784396768,0.0,0.0,0.0,0.0,0.0014863722026348114,-0.004146921914070845,0.0001362859329674393,0.9988434910774231,0.0,0.0,0.0,1.5339592695236206,2.261105537414551,6.00309419631958,-277.64971923828125,0
1625.682999999999,0.01039584819227457,-0.019488463178277016,0.0008319491753354669,0.0,0.0,0.0,0.0,0.0021656446624547243,-0.0005357678164727986,-0.0032999387476593256,0.9987583160400391,0.0,0.0,0.0,1.5214213132858276,2.262439489364624,6.021678924560547,-275.38031005859375,0
1635.5810000000001,0.01039584819227457,-0.019488463178277016,0.0008319491753354669,0.0,0.0,0.0,0.0,-0.002826852723956108,-0.0005213991389609873,-0.00018170532712247223,1.0004878044128418,0.0,0.0,0.0,1.5214213132858276,2.262439489364624,6.021678924560547,-275.38031005859375,0
1645.5079999999998,0.010362610220909119,-0.019500769674777985,0.0009121988550759852,0.0,0.0,0.0,0.0,0.0002560651919338852,0.004471989348530769,-0.005280844401568174,1.0001381635665894,0.0,0.0,0.0,1.519425630569458,2.2510616779327393,6.0157790184021,-275.0190734863281,0
1655.4069999999992,0.010321256704628468,-0.019527047872543335,0.0009582670172676444,0.0,0.0,0.0,0.0,-0.0015335815260186791,-0.0042456937953829765,0.000977527815848589,1.0028910636901855,0.0,0.0,0.0,1.5170965194702148,2.2517194747924805,6.010777950286865,-274.59747314453125,0
1665.3289999999997,0.010292340070009232,-0.019548270851373672,0.0010380082530900836,0.0,0.0,0.0,0.0,-9.446391050005332e-05,0.004733031149953604,0.0017335882876068354,1.0008755922317505,0.0,0.0,0.0,1.5150262117385864,2.24533748626709,6.000917434692383,-274.2227478027344,0
1675.2340000000004,0.01024961844086647,-0.01957644149661064,0.0010899228509515524,0.0,0.0,0.0,0.0,0.004126562271267176,-0.0036587477661669254,-0.0025469057727605104,0.9973790049552917,0.0,0.0,0.0,1.5136514902114868,2.2448861598968506,6.002411365509033,-273.9739074707031,0
1685.1640000000007,0.010226225480437279,-0.01960538513958454,0.0011819235514849424,0.0,0.0,0.0,0.0,-0.0018649614648893476,-0.0038869043346494436,0.0026850386057049036,1.0003122091293335,0.0,0.0,0.0,1.5123685598373413,2.2384727001190186,5.9952168464660645,-273.7417297363281,0
1695.0599999999995,0.010182801634073257,-0.019635306671261787,0.001237210351973772,0.0,0.0,0.0,0.0,0.0009927903302013874,-0.0010045019444078207,-0.0009101008763536811,1.0001839399337769,0.0,0.0,0.0,1.5101861953735352,2.2328410148620605,5.995084762573242,-273.3467102050781,0
1704.9770000000008,0.01015682052820921,-0.019645655527710915,0.0013392416294664145,0.0,0.0,0.0,0.0,0.0011178947752341628,0.004018175415694714,-0.0012853030348196626,1.0008885860443115,0.0,0.0,0.0,1.5090516805648804,2.233844757080078,5.996807098388672,-273.1413879394531,0
1714.8860000000004,0.010712053626775742,-0.019058240577578545,-0.00015230978897307068,0.0,0.0,0.0,0.0,-0.0011110592167824507,0.003587092040106654,0.002270934171974659,1.000806450843811,0.0,0.0,0.0,1.5244104862213135,2.3239190578460693,6.099942207336426,-275.92132568359375,0
1724.8070000000007,0.010751917026937008,-0.019028834998607635,-0.00011635576811386272,0.0,0.0,0.0,0.0,0.0013156626373529434,0.00584108242765069,-0.0028122933581471443,0.9989945292472839,0.0,0.0,0.0,1.5231255292892456,2.323671340942383,6.090773105621338,-275.68878173828125,0
1734.7080000000005,0.010766754858195782,-0.019022272899746895,-0.00017950174515135586,0.0,0.0,0.0,0.0,0.0014111499767750502,0.004227538127452135,0.0024310308508574963,0.9980500340461731,0.0,0.0,0.0,1.5399473905563354,2.3151185512542725,6.081896781921387,-278.7335205078125,0
1744.6209999999992,0.010839191265404224,-0.019016465172171593,-0.00014771174755878747,0.0,0.0,0.0,0.0,-0.00188793009147048,-0.0013752514496445656,-2.418135045445524e-05,1.0006999969482422,0.0,0.0,0.0,1.5371230840682983,2.3097763061523438,6.060649394989014,-278.22235107421875,0
1754.5349999999999,0.010822152718901634,-0.019019916653633118,-0.00015667355910409242,0.0,0.0,0.0,0.0,0.001326802303083241,-0.007180970162153244,-0.002417537849396467,0.9990253448486328,0.0,0.0,0.0,1.534791350364685,2.309105634689331,6.054078102111816,-277.80029296875,0
1764.4500000000007,0.010793830268085003,-0.018993934616446495,-0.00015018638805486262,0.0,0.0,0.0,0.0,0.005755081307142973,0.0030477182008326054,-0.00243875989690423,1.0004456043243408,0.0,0.0,0.0,1.5332629680633545,2.3130903244018555,6.050468921661377,-277.5236511230469,0
1774.3580000000002,0.010733835399150848,-0.01906554028391838,-0.0001257921539945528,0.0,0.0,0.0,0.0,0.0033295857720077038,0.003690025070682168,-0.0014889324083924294,1.0004082918167114,0.0,0.0,0.0,1.5298632383346558,2.3061561584472656,6.061138153076172,-276.90826416015625,0
1784.2790000000005,0.010807146318256855,-0.01905924640595913,-8.966041059466079e-05,0.0,0.0,0.0,0.0,0.00019928706751670688,-0.001585847930982709,0.0035693245008587837,0.9992992281913757,0.0,0.0,0.0,1.5284336805343628,2.2965095043182373,6.0471110343933105,-276.6495056152344,0
1794.1910000000007,0.010779772885143757,-0.01907362975180149,-8.28911506687291e-05,0.0,0.0,0.0,0.0,0.0021518918219953775,-0.002868442563340068,-0.0019755433313548565,1.0013346672058105,0.0,0.0,0.0,1.5269105434417725,2.2915971279144287,6.039952278137207,-276.3738708496094,0
1804.0990000000002,0.0107500609010458,-0.01909046247601509,-7.609016756759956e-05,0.0,0.0,0.0,0.0,-0.0019659490790218115,0.00018291942251380533,-0.0007824570056982338,1.0001503229141235,0.0,0.0,0.0,1.526613473892212,2.287259101867676,6.043512344360352,-276.320068359375,0
1814.0190000000002,0.010701768100261688,-0.01914270594716072,-5.92153737670742e-05,0.0,0.0,0.0,0.0,0.001139292260631919,0.004486901685595512,0.0016441437182947993,0.9993143677711487,0.0,0.0,0.0,1.5375977754592896,2.2804462909698486,6.037807464599609,-278.3082580566406,0
1823.923999999999,0.010666964575648308,-0.01916312612593174,-5.04587878822349e-05,0.0,0.0,0.0,0.0,-0.0038369973190128803,-0.0032644704915583134,0.004825054667890072,1.0002049207687378,0.0,0.0,0.0,1.536291480064392,2.281616687774658,6.026538848876953,-278.0718078613281,0
1833.8420000000006,0.010659723542630672,-0.019156934693455696,-8.410870941588655e-05,0.0,0.0,0.0,0.0,-0.0011496456572785974,0.0024230838753283024,-9.361611591884866e-05,0.9988345503807068,0.0,0.0,0.0,1.5351215600967407,2.2777750492095947,6.016623497009277,-277.86004638671875,0
1843.7540000000008,0.01062135398387909,-0.01917826198041439,-7.91510465205647e-05,0.0,0.0,0.0,0.0,0.004588974639773369,-0.001676476444117725,-0.0013574787881225348,0.9982332587242126,0.0,0.0,0.0,1.5347148180007935,2.2820076942443848,6.018807411193848,-277.78643798828125,0
1853.6689999999999,0.010582918301224709,-0.019200969487428665,-7.50398394302465e-05,0.0,0.0,0.0,0.0,-0.000816528161522001,-0.004053683951497078,0.001961012836545706,0.999355673789978,0.0,0.0,0.0,1.531463861465454,2.277899980545044,6.009068012237549,-277.197998046875,0
1863.5730000000003,0.01074406411498785,-0.019208088517189026,4.523671304923482e-05,0.0,0.0,0.0,0.0,0.00010373662371421233,-0.0007785111083649099,-0.0017709938110783696,1.0021638870239258,0.0,0.0,0.0,1.53052818775177,2.282745599746704,6.0409064292907715,-277.02862548828125,0
1873.4930000000004,0.010807077400386333,-0.01912652514874935,-5.453960693557747e-05,0.0,0.0,0.0,0.0,0.00150222925003618,-0.00212591839954257,-0.0023298056330531836,1.0011721849441528,0.0,0.0,0.0,1.535506010055542,2.2996675968170166,6.064787864685059,-277.9296569824219,0
1883.3979999999992,0.010745984502136707,-0.019126255065202713,-3.5808119719149545e-05,0.0,0.0,0.0,0.0,-0.0007560001686215401,-0.0007398505113087595,-0.000520834990311414,0.999473512172699,0.0,0.0,0.0,1.525932788848877,2.303276300430298,6.057410717010498,-276.1968994140625,0
1893.3199999999997,0.010809440165758133,-0.019075091928243637,-0.00010877539170905948,0.0,0.0,0.0,0.0,-0.0002808007411658764,-0.00396322924643755,0.001149438670836389,0.9983038902282715,0.0,0.0,0.0,1.525932788848877,2.303276300430298,6.057410717010498,-276.1968994140625,0
1903.223,0.01083733607083559,-0.019097931683063507,-7.62708586989902e-05,0.0,0.0,0.0,0.0,0.002827785676345229,-0.0020384432282298803,0.0007955300970934331,0.9989765882492065,0.0,0.0,0.0,1.513880968093872,2.3139700889587402,6.059292316436768,-274.01544189453125,0
1913.1440000000002,0.010870378464460373,-0.019065484404563904,-0.00010986460983986035,0.0,0.0,0.0,0.0,0.0005141416913829744,-0.0009191458229906857,-0.0009286999120377004,1.000512957572937,0.0,0.0,0.0,1.513880968093872,2.3139700889587402,6.059292316436768,-274.01544189453125,0
1923.048999999999,0.010817965492606163,-0.01906023733317852,-0.00011201913730474189,0.0,0.0,0.0,0.0,1.6308214981108904e-05,0.002205287804827094,9.588991815689951e-05,1.0004808902740479,0.0,0.0,0.0,1.5119924545288086,2.3037922382354736,6.057832717895508,-273.67364501953125,0
1932.9740000000002,0.010783268138766289,-0.019054165109992027,-0.00011591707880143076,0.0,0.0,0.0,0.0,0.0005917581729590893,0.0025199095252901316,-0.0014264960773289204,0.9992431998252869,0.0,0.0,0.0,1.5102862119674683,2.3120956420898438,6.054356575012207,-273.36480712890625,0
1942.8739999999998,0.010742994956672192,-0.019037213176488876,-0.00010606313298922032,0.0,0.0,0.0,0.0,0.001061699353158474,0.0008094327058643103,-0.002501435112208128,0.9994775652885437,0.0,0.0,0.0,1.5075448751449585,2.3057003021240234,6.041412830352783,-272.8686218261719,0
1952.7939999999999,0.010702117346227169,-0.019059564918279648,-0.00010715208190958947,0.0,0.0,0.0,0.0,6.157266034279019e-05,0.0004151203902438283,0.0003913484397344291,0.9980393052101135,0.0,0.0,0.0,1.504581332206726,2.298322916030884,6.03574275970459,-272.3322448730469,0
1962.7099999999991,0.01076412945985794,-0.01905544102191925,-8.430703746853396e-05,0.0,0.0,0.0,0.0,0.00044957298086956143,-0.0015747550642117858,0.0007721104775555432,0.9996371865272522,0.0,0.0,0.0,1.502670407295227,2.2943496704101562,6.033689022064209,-271.9862976074219,0
1972.6139999999996,0.010749147273600101,-0.019098203629255295,-0.00013901584316045046,0.0,0.0,0.0,0.0,0.003345381235703826,-0.004052257165312767,0.0010923619847744703,1.0007061958312988,0.0,0.0,0.0,1.5016748905181885,2.295125961303711,6.022407054901123,-271.8061218261719,0
1982.5339999999997,0.010718632489442825,-0.019043123349547386,-0.00011606815678533167,0.0,0.0,0.0,0.0,0.00011566281318664551,-0.0005992631195113063,-0.000258708925684914,0.9998419284820557,0.0,0.0,0.0,1.4998935461044312,2.286823034286499,6.020535469055176,-271.48370361328125,0
1992.4480000000003,0.010687275789678097,-0.019046086817979813,-0.00012975287972949445,0.0,0.0,0.0,0.0,-0.0022360607981681824,-0.00282126571983099,0.003777024568989873,1.001753807067871,0.0,0.0,0.0,1.4986333847045898,2.291102886199951,6.013066291809082,-271.255615234375,0
2002.3610000000008,0.010689634829759598,-0.019023971632122993,-0.00010574843327049166,0.0,0.0,0.0,0.0,-0.0016096497420221567,0.0048531643114984035,-0.0023087598383426666,1.000160813331604,0.0,0.0,0.0,1.4979184865951538,2.2896506786346436,6.010563373565674,-271.126220703125,0
2012.2819999999992,0.010642883367836475,-0.019047250971198082,-0.0001046827674144879,0.0,0.0,0.0,0.0,0.00013934393064118922,-0.0012118914164602757,-0.0012123030610382557,0.9988648295402527,0.0,0.0,0.0,1.4950395822525024,2.2905161380767822,5.999385356903076,-270.60516357421875,0
2022.1859999999997,0.01068811397999525,-0.019044505432248116,-8.111116039799526e-05,0.0,0.0,0.0,0.0,0.0036419855896383524,0.0009629020350985229,-0.0013092110166326165,0.9986150860786438,0.0,0.0,0.0,1.4928276538848877,2.284701108932495,5.9899725914001465,-270.2048034667969,0
2032.1010000000006,0.010640672408044338,-0.019070543348789215,-7.905893289716914e-05,0.0,0.0,0.0,0.0,-0.00029002223163843155,-0.0032004995737224817,-0.0020228675566613674,1.000088095664978,0.0,0.0,0.0,1.4911572933197021,2.274233341217041,5.980130672454834,-269.9024353027344,0
2042.012999999999,0.010690479539334774,-0.019092708826065063,-6.241152004804462e-05,0.0,0.0,0.0,0.0,-0.0004883380024693906,-0.0014718679012730718,0.0011689049424603581,0.9996531009674072,0.0,0.0,0.0,1.4899171590805054,2.2756800651550293,5.986915588378906,-269.6780090332031,0
2051.9220000000005,0.01069652196019888,-0.019099654629826546,-0.0001632197090657428,0.0,0.0,0.0,0.0,-0.0019031127449125051,-0.0042948792688548565,0.001001653028652072,1.0013481378555298,0.0,0.0,0.0,1.488809585571289,2.2742598056793213,5.9838690757751465,-269.4775085449219,0
2061.8410000000003,0.010728049091994762,-0.019094930961728096,-0.0001321067102253437,0.0,0.0,0.0,0.0,-0.00035845613456331193,0.0035560906399041414,-0.0020579686388373375,0.9997643232345581,0.0,0.0,0.0,1.4879881143569946,2.276503801345825,5.983458042144775,-269.32879638671875,0
2071.7530000000006,0.010704254731535912,-0.019124867394566536,-0.00017791746358852834,0.0,0.0,0.0,0.0,0.002769109094515443,0.002976696938276291,0.0019833878614008427,0.9994205832481384,0.0,0.0,0.0,1.4917927980422974,2.281048536300659,5.97651481628418,-270.0174560546875,0
2081.669,0.010756151750683784,-0.019118012860417366,-0.00014020208618603647,0.0,0.0,0.0,0.0,0.002291387412697077,-0.002449998864904046,-0.0023019141517579556,1.0030699968338013,0.0,0.0,0.0,1.490619421005249,2.2755210399627686,5.971695423126221,-269.80511474609375,0
2091.5769999999993,0.010745848529040813,-0.01909681409597397,-0.0001805495994631201,0.0,0.0,0.0,0.0,0.003200975712388754,-0.003996452782303095,0.0003931511309929192,0.9998322129249573,0.0,0.0,0.0,1.4890968799591064,2.270305871963501,5.969541072845459,-269.5295104980469,0
2101.492,0.010794500820338726,-0.019069813191890717,-0.00013422928168438375,0.0,0.0,0.0,0.0,0.0005728022661060095,0.0011574272066354752,-0.0009773257188498974,1.0008184909820557,0.0,0.0,0.0,1.4889267683029175,2.2600533962249756,5.972954750061035,-269.49871826171875,0
2111.4030000000002,0.010764398612082005,-0.019120430573821068,-0.00017274561105296016,0.0,0.0,0.0,0.0,-0.00107332703191787,0.002276161452755332,-0.001856591901741922,0.9990590214729309,0.0,0.0,0.0,1.4878829717636108,2.254544496536255,5.963107109069824,-269.309814453125,0
2121.3150000000005,0.010782929137349129,-0.019094116985797882,-0.000134787434944883,0.0,0.0,0.0,0.0,0.0013502222718670964,0.0008710430702194571,0.0008224180201068521,0.9994630217552185,0.0,0.0,0.0,1.4860769510269165,2.2524521350860596,5.946752548217773,-268.9828796386719,0
2131.2250000000004,0.010761171579360962,-0.01908406801521778,-0.00016204654821194708,0.0,0.0,0.0,0.0,-0.0006933886907063425,0.002455702982842922,8.448473818134516e-05,0.9990332722663879,0.0,0.0,0.0,1.4916021823883057,2.2551872730255127,5.945537567138672,-269.98297119140625,0
2141.1440000000002,0.0107974112033844,-0.019064733758568764,-0.00012107416114304215,0.0,0.0,0.0,0.0,-0.0009731345344334841,-0.005026406608521938,0.004946569446474314,1.0017744302749634,0.0,0.0,0.0,1.4892244338989258,2.2513508796691895,5.9362263679504395,-269.5525817871094,0
