timestamp,stateEstimate.x,stateEstimate.y,stateEstimate.z,controller.cmd_thrust,controller.cmd_roll,controller.cmd_pitch,controller.cmd_yaw,controller.r_roll,controller.r_pitch,controller.r_yaw,controller.accelz,controller.actuatorThrust,controller.roll,controller.pitch,controller.yaw,controller.rollRate,controller.pitchRate,controller.yawRate,controller.ctr_yaw
0.0,0.013272049836814404,0.0005087432800792158,-0.0007907359977252781,0.0,0.0,0.0,0.0,-0.0011765153612941504,-0.0014066194416955113,-0.001468646340072155,1.0003701448440552,0.0,0.0,0.0,4.078433990478516,-1.4074902534484863,8.043771743774414,-738.2046508789062,0
9.90099999999984,0.013202534057199955,0.00048145485925488174,-0.0008528689504601061,0.0,0.0,0.0,0.0,0.0034164858516305685,-0.004698337987065315,0.000884043169207871,1.0011488199234009,0.0,0.0,0.0,4.084342956542969,-1.4142463207244873,8.037538528442383,-739.274169921875,0
19.813000000000102,0.01312529481947422,0.0004980149678885937,-0.0008749206317588687,0.0,0.0,0.0,0.0,0.0009032348170876503,-0.0004318340797908604,0.0023588065523654222,1.0016752481460571,0.0,0.0,0.0,4.079565525054932,-1.4088174104690552,8.031331062316895,-738.4095458984375,0
29.725000000000364,0.01308505516499281,0.0005234448472037911,-0.0009638342307880521,0.0,0.0,0.0,0.0,0.0008118063560687006,0.0023617311380803585,-0.0010036870371550322,1.0012727975845337,0.0,0.0,0.0,4.085578441619873,-1.4086382389068604,8.0460844039917,-739.4978637695312,0
39.64300000000003,0.013007006607949734,0.000541099114343524,-0.0009884467581287026,0.0,0.0,0.0,0.0,8.423228428000584e-05,-0.0013571173185482621,0.0024818882811814547,0.9988230466842651,0.0,0.0,0.0,4.081951141357422,-1.4069056510925293,8.039942741394043,-738.84130859375,0
49.54399999999987,0.012978811748325825,0.0005670664249919355,-0.0010976101038977504,0.0,0.0,0.0,0.0,-0.00012337988300714642,-0.0013558863429352641,0.001643632655031979,1.0001248121261597,0.0,0.0,0.0,4.089663505554199,-1.4000627994537354,8.049332618713379,-740.2372436523438,0
59.461999999999534,0.012900874018669128,0.0005872550536878407,-0.0011288640089333057,0.0,0.0,0.0,0.0,-0.0008471588953398168,-0.0015786845469847322,0.0008927690214477479,1.002087116241455,0.0,0.0,0.0,4.08522891998291,-1.3986037969589233,8.049297332763672,-739.4345703125,0
69.36700000000019,0.012847423553466797,0.0006052457028999925,-0.0012094374978914857,0.0,0.0,0.0,0.0,0.0003778949030674994,-0.002119304146617651,0.0014175354735925794,1.001670479774475,0.0,0.0,0.0,4.093602657318115,-1.3970280885696411,8.038015365600586,-740.9501953125,0
79.29600000000028,0.012767606414854527,0.0006263095419853926,-0.0012421738356351852,0.0,0.0,0.0,0.0,-0.002563009737059474,-0.002270839409902692,0.005648742895573378,0.9991554617881775,0.0,0.0,0.0,4.090383052825928,-1.3995952606201172,8.03471851348877,-740.367431640625,0
89.1929999999993,0.012711846269667149,0.0006286296993494034,-0.0013302068691700697,0.0,0.0,0.0,0.0,-0.0004631121992133558,0.0011252528056502342,0.005779503844678402,1.00001859664917,0.0,0.0,0.0,4.094297409057617,-1.4055685997009277,8.040075302124023,-741.0759887695312,0
99.11399999999958,0.012628002092242241,0.0006512626423500478,-0.001366034266538918,0.0,0.0,0.0,0.0,-0.0035888757556676865,0.0011473259655758739,-0.0009340624092146754,1.001578450202942,0.0,0.0,0.0,4.0923686027526855,-1.4021559953689575,8.034018516540527,-740.7268676757812,0
109.02399999999943,0.012570110149681568,0.0006763603305444121,-0.0014439801452681422,0.0,0.0,0.0,0.0,5.31997466168832e-05,-0.0002400815428700298,0.004110678099095821,1.0004600286483765,0.0,0.0,0.0,4.099678039550781,-1.3996670246124268,8.031600952148438,-742.0498657226562,0
118.94700000000012,0.012485727667808533,0.0007016774616204202,-0.0014819985954090953,0.0,0.0,0.0,0.0,0.0001715885882731527,0.00337292836047709,4.254712621332146e-05,1.0005028247833252,0.0,0.0,0.0,4.0974626541137695,-1.3951735496520996,8.024413108825684,-741.6488647460938,0
128.84499999999935,0.012427931651473045,0.0007284693419933319,-0.0015599128091707826,0.0,0.0,0.0,0.0,0.0023199827410280704,-0.0025396335404366255,0.003854126436635852,1.0020246505737305,0.0,0.0,0.0,4.0918779373168945,-1.3982852697372437,8.015439987182617,-740.6380615234375,0
138.77599999999984,0.012340648099780083,0.0007548357825726271,-0.0015996915753930807,0.0,0.0,0.0,0.0,0.002111127832904458,0.0028550508432090282,0.0002487087913323194,1.001663088798523,0.0,0.0,0.0,4.086872100830078,-1.3953174352645874,8.007177352905273,-739.7319946289062,0
148.67300000000068,0.01227454375475645,0.0007596898358315229,-0.0016843820922076702,0.0,0.0,0.0,0.0,-0.0017594073433429003,-0.0030347988940775394,-0.0025997497141361237,0.9994862675666809,0.0,0.0,0.0,4.098449230194092,-1.4049153327941895,8.004473686218262,-741.8274536132812,0
158.59699999999975,0.012184732593595982,0.0007863927748985589,-0.0017246436327695847,0.0,0.0,0.0,0.0,-2.7263304218649864e-05,0.0017069472232833505,-0.0001689086202532053,1.0010173320770264,0.0,0.0,0.0,4.095174312591553,-1.400349497795105,7.994256973266602,-741.2346801757812,0
168.4920000000002,0.012112366035580635,0.0007943424279801548,-0.0018047943012788892,0.0,0.0,0.0,0.0,0.0015630268026143312,-0.005928148049861193,-0.0018722984241321683,1.0030109882354736,0.0,0.0,0.0,4.106076717376709,-1.3984125852584839,7.991072654724121,-743.2081298828125,0
178.42599999999948,0.012018815614283085,0.000822508882265538,-0.0018466096371412277,0.0,0.0,0.0,0.0,0.0012301647802814841,-0.007108863443136215,0.001391677069477737,1.0020244121551514,0.0,0.0,0.0,4.102179050445557,-1.3931057453155518,7.995765209197998,-742.5025634765625,0
188.32500000000073,0.011944642290472984,0.0008324178052134812,-0.0019265322480350733,0.0,0.0,0.0,0.0,-0.0027056795079261065,0.0012335878564044833,-0.00035765048232860863,1.0007266998291016,0.0,0.0,0.0,4.110903739929199,-1.3943337202072144,8.004219055175781,-744.0817260742188,0
198.2450000000008,0.01184814888983965,0.0008602231391705573,-0.001966636860743165,0.0,0.0,0.0,0.0,0.0015147749800235033,-0.0013884658692404628,0.0013172600883990526,1.0016181468963623,0.0,0.0,0.0,4.10693359375,-1.3948359489440918,7.9891357421875,-743.3632202148438,0
208.14500000000044,0.011736434884369373,0.0008769065025262535,-0.002015497302636504,0.0,0.0,0.0,0.0,0.0038292452227324247,0.0004118534561712295,-0.0018779749516397715,1.0010347366333008,0.0,0.0,0.0,4.111314296722412,-1.4049614667892456,7.979426860809326,-744.1560668945312,0
218.0660000000007,0.011633707210421562,0.0009037308627739549,-0.0020528417080640793,0.0,0.0,0.0,0.0,0.0004340165760368109,-0.005855911411345005,0.0012266506673768163,1.001299500465393,0.0,0.0,0.0,4.107720851898193,-1.3996237516403198,7.970710277557373,-743.5056762695312,0
227.96600000000035,0.011572451330721378,0.0009154490544460714,-0.0021423057187348604,0.0,0.0,0.0,0.0,-0.00023583015718031675,-0.00023152116045821458,0.00013080918870400637,0.9995551109313965,0.0,0.0,0.0,4.113529682159424,-1.4110984802246094,7.972490310668945,-744.5570068359375,0
237.8889999999992,0.011469992808997631,0.0009422143339179456,-0.0021824908908456564,0.0,0.0,0.0,0.0,-0.00011118294059997424,-0.0005605430924333632,-0.0006116625154390931,0.9999567866325378,0.0,0.0,0.0,4.11046838760376,-1.4110541343688965,7.96907377243042,-744.0029907226562,0
247.79399999999987,0.011410396546125412,0.0009635781170800328,-0.002268783748149872,0.0,0.0,0.0,0.0,0.0029755127616226673,0.003988055977970362,0.001387914759106934,1.0001094341278076,0.0,0.0,0.0,4.106558322906494,-1.413123607635498,7.95682430267334,-743.2952270507812,0
257.72500000000036,0.011306666769087315,0.000990987871773541,-0.00231297523714602,0.0,0.0,0.0,0.0,-0.002681660931557417,-0.00038387023960240185,-0.0009387019090354443,0.9987514019012451,0.0,0.0,0.0,4.102176189422607,-1.4136182069778442,7.949138164520264,-742.501953125,0
267.6200000000008,0.0111919604241848,0.0009695753105916083,-0.002386337611824274,0.0,0.0,0.0,0.0,0.0038647945038974285,0.002090674126520753,0.0007185900467447937,1.0024091005325317,0.0,0.0,0.0,4.108277797698975,-1.4296417236328125,7.937367916107178,-743.6065063476562,0
277.53900000000067,0.011082638055086136,0.0009941116441041231,-0.002431920962408185,0.0,0.0,0.0,0.0,0.000664551742374897,0.0020109019242227077,-0.0011448613367974758,0.9986949563026428,0.0,0.0,0.0,4.103414535522461,-1.4224807024002075,7.932173728942871,-742.7261962890625,0
287.4419999999991,0.011027942411601543,0.0010065608657896519,-0.002527448348701,0.0,0.0,0.0,0.0,-0.0004441162454895675,-0.0013451228151097894,0.0009958825539797544,0.9976458549499512,0.0,0.0,0.0,4.111379146575928,-1.4242641925811768,7.918732643127441,-744.1677856445312,0
297.3600000000006,0.01091806497424841,0.0010310268262401223,-0.002577801700681448,0.0,0.0,0.0,0.0,0.0034722445998340845,0.0015432571526616812,-0.0008321820059791207,0.999657154083252,0.0,0.0,0.0,4.107583999633789,-1.4195810556411743,7.910882472991943,-743.48095703125,0
307.27499999999964,0.010857735760509968,0.0010392135009169579,-0.0026808048132807016,0.0,0.0,0.0,0.0,0.0020441939122974873,0.003909314051270485,0.0015503173926845193,1.000069499015808,0.0,0.0,0.0,4.112213134765625,-1.4235560894012451,7.91671085357666,-744.3187866210938,0
317.1800000000003,0.010745324194431305,0.001062364550307393,-0.0027382548432797194,0.0,0.0,0.0,0.0,-0.0005307063111104071,-0.00349441752769053,0.0015532160177826881,1.000179409980774,0.0,0.0,0.0,4.108679294586182,-1.4241061210632324,7.9023895263671875,-743.67919921875,0
327.09399999999914,0.010690041817724705,0.001086125266738236,-0.0028329237829893827,0.0,0.0,0.0,0.0,-0.0009995673317462206,-0.002360340440645814,0.001466902787797153,1.0024088621139526,0.0,0.0,0.0,4.112821578979492,-1.420771598815918,7.900589942932129,-744.4288940429688,0
337.0059999999994,0.010577383451163769,0.001106759300455451,-0.002893872791901231,0.0,0.0,0.0,0.0,-0.00036902076681144536,0.0033605187200009823,-0.0007476998725906014,1.0019148588180542,0.0,0.0,0.0,4.109648704528809,-1.4129940271377563,7.903997421264648,-743.8546142578125,0
346.91799999999967,0.010508107952773571,0.0011262684129178524,-0.002989299362525344,0.0,0.0,0.0,0.0,0.0010099252685904503,-0.003583957441151142,0.0019558346830308437,1.0027554035186768,0.0,0.0,0.0,4.111600875854492,-1.4154455661773682,7.907750606536865,-744.2079467773438,0
356.83100000000013,0.010392336174845695,0.001147087779827416,-0.0030504611786454916,0.0,0.0,0.0,0.0,-0.0019327851478010416,0.000961480604019016,-0.004459299147129059,1.0015428066253662,0.0,0.0,0.0,4.1062140464782715,-1.4113653898239136,7.899177074432373,-743.23291015625,0
366.7389999999996,0.010273498483002186,0.0011681194882839918,-0.003109240671619773,0.0,0.0,0.0,0.0,-0.001917514018714428,0.002234489656984806,-0.003990209195762873,1.0011131763458252,0.0,0.0,0.0,4.102451324462891,-1.4121928215026855,7.888097286224365,-742.5518188476562,0
376.66200000000026,0.010094164870679379,0.001222713734023273,-0.003256817813962698,0.0,0.0,0.0,0.0,0.0010330176446586847,0.0010762113379314542,0.0004957958590239286,1.0003622770309448,0.0,0.0,0.0,4.106210231781006,-1.3983254432678223,7.8813276290893555,-743.2322387695312,0
386.5709999999999,0.010094164870679379,0.001222713734023273,-0.003256817813962698,0.0,0.0,0.0,0.0,-0.0015966972569003701,-0.00013667695748154074,-0.0019465754739940166,1.0011590719223022,0.0,0.0,0.0,4.106210231781006,-1.3983254432678223,7.8813276290893555,-743.2322387695312,0
396.47799999999916,0.009841171093285084,0.0012671450385823846,-0.0033725732937455177,0.0,0.0,0.0,0.0,-0.0035428330302238464,-0.0008085902663879097,0.0012594854924827814,1.0008258819580078,0.0,0.0,0.0,4.098854064941406,-1.3919416666030884,7.864372730255127,-741.9007568359375,0
406.3889999999992,0.009841171093285084,0.0012671450385823846,-0.0033725732937455177,0.0,0.0,0.0,0.0,0.001522940001450479,-0.0009501276654191315,-0.0034030722454190254,0.9992785453796387,0.0,0.0,0.0,4.098854064941406,-1.3919416666030884,7.864372730255127,-741.9007568359375,0
416.3080000000009,0.009693850763142109,0.0013020613696426153,-0.003544597653672099,0.0,0.0,0.0,0.0,-0.0017143544973805547,0.0011346838437020779,-0.00024950632359832525,1.0010157823562622,0.0,0.0,0.0,4.103830814361572,-1.377966046333313,7.880856990814209,-742.801513671875,0
426.21500000000015,0.009693850763142109,0.0013020613696426153,-0.003544597653672099,0.0,0.0,0.0,0.0,-0.0009316891082562506,0.004115976858884096,0.001481756684370339,0.9988957643508911,0.0,0.0,0.0,4.103830814361572,-1.377966046333313,7.880856990814209,-742.801513671875,0
436.1270000000004,0.00949896965175867,0.0013397315051406622,-0.0037222488317638636,0.0,0.0,0.0,0.0,-0.0010942246299237013,-0.0019490137929096818,0.0013472047867253423,0.99969881772995,0.0,0.0,0.0,4.108819961547852,-1.3700793981552124,7.876204013824463,-743.70458984375,0
446.0400000000009,0.00949896965175867,0.0013397315051406622,-0.0037222488317638636,0.0,0.0,0.0,0.0,0.0013944244710728526,0.0021778540685772896,-0.0013704331358894706,0.9979428052902222,0.0,0.0,0.0,4.108819961547852,-1.3700793981552124,7.876204013824463,-743.70458984375,0
455.96299999999974,0.009342547506093979,0.001401691697537899,-0.003802976105362177,0.0,0.0,0.0,0.0,-0.0033652144484221935,-0.0025825051125139,-0.0015539003070443869,0.9991260766983032,0.0,0.0,0.0,4.115217685699463,-1.358292818069458,7.876463890075684,-744.862548828125,0
465.8649999999998,0.009202269837260246,0.0014306985540315509,-0.003872614586725831,0.0,0.0,0.0,0.0,-0.002974048489704728,-0.0025393229443579912,0.0026438815984874964,1.000026822090149,0.0,0.0,0.0,4.111496925354004,-1.3588141202926636,7.860516548156738,-744.1891479492188,0
475.78100000000086,0.009075258858501911,0.0014711611438542604,-0.003957617096602917,0.0,0.0,0.0,0.0,-0.0007155691855587065,0.006614502985030413,0.0010367250069975853,1.0011236667633057,0.0,0.0,0.0,4.112837791442871,-1.3379982709884644,7.864716053009033,-744.4317626953125,0
485.7019999999993,0.008928889408707619,0.0015047432389110327,-0.00402917480096221,0.0,0.0,0.0,0.0,-0.0008716545416973531,0.0031523453071713448,-0.004999819211661816,0.9999729990959167,0.0,0.0,0.0,4.1088056564331055,-1.3306822776794434,7.857443809509277,-743.7020263671875,0
495.60000000000036,0.008872663602232933,0.001530956942588091,-0.0041310228407382965,0.0,0.0,0.0,0.0,-0.0005215280689299107,-0.002211093669757247,-0.005620813462883234,1.0004029273986816,0.0,0.0,0.0,4.120347499847412,-1.3251672983169556,7.858593940734863,-745.7910766601562,0
505.5149999999994,0.008723507635295391,0.001567863393574953,-0.004206382669508457,0.0,0.0,0.0,0.0,-0.00026370922569185495,-0.0013390987878665328,0.0002543019945733249,1.0014984607696533,0.0,0.0,0.0,4.115086078643799,-1.327808141708374,7.850560665130615,-744.8387451171875,0
515.4279999999999,0.008657488971948624,0.0015889621572569013,-0.004309432581067085,0.0,0.0,0.0,0.0,0.0012055785628035665,-0.006329195573925972,0.0033687015529721975,1.0003999471664429,0.0,0.0,0.0,4.124220371246338,-1.3222956657409668,7.866188049316406,-746.4920654296875,0
525.3389999999999,0.008507025428116322,0.0016260022530332208,-0.004387497901916504,0.0,0.0,0.0,0.0,0.0013792436802759767,-0.0022609904408454895,-0.0037502311170101166,1.0003082752227783,0.0,0.0,0.0,4.121005535125732,-1.321604609489441,7.867337226867676,-745.91015625,0
535.2510000000002,0.008426659740507603,0.001652016770094633,-0.004495497327297926,0.0,0.0,0.0,0.0,0.0009692159364931285,-0.001200905186124146,-0.0020207432098686695,1.0001963376998901,0.0,0.0,0.0,4.127496242523193,-1.3212774991989136,7.88214111328125,-747.0850219726562,0
545.1659999999993,0.008272562175989151,0.0016906160162761807,-0.004576379433274269,0.0,0.0,0.0,0.0,0.001455490244552493,0.00443232711404562,-0.0031661097891628742,0.9985564351081848,0.0,0.0,0.0,4.121997833251953,-1.3190542459487915,7.873818397521973,-746.0897827148438,0
555.0820000000003,0.008208070881664753,0.001705514150671661,-0.004684366285800934,0.0,0.0,0.0,0.0,0.001678280532360077,0.0009305420680902898,-0.0011339879129081964,0.9982377290725708,0.0,0.0,0.0,4.1261305809021,-1.3237072229385376,7.88015604019165,-746.8378295898438,0
564.9879999999994,0.008050794713199139,0.0017452839529141784,-0.004771082662045956,0.0,0.0,0.0,0.0,0.00011900982644874603,-4.344881290307967e-06,0.0008849214646033943,0.9982026219367981,0.0,0.0,0.0,4.1219682693481445,-1.3263520002365112,7.86586332321167,-746.08447265625,0
574.8999999999996,0.007890856824815273,0.0017844662070274353,-0.004858855623751879,0.0,0.0,0.0,0.0,-0.0021708717104047537,0.0025130663998425007,-0.00022552337031811476,0.998716413974762,0.0,0.0,0.0,4.1187238693237305,-1.333987832069397,7.858161449432373,-745.4971923828125,0
584.8119999999999,0.007728149648755789,0.0018231780268251896,-0.0049480474554002285,0.0,0.0,0.0,0.0,0.003927754703909159,0.0021145865321159363,-0.0032383366487920284,0.9989977478981018,0.0,0.0,0.0,4.114145755767822,-1.3279272317886353,7.844550609588623,-744.6685791015625,0
594.7360000000008,0.007562253158539534,0.0018633822910487652,-0.0050384243950247765,0.0,0.0,0.0,0.0,-0.0015577715821564198,0.003004451049491763,-0.00024848629254847765,0.9998003244400024,0.0,0.0,0.0,4.108516216278076,-1.3246541023254395,7.835644721984863,-743.649658203125,0
604.6440000000002,0.007392830681055784,0.0019058705074712634,-0.005129036493599415,0.0,0.0,0.0,0.0,-0.0003830937494058162,-0.0003129053220618516,0.00014377363550011069,1.001167893409729,0.0,0.0,0.0,4.104626655578613,-1.3261996507644653,7.819411277770996,-742.9456176757812,0
614.5609999999997,0.014394072815775871,3.0431474442593753e-05,-0.00014139190898276865,0.0,0.0,0.0,0.0,0.002524040639400482,0.0003627882688306272,-0.00235875160433352,0.9993122816085815,0.0,0.0,0.0,4.084539413452148,-1.504783034324646,8.170611381530762,-739.309814453125,0
624.4609999999993,0.014353334903717041,2.776712062768638e-05,-0.0001533528557047248,0.0,0.0,0.0,0.0,-0.002915654331445694,-0.0006515110144391656,0.002413943875581026,0.9984734654426575,0.0,0.0,0.0,4.08065938949585,-1.509633183479309,8.162250518798828,-738.6074829101562,0
634.3860000000004,0.014352363534271717,-1.991711360460613e-05,-0.00018406751041766256,0.0,0.0,0.0,0.0,-0.0021637489553540945,-0.002891132840886712,-0.0016060661291703582,1.000119924545288,0.0,0.0,0.0,4.069688320159912,-1.5162162780761719,8.15678596496582,-736.6217041015625,0
644.2939999999999,0.014307263307273388,-2.4255226890090853e-05,-0.00019735815294552594,0.0,0.0,0.0,0.0,0.0009122625924646854,0.0030912605579942465,0.000426001992309466,1.0019980669021606,0.0,0.0,0.0,4.0664215087890625,-1.5155738592147827,8.149548530578613,-736.0303344726562,0
654.1990000000005,0.01426005456596613,-2.8744023438775912e-05,-0.00021022169676143676,0.0,0.0,0.0,0.0,-0.0010500947246327996,0.00043268504668958485,0.003548285225406289,1.000918984413147,0.0,0.0,0.0,4.062736988067627,-1.5089983940124512,8.14993953704834,-735.3634643554688,0
664.1110000000008,0.014210236258804798,-3.2506755815120414e-05,-0.0002214478881796822,0.0,0.0,0.0,0.0,-0.0009050598600879312,-0.0010944904061034322,0.0021678288467228413,1.0004968643188477,0.0,0.0,0.0,4.0581746101379395,-1.5060704946517944,8.14292049407959,-734.5376586914062,0
674.0310000000009,0.014157457277178764,-3.618290429585613e-05,-0.0002310272102477029,0.0,0.0,0.0,0.0,-0.003204245585948229,-7.739708962617442e-05,-0.0045598591677844524,1.0022289752960205,0.0,0.0,0.0,4.054728984832764,-1.5056122541427612,8.13240909576416,-733.9140014648438,0
683.9359999999997,0.014101686887443066,-4.025859016110189e-05,-0.00023913111363071948,0.0,0.0,0.0,0.0,0.0004850564000662416,0.004168153740465641,0.0024174426216632128,0.9997454881668091,0.0,0.0,0.0,4.050750732421875,-1.501329779624939,8.120201110839844,-733.1939697265625,0
693.848,0.014043780043721199,-4.4394917495083064e-05,-0.00024544575717300177,0.0,0.0,0.0,0.0,2.155663059966173e-05,-0.0008034142083488405,0.0033860208932310343,0.9985835552215576,0.0,0.0,0.0,4.047813415527344,-1.5013469457626343,8.1150484085083,-732.6622924804688,0
703.7630000000008,0.013983871787786484,-4.8897920351009816e-05,-0.00025131486472673714,0.0,0.0,0.0,0.0,0.001984625356271863,0.0036646390799432993,-0.0013425194192677736,0.9983883500099182,0.0,0.0,0.0,4.043023109436035,-1.5008854866027832,8.099250793457031,-731.795166015625,0
713.6859999999997,0.01385557372123003,-6.051496893633157e-05,-0.0002659338933881372,0.0,0.0,0.0,0.0,-0.0017519755056127906,0.0020042406395077705,0.0010212772758677602,0.9997796416282654,0.0,0.0,0.0,4.0358567237854,-1.510165810585022,8.081850051879883,-730.498046875,0
723.5859999999993,0.01385557372123003,-6.051496893633157e-05,-0.0002659338933881372,0.0,0.0,0.0,0.0,0.0009282749379053712,-0.0012926997151225805,0.000993570196442306,0.9995067119598389,0.0,0.0,0.0,4.0358567237854,-1.510165810585022,8.081850051879883,-730.498046875,0
733.5059999999994,0.013715228997170925,-7.154777995310724e-05,-0.00028167408891022205,0.0,0.0,0.0,0.0,0.00022995396284386516,-0.0027074594981968403,0.0032602851279079914,0.9994966387748718,0.0,0.0,0.0,4.028132915496826,-1.5014214515686035,8.06695556640625,-729.10009765625,0
743.4130000000005,0.013715228997170925,-7.154777995310724e-05,-0.00028167408891022205,0.0,0.0,0.0,0.0,-0.0025830722879618406,0.0006319674430415034,-0.004647435154765844,0.9998509883880615,0.0,0.0,0.0,4.028132915496826,-1.5014214515686035,8.06695556640625,-729.10009765625,0
753.3310000000001,0.013567155227065086,-8.63746608956717e-05,-0.00029775258735753596,0.0,0.0,0.0,0.0,-0.0018996915314346552,0.0015843065921217203,-0.00025388048379682004,0.999398946762085,0.0,0.0,0.0,4.019505023956299,-1.4914580583572388,8.043290138244629,-727.5383911132812,0
763.2389999999996,0.013567155227065086,-8.63746608956717e-05,-0.00029775258735753596,0.0,0.0,0.0,0.0,-0.002993776462972164,-0.0016961839282885194,0.003806532360613346,0.9992305636405945,0.0,0.0,0.0,4.019505023956299,-1.4914580583572388,8.043290138244629,-727.5383911132812,0
773.1650000000009,0.013482969254255295,-9.592029527993873e-05,-0.0003065697674173862,0.0,0.0,0.0,0.0,0.0006482369499281049,0.00033871084451675415,0.001987796276807785,0.9989776611328125,0.0,0.0,0.0,4.016906261444092,-1.4899953603744507,8.039233207702637,-727.0680541992188,0
783.0730000000003,0.01340495701879263,-0.00010610798926791176,-0.0003148311807308346,0.0,0.0,0.0,0.0,2.139759817509912e-05,0.0020467748399823904,0.00040500127943232656,0.9972850680351257,0.0,0.0,0.0,4.0126566886901855,-1.489174246788025,8.03364372253418,-726.298828125,0
792.9840000000004,0.013325171545147896,-0.00011660753807518631,-0.00032404239755123854,0.0,0.0,0.0,0.0,-0.0027582498732954264,-0.0016776067204773426,0.0010223245481029153,1.0000147819519043,0.0,0.0,0.0,4.008753299713135,-1.4802147150039673,8.024490356445312,-725.5923461914062,0
802.8889999999992,0.013243524357676506,-0.00012518440780695528,-0.00033466616878286004,0.0,0.0,0.0,0.0,0.002015915932133794,-0.0014277704758569598,0.002987775718793273,0.9996224641799927,0.0,0.0,0.0,4.00533390045166,-1.4817396402359009,8.016164779663086,-724.973388671875,0
812.8060000000005,0.013160349801182747,-0.00013161276001483202,-0.0003456253616604954,0.0,0.0,0.0,0.0,-0.0009055775590240955,0.00044881197391077876,-0.0019293291261419654,0.9993000030517578,0.0,0.0,0.0,4.001743316650391,-1.4694275856018066,8.009445190429688,-724.323486328125,0
822.7219999999998,0.013076215982437134,-0.00013731069338973612,-0.0003564312937669456,0.0,0.0,0.0,0.0,-0.00027140649035573006,0.00033520717988722026,-0.0021131583489477634,0.9984842538833618,0.0,0.0,0.0,3.9977505207061768,-1.4754784107208252,8.01291275024414,-723.6007690429688,0
832.643,0.012990868650376797,-0.00014328751421999186,-0.0003677979693748057,0.0,0.0,0.0,0.0,0.0001710680517135188,-0.001770481001585722,-0.00016613584011793137,0.9994229078292847,0.0,0.0,0.0,3.9932045936584473,-1.469477891921997,8.001432418823242,-722.7779541015625,0
842.5349999999999,0.012903501279652119,-0.00014942025882191956,-0.0003796927921939641,0.0,0.0,0.0,0.0,0.0017215677071362734,0.0026975409127771854,-0.0006814186926931143,0.9993396997451782,0.0,0.0,0.0,3.9887654781341553,-1.4708589315414429,7.9893293380737305,-721.9745483398438,0
852.4619999999995,0.012813212350010872,-0.00015510813682340086,-0.0003915783599950373,0.0,0.0,0.0,0.0,-0.0008759624324738979,0.0009908420033752918,0.00231506722047925,1.0002466440200806,0.0,0.0,0.0,3.984455108642578,-1.4747648239135742,7.969955921173096,-721.1943359375,0
862.3629999999994,0.012720075435936451,-0.00016025551303755492,-0.00040350621566176414,0.0,0.0,0.0,0.0,-0.0007526581757701933,0.002865108195692301,-0.00039954541716724634,1.0002415180206299,0.0,0.0,0.0,3.980721950531006,-1.4721204042434692,7.96840763092041,-720.5185546875,0
872.2849999999999,0.012624438852071762,-0.00016576310736127198,-0.0004150271706748754,0.0,0.0,0.0,0.0,0.004431459121406078,-0.0015591821866109967,0.003884617006406188,1.0001857280731201,0.0,0.0,0.0,3.975757360458374,-1.4686461687088013,7.959390640258789,-719.6199951171875,0
882.1859999999997,0.012526151724159718,-0.00017150808707810938,-0.00042606372153386474,0.0,0.0,0.0,0.0,0.0009722604299895465,-0.00045384682016447186,0.0008441957761533558,1.000594139099121,0.0,0.0,0.0,3.9711899757385254,-1.47153902053833,7.942434310913086,-718.7932739257812,0
892.1049999999996,0.012425237335264683,-0.00017617341654840857,-0.00043664887198247015,0.0,0.0,0.0,0.0,-0.0014290862018242478,-0.004350472707301378,0.0015870791394263506,1.0016968250274658,0.0,0.0,0.0,3.9666802883148193,-1.4760713577270508,7.9351983070373535,-717.97705078125,0
902.0079999999998,0.012321335263550282,-0.00018099171575158834,-0.0004460865166038275,0.0,0.0,0.0,0.0,-0.00206630933098495,0.004440269432961941,4.411404734128155e-05,0.999742865562439,0.0,0.0,0.0,3.963317394256592,-1.4796842336654663,7.929050445556641,-717.3683471679688,0
911.9349999999995,0.012213869951665401,-0.00018750135495793074,-0.0004544126568362117,0.0,0.0,0.0,0.0,0.003825761377811432,-0.002027041045948863,-0.003924636170268059,1.000422477722168,0.0,0.0,0.0,3.9592607021331787,-1.4730662107467651,7.916841983795166,-716.6340942382812,0
921.8430000000008,0.012102315202355385,-0.00019385626364964992,-0.0004623856511898339,0.0,0.0,0.0,0.0,0.000565892260055989,0.005886439234018326,-0.0016975135076791048,1.002434492111206,0.0,0.0,0.0,3.9549906253814697,-1.469209909439087,7.906097412109375,-715.8612060546875,0
931.7610000000004,0.011986356228590012,-0.00019900155893992633,-0.00046972822747193277,0.0,0.0,0.0,0.0,0.004673931747674942,0.002531785052269697,-0.0011247373186051846,1.0018969774246216,0.0,0.0,0.0,3.9509665966033936,-1.4665158987045288,7.893263816833496,-715.1327514648438,0
941.6620000000003,0.01186638604849577,-0.00020376054453663528,-0.00047503577661700547,0.0,0.0,0.0,0.0,-0.004305550828576088,-0.00023321810294874012,0.002262340858578682,1.0016493797302246,0.0,0.0,0.0,3.946037769317627,-1.471299171447754,7.8781280517578125,-714.2406616210938,0
951.5840000000007,0.011743522249162197,-0.00020873385074082762,-0.0004777856229338795,0.0,0.0,0.0,0.0,0.00047881450154818594,-0.00024786798167042434,0.0032382921781390905,0.9999955892562866,0.0,0.0,0.0,3.9428601264953613,-1.4654678106307983,7.863364219665527,-713.66552734375,0
961.4830000000002,0.011617937125265598,-0.00021469661442097276,-0.0004790161328855902,0.0,0.0,0.0,0.0,0.0016388798831030726,-0.0013830671086907387,-0.0006620470667257905,1.001235842704773,0.0,0.0,0.0,3.9395508766174316,-1.456883192062378,7.864402770996094,-713.0665893554688,0
971.4040000000005,0.011488744989037514,-0.00022080738563090563,-0.00047935170005075634,0.0,0.0,0.0,0.0,0.0015106518985703588,2.0986699382774532e-05,-0.0001338390720775351,1.001168966293335,0.0,0.0,0.0,3.936208724975586,-1.4548983573913574,7.861612319946289,-712.4616088867188,0
981.3080000000009,0.013873624615371227,-0.0006414510426111519,0.000909044872969389,0.0,0.0,0.0,0.0,-0.0009774818317964673,-0.00023276242427527905,-0.0007041849312372506,1.0011415481567383,0.0,0.0,0.0,3.9287006855010986,-1.5388493537902832,8.200712203979492,-711.1026611328125,0
991.2379999999994,0.013831834308803082,-0.0006625599344260991,0.0009561418555676937,0.0,0.0,0.0,0.0,-9.108292579185218e-05,-0.0044195204973220825,0.00044686123146675527,1.0023114681243896,0.0,0.0,0.0,3.924807548522949,-1.5451247692108154,8.199355125427246,-710.3980102539062,0
1001.1329999999998,0.01378793828189373,-0.0006850926438346505,0.0010050778510048985,0.0,0.0,0.0,0.0,0.0020526417065411806,0.005246829707175493,-0.0010158030781894922,0.9984374642372131,0.0,0.0,0.0,3.920259475708008,-1.5431605577468872,8.191240310668945,-709.57470703125,0
1011.0560000000005,0.013741660863161087,-0.0007081956136971712,0.0010553086176514626,0.0,0.0,0.0,0.0,-0.0015424307202920318,-0.0005169489304535091,-0.002383346436545253,0.9976564049720764,0.0,0.0,0.0,3.916335105895996,-1.5449796915054321,8.183492660522461,-708.8643798828125,0
1020.9570000000003,0.013753476552665234,-0.0007607483421452343,0.0011944222496822476,0.0,0.0,0.0,0.0,-0.0038842661306262016,-0.0036925633903592825,0.0013466697419062257,1.0009784698486328,0.0,0.0,0.0,3.9116013050079346,-1.5366486310958862,8.16896915435791,-708.007568359375,0
1030.8899999999994,0.013660124503076077,-0.0008112280629575253,0.0013003521598875523,0.0,0.0,0.0,0.0,0.0008756511379033327,0.002058485522866249,-0.001301977434195578,1.0002504587173462,0.0,0.0,0.0,3.9035322666168213,-1.523318886756897,8.166048049926758,-706.547119140625,0
1040.7819999999992,0.013660124503076077,-0.0008112280629575253,0.0013003521598875523,0.0,0.0,0.0,0.0,0.00012016669643344358,0.004152204375714064,-0.00288765924051404,1.0008951425552368,0.0,0.0,0.0,3.9035322666168213,-1.523318886756897,8.166048049926758,-706.547119140625,0
1050.7090000000007,0.013560152612626553,-0.0008627298520877957,0.0014091234188526869,0.0,0.0,0.0,0.0,0.0013032524148002267,0.0005970599595457315,0.002813499653711915,0.999163031578064,0.0,0.0,0.0,3.8966901302337646,-1.5240559577941895,8.15180778503418,-705.3086547851562,0
1060.607,0.013560152612626553,-0.0008627298520877957,0.0014091234188526869,0.0,0.0,0.0,0.0,0.002184628276154399,-0.0013660810654982924,-0.0026877494528889656,1.000949740409851,0.0,0.0,0.0,3.8966901302337646,-1.5240559577941895,8.15180778503418,-705.3086547851562,0
1070.5380000000005,0.013452020473778248,-0.0009110518731176853,0.0015190374106168747,0.0,0.0,0.0,0.0,0.0011324506485834718,0.0007850886322557926,0.0020459177903831005,0.9993170499801636,0.0,0.0,0.0,3.888960599899292,-1.5296144485473633,8.1363525390625,-703.9095458984375,0
1080.4339999999993,0.013593439012765884,-0.0008904245914891362,0.0016139905201271176,0.0,0.0,0.0,0.0,-0.001748139737173915,-0.0031417750287801027,-0.0028950413689017296,0.9989863634109497,0.0,0.0,0.0,3.885542869567871,-1.5337225198745728,8.196791648864746,-703.2909545898438,0
1090.366,0.013498447835445404,-0.0009361442062072456,0.0017402032390236855,0.0,0.0,0.0,0.0,0.003251344431191683,-0.0036009112372994423,0.0005757630569860339,0.9994348287582397,0.0,0.0,0.0,3.878065824508667,-1.527410626411438,8.1876220703125,-701.9376220703125,0
1100.2700000000004,0.013498447835445404,-0.0009361442062072456,0.0017402032390236855,0.0,0.0,0.0,0.0,0.003837901633232832,-0.0015288864960893989,-0.00021371834736783057,1.001147985458374,0.0,0.0,0.0,3.878065824508667,-1.527410626411438,8.1876220703125,-701.9376220703125,0
1110.1890000000003,0.013442939147353172,-0.000959917379077524,0.001808810280635953,0.0,0.0,0.0,0.0,-0.001306426478549838,0.0020684038754552603,4.657007957575843e-05,0.9992155432701111,0.0,0.0,0.0,3.8746376037597656,-1.5215867757797241,8.188323020935059,-701.3170776367188,0
1120.0920000000006,0.013390532694756985,-0.000982356839813292,0.0018715874757617712,0.0,0.0,0.0,0.0,-0.0017619008431211114,0.002442094497382641,0.0012660565553233027,0.995976984500885,0.0,0.0,0.0,3.8719024658203125,-1.5189192295074463,8.17552661895752,-700.8220825195312,0
1130.009,0.013335708528757095,-0.0010060161584988236,0.0019336523255333304,0.0,0.0,0.0,0.0,-0.002933779265731573,-0.0046111829578876495,0.0063757626339793205,0.9979453086853027,0.0,0.0,0.0,3.866501569747925,-1.5159456729888916,8.16629409790039,-699.8445434570312,0
1139.9099999999999,0.013277892023324966,-0.0010308048222213984,0.001993094803765416,0.0,0.0,0.0,0.0,-0.00029559474205598235,0.0008278294699266553,0.0024527637287974358,1.0000706911087036,0.0,0.0,0.0,3.8641104698181152,-1.5129708051681519,8.158888816833496,-699.4116821289062,0
1149.8320000000003,0.01418184395879507,9.529046656098217e-05,-0.00032795974402688444,0.0,0.0,0.0,0.0,0.0016746243927627802,-0.00039992688107304275,0.001540152938105166,1.000368595123291,0.0,0.0,0.0,3.896735906600952,-1.3884508609771729,8.252598762512207,-705.3170166015625,0
1159.7360000000008,0.014142115600407124,0.00010463138460181653,-0.0003162211214657873,0.0,0.0,0.0,0.0,0.0010632663033902645,0.0011331841815263033,-0.0031749566551297903,0.9994136095046997,0.0,0.0,0.0,3.8930022716522217,-1.3857258558273315,8.239803314208984,-704.6412353515625,0
1169.652,0.014101224020123482,0.00011572581570362672,-0.0003087723453063518,0.0,0.0,0.0,0.0,-0.004872115794569254,0.0008789010462351143,0.002121097408235073,0.9996296167373657,0.0,0.0,0.0,3.9194798469543457,-1.3961892127990723,8.23010540008545,-709.4336547851562,0
1179.5560000000005,0.01436858344823122,-2.6621835786500014e-05,-0.00020021855016238987,0.0,0.0,0.0,0.0,0.002118603093549609,0.0011458545923233032,-0.001894039218313992,1.000266671180725,0.0,0.0,0.0,3.9137187004089355,-1.4428287744522095,8.298773765563965,-708.390869140625,0
1189.4760000000006,0.014399263076484203,7.067665865179151e-05,-0.00023588562908116728,0.0,0.0,0.0,0.0,-0.0006058542057871819,-0.001142555964179337,0.0024624404031783342,1.0006972551345825,0.0,0.0,0.0,3.928999423980713,-1.4262309074401855,8.29399299621582,-711.15673828125,0
1199.3860000000004,0.014369695447385311,7.570528396172449e-05,-0.00021988853404764086,0.0,0.0,0.0,0.0,-0.0013817093567922711,-0.0011954244691878557,-0.004025814589112997,0.9984244704246521,0.0,0.0,0.0,3.925478458404541,-1.4308279752731323,8.287302017211914,-710.5194091796875,0
1209.3109999999997,0.014363434165716171,0.0001208500616485253,-0.00023089387104846537,0.0,0.0,0.0,0.0,-0.002247098833322525,-0.005269253626465797,-0.001258504344150424,0.999328076839447,0.0,0.0,0.0,3.9574499130249023,-1.4257378578186035,8.28327465057373,-716.3063354492188,0
1219.2090000000007,0.014443911612033844,1.7458945876569487e-05,-0.00023653917014598846,0.0,0.0,0.0,0.0,-0.0032323389314115047,-0.001482863794080913,-0.0022263776045292616,1.0014764070510864,0.0,0.0,0.0,3.9529619216918945,-1.4256410598754883,8.284911155700684,-715.4940185546875,0
1229.1450000000004,0.014442699030041695,7.178313535405323e-05,-0.00024628284154459834,0.0,0.0,0.0,0.0,0.0011407183483242989,0.0027930454816669226,-0.0020460085943341255,0.9997323155403137,0.0,0.0,0.0,3.9671003818511963,-1.410719633102417,8.275635719299316,-718.0530395507812,0
1239.0300000000007,0.014408712275326252,7.411598926410079e-05,-0.00023568305186927319,0.0,0.0,0.0,0.0,-0.002146742772310972,-0.0019290754571557045,0.0025683024432510138,1.000454306602478,0.0,0.0,0.0,3.963487386703491,-1.4084762334823608,8.266030311584473,-717.399169921875,0
1248.9539999999997,0.014396139420568943,0.0001233896764460951,-0.0002472286287229508,0.0,0.0,0.0,0.0,0.0026714482810348272,0.0019466143567115068,-0.0016877413727343082,1.0002714395523071,0.0,0.0,0.0,3.9748010635375977,-1.3982110023498535,8.259811401367188,-719.4468994140625,0
1258.8619999999992,0.014357483945786953,0.00012843070726376027,-0.00023759817122481763,0.0,0.0,0.0,0.0,0.002343665109947324,0.0005981630529277027,0.0008638918516226113,1.0025477409362793,0.0,0.0,0.0,3.9707064628601074,-1.4036954641342163,8.251023292541504,-718.7057495117188,0
1268.7780000000002,0.014333892613649368,0.00015897101548034698,-0.0002564278256613761,0.0,0.0,0.0,0.0,-0.003226357512176037,-0.004625075496733189,0.003149436553940177,1.001376986503601,0.0,0.0,0.0,3.991386890411377,-1.3990135192871094,8.244929313659668,-722.448974609375,0
1278.6800000000003,0.014291845262050629,0.00016744923777878284,-0.0002463550481479615,0.0,0.0,0.0,0.0,0.0002605048066470772,0.001523390761576593,-0.0008776174508966506,1.0003944635391235,0.0,0.0,0.0,3.9880154132843018,-1.3997681140899658,8.243298530578613,-721.8387451171875,0
1288.6180000000004,0.014262760989367962,0.00019726791651919484,-0.00026670348597690463,0.0,0.0,0.0,0.0,0.0009450718061998487,0.002342491177842021,0.00039675962761975825,0.9995113015174866,0.0,0.0,0.0,4.003251552581787,-1.3916404247283936,8.240962982177734,-724.5964965820312,0
1298.5040000000008,0.014219570904970169,0.00020869725267402828,-0.0002573360688984394,0.0,0.0,0.0,0.0,0.0006226079422049224,-0.00041769680683501065,-0.0005236468277871609,1.0002647638320923,0.0,0.0,0.0,3.999695062637329,-1.3847053050994873,8.22424602508545,-723.9527587890625,0
1308.4320000000007,0.014189050532877445,0.00023768488608766347,-0.00028569367714226246,0.0,0.0,0.0,0.0,0.0035069864243268967,-9.14689662749879e-05,0.005174561403691769,0.9990246295928955,0.0,0.0,0.0,4.011603355407715,-1.3749979734420776,8.224382400512695,-726.1082153320312,0
1318.339,0.014399874024093151,2.80889289570041e-05,-0.0002548320044297725,0.0,0.0,0.0,0.0,0.00019529454584699124,0.00263453321531415,-0.0011609997600317001,0.9987500309944153,0.0,0.0,0.0,4.000114440917969,-1.4198633432388306,8.253515243530273,-724.0286254882812,0
1328.2630000000008,0.01439678855240345,0.00010779946751426905,-0.00026914599584415555,0.0,0.0,0.0,0.0,-0.0033557722344994545,0.000896482786629349,0.0018293937901034951,1.0005507469177246,0.0,0.0,0.0,4.014217376708984,-1.4166781902313232,8.246539115905762,-726.5814208984375,0
1338.1599999999999,0.014356541447341442,0.00011911089677596465,-0.0002651045215316117,0.0,0.0,0.0,0.0,0.0030883082654327154,-0.0014377082698047161,-0.003094747429713607,1.0001624822616577,0.0,0.0,0.0,4.009456157684326,-1.408610224723816,8.23523235321045,-725.7195434570312,0
1348.0830000000005,0.014327473938465118,0.00016397084982600063,-0.00027083943132311106,0.0,0.0,0.0,0.0,0.003829853143543005,0.005041567143052816,0.004619811195880175,0.9988912343978882,0.0,0.0,0.0,4.023444175720215,-1.4020791053771973,8.224207878112793,-728.25146484375,0
1357.9789999999994,0.014444987289607525,3.649655627668835e-05,-0.00027232160209678113,0.0,0.0,0.0,0.0,-0.0008965567103587091,-0.0007496609468944371,0.0016110939905047417,0.9992443919181824,0.0,0.0,0.0,4.012988567352295,-1.4281933307647705,8.218884468078613,-726.35888671875,0
1367.9079999999994,0.014375866390764713,0.00010490178829059005,-0.0002737737668212503,0.0,0.0,0.0,0.0,-0.001118753687478602,-0.0013624387793242931,-0.0006848384509794414,0.9995142221450806,0.0,0.0,0.0,4.0180768966674805,-1.419111967086792,8.195029258728027,-727.2799072265625,0
1377.8029999999999,0.014375866390764713,0.00010490178829059005,-0.0002737737668212503,0.0,0.0,0.0,0.0,0.0006082957843318582,-0.000677385542076081,-0.003466993337497115,0.9987286329269409,0.0,0.0,0.0,4.0180768966674805,-1.419111967086792,8.195029258728027,-727.2799072265625,0
1387.732,0.014261258766055107,0.0001457141333958134,-0.0002276870363857597,0.0,0.0,0.0,0.0,-0.00013808879884891212,0.0015234681777656078,0.0012040459550917149,0.9991077184677124,0.0,0.0,0.0,4.019291400909424,-1.4114233255386353,8.18460464477539,-727.499755859375,0
1397.6329999999998,0.014261258766055107,0.0001457141333958134,-0.0002276870363857597,0.0,0.0,0.0,0.0,-0.0012576977023854852,0.0004395302676130086,0.0020552321802824736,1.0035418272018433,0.0,0.0,0.0,4.019291400909424,-1.4114233255386353,8.18460464477539,-727.499755859375,0
1407.558000000001,0.014149564318358898,0.00013427232624962926,-0.00021444969752337784,0.0,0.0,0.0,0.0,-0.002870104508474469,-0.0050009796395897865,0.0025951301213353872,1.0016827583312988,0.0,0.0,0.0,4.019155502319336,-1.4111073017120361,8.163543701171875,-727.4751586914062,0
1417.455,0.014149564318358898,0.00013427232624962926,-0.00021444969752337784,0.0,0.0,0.0,0.0,0.0025920483749359846,0.002974535571411252,-0.0026245922781527042,0.9988417625427246,0.0,0.0,0.0,4.019155502319336,-1.4111073017120361,8.163543701171875,-727.4751586914062,0
1427.3760000000002,0.014123163186013699,0.00019487680401653051,-0.0002738863986451179,0.0,0.0,0.0,0.0,0.002270979341119528,-0.0016612497856840491,-3.039386456293869e-06,0.9995400309562683,0.0,0.0,0.0,4.031766414642334,-1.393843173980713,8.174880981445312,-729.7577514648438,0
1437.2909999999993,0.014067988842725754,0.00021053414093330503,-0.00026998345856554806,0.0,0.0,0.0,0.0,-0.00098294741474092,1.3751662663707975e-05,-0.0014759156620129943,1.0012065172195435,0.0,0.0,0.0,4.028462886810303,-1.396376371383667,8.167545318603516,-729.1597900390625,0
1447.2039999999997,0.014037647284567356,0.00025697750970721245,-0.00033167959190905094,0.0,0.0,0.0,0.0,0.0013575070770457387,-0.00187713373452425,-0.0005260921898297966,1.0006577968597412,0.0,0.0,0.0,4.039311408996582,-1.3819544315338135,8.178360939025879,-731.1233520507812,0
1457.1059999999998,0.01397955883294344,0.00027571647660806775,-0.00033294351305812597,0.0,0.0,0.0,0.0,-0.0027576417196542025,-0.002100200392305851,-0.0015630286652594805,0.9996296763420105,0.0,0.0,0.0,4.035310745239258,-1.3819233179092407,8.173662185668945,-730.3992309570312,0
1467.027,0.013946362771093845,0.00030710650025866926,-0.00040243862895295024,0.0,0.0,0.0,0.0,0.00102814263664186,-0.0003901058516930789,-0.0017560443375259638,0.9996419548988342,0.0,0.0,0.0,4.047143459320068,-1.3792574405670166,8.1881742477417,-732.541015625,0
1476.929,0.013887671753764153,0.0003301333636045456,-0.0004080801736563444,0.0,0.0,0.0,0.0,-0.0012823630822822452,0.0014793536392971873,0.0029664814937859774,0.9979658722877502,0.0,0.0,0.0,4.042304515838623,-1.3721110820770264,8.177931785583496,-731.6651611328125,0
1486.8510000000006,0.013864124193787575,0.0003521195030771196,-0.0005204915069043636,0.0,0.0,0.0,0.0,0.003447003196924925,0.00033335364423692226,0.0012653535231947899,0.999893069267273,0.0,0.0,0.0,4.048471450805664,-1.366172432899475,8.197809219360352,-732.7813720703125,0
1496.7520000000004,0.014364748261868954,5.7446213759249076e-05,-0.00030226341914385557,0.0,0.0,0.0,0.0,7.133771578082815e-05,0.000748253136407584,-0.0028876462019979954,0.9988796710968018,0.0,0.0,0.0,4.03712797164917,-1.437503457069397,8.294840812683105,-730.7281494140625,0
1506.6730000000007,0.014386494643986225,0.00014874432235956192,-0.0003575741429813206,0.0,0.0,0.0,0.0,-0.0017902321415022016,-0.00032834845478646457,0.001190650975331664,0.9985542297363281,0.0,0.0,0.0,4.041720867156982,-1.417593240737915,8.29736614227295,-731.5594482421875,0
1516.5810000000001,0.014433651231229305,5.801137012895197e-05,-0.00039672080310992897,0.0,0.0,0.0,0.0,-0.001060629147104919,0.002312783384695649,0.001947169192135334,0.9978827238082886,0.0,0.0,0.0,4.028561592102051,-1.42930006980896,8.288430213928223,-729.1776733398438,0
1526.5110000000004,0.014359521679580212,8.223694021580741e-05,-0.000342803105013445,0.0,0.0,0.0,0.0,0.0009199567139148712,-0.0005227358196862042,0.0009313825867138803,0.9996374845504761,0.0,0.0,0.0,4.034448623657227,-1.4261724948883057,8.272704124450684,-730.2432250976562,0
1536.4120000000003,0.014415841549634933,9.811019481276162e-07,-0.0003718656371347606,0.0,0.0,0.0,0.0,0.0016967213014140725,0.0028896662406623363,-0.0025877286680042744,0.999592661857605,0.0,0.0,0.0,4.030797004699707,-1.4304600954055786,8.270883560180664,-729.582275390625,0
1546.3310000000001,0.014380427077412605,5.2223429520381615e-05,-0.0003695964114740491,0.0,0.0,0.0,0.0,0.0020494761411100626,0.0005797930643893778,0.000241372428718023,1.000885248184204,0.0,0.0,0.0,4.03769063949585,-1.4217795133590698,8.260372161865234,-730.8300170898438,0
1556.2330000000002,0.01434199046343565,7.173667836468667e-05,-0.0003783767460845411,0.0,0.0,0.0,0.0,-0.001336342771537602,-0.0017060134559869766,0.002163275144994259,0.9997628331184387,0.0,0.0,0.0,4.033620357513428,-1.4259577989578247,8.244263648986816,-730.09326171875,0
1566.1450000000004,0.014307553879916668,0.0001370065874652937,-0.0003772857889998704,0.0,0.0,0.0,0.0,0.0015396032249554992,0.0028189043514430523,0.0012670316500589252,0.9990694522857666,0.0,0.0,0.0,4.039247512817383,-1.4183554649353027,8.230220794677734,-731.11181640625,0
1576.0589999999993,0.014266218058764935,0.0001621899864403531,-0.0003845003666356206,0.0,0.0,0.0,0.0,0.0003733895719051361,-0.000619416416157037,0.005033247172832489,1.0017375946044922,0.0,0.0,0.0,4.035249710083008,-1.4250273704528809,8.219535827636719,-730.38818359375,0
1585.9680000000008,0.014208233915269375,0.0002075245720334351,-0.00035390997072681785,0.0,0.0,0.0,0.0,0.00038504143594764173,0.007490622811019421,-0.0013705426827073097,1.001104712486267,0.0,0.0,0.0,4.0449442863464355,-1.4110583066940308,8.212063789367676,-732.1430053710938,0
1595.884,0.014163543470203876,0.0002359916252316907,-0.0003568877000361681,0.0,0.0,0.0,0.0,0.00373100652359426,0.0017026636051014066,0.0008332118741236627,0.9992578625679016,0.0,0.0,0.0,4.0410380363464355,-1.4156103134155273,8.192184448242188,-731.4359130859375,0
1605.799000000001,0.014108844101428986,0.00026132180937565863,-0.00034058187156915665,0.0,0.0,0.0,0.0,-0.002024170709773898,-0.001055249129422009,-0.0025007815565913916,0.999466061592102,0.0,0.0,0.0,4.049145221710205,-1.4201650619506836,8.172499656677246,-732.9033203125,0
1615.7129999999997,0.014060692861676216,0.0002909736358560622,-0.00034112908178940415,0.0,0.0,0.0,0.0,-0.002785265678539872,0.0016725517343729734,-0.00298120710067451,1.0011067390441895,0.0,0.0,0.0,4.044773578643799,-1.4150111675262451,8.171197891235352,-732.112060546875,0
1625.6190000000006,0.014026905409991741,0.0003319359675515443,-0.00037751367199234664,0.0,0.0,0.0,0.0,0.00025648801238276064,-0.0014595519751310349,-0.00017098808893933892,0.9989993572235107,0.0,0.0,0.0,4.051217555999756,-1.4063630104064941,8.16441535949707,-733.2784423828125,0
1635.5439999999999,0.013977785594761372,0.0003628730191849172,-0.00038116882205940783,0.0,0.0,0.0,0.0,-0.0028354439418762922,-0.0039537688717246056,-0.0013591048773378134,0.9997707605361938,0.0,0.0,0.0,4.046997547149658,-1.4008352756500244,8.162795066833496,-732.5146484375,0
1645.441999999999,0.013937649317085743,0.0003210942377336323,-0.0004408069362398237,0.0,0.0,0.0,0.0,-0.0013740871800109744,-0.001084175775758922,0.0025332411751151085,0.9991772174835205,0.0,0.0,0.0,4.057643890380859,-1.425079584121704,8.16277027130127,-734.441650390625,0
1655.3520000000008,0.013883957639336586,0.00034952000714838505,-0.00044939565123058856,0.0,0.0,0.0,0.0,-0.0006042433087714016,-0.007760969921946526,-0.0018149982206523418,0.9999974966049194,0.0,0.0,0.0,4.05403995513916,-1.4233747720718384,8.165748596191406,-733.789306640625,0
1665.2749999999996,0.013843607157468796,0.0003660155925899744,-0.0005042486591264606,0.0,0.0,0.0,0.0,-0.0002978036063723266,0.003089010715484619,0.0010895805899053812,0.9986473321914673,0.0,0.0,0.0,4.060896396636963,-1.4272871017456055,8.172839164733887,-735.0303344726562,0
1675.1890000000003,0.013787766918540001,0.00039442922570742667,-0.0005172709934413433,0.0,0.0,0.0,0.0,0.004637922625988722,-0.002920812228694558,0.002262801630422473,0.9995734691619873,0.0,0.0,0.0,4.057158946990967,-1.4280107021331787,8.169035911560059,-734.3538208007812,0
1685.0949999999993,0.013745450414717197,0.000400859717046842,-0.0005776379257440567,0.0,0.0,0.0,0.0,-0.002024783054366708,-0.0013110332656651735,-0.000919675687327981,1.0005930662155151,0.0,0.0,0.0,4.063453674316406,-1.4330066442489624,8.164267539978027,-735.4931640625,0
1695.0079999999998,0.013688389211893082,0.0004284668539185077,-0.0005950531922280788,0.0,0.0,0.0,0.0,4.2383479012642056e-05,5.309148400556296e-05,-0.003769577480852604,0.9998670220375061,0.0,0.0,0.0,4.0590128898620605,-1.4343115091323853,8.158367156982422,-734.6893920898438,0
1704.9159999999993,0.013644751161336899,0.00042831944301724434,-0.0006612815777771175,0.0,0.0,0.0,0.0,0.0017017378704622388,-0.0047022495418787,0.00046759311226196587,0.9993994832038879,0.0,0.0,0.0,4.065835952758789,-1.442839503288269,8.150300979614258,-735.9243774414062,0
1714.8469999999998,0.013585329055786133,0.00045516894897446036,-0.0006819016998633742,0.0,0.0,0.0,0.0,-0.0005092509090900421,-0.0007923337980173528,8.385670662391931e-05,0.9992232322692871,0.0,0.0,0.0,4.061024188995361,-1.4403533935546875,8.14770221710205,-735.053466796875,0
1724.7450000000008,0.013540214858949184,0.0004622389387805015,-0.0007499702624045312,0.0,0.0,0.0,0.0,-0.001951492391526699,-0.004707460757344961,-0.0004922841326333582,0.9989970326423645,0.0,0.0,0.0,4.070099830627441,-1.4433393478393555,8.153371810913086,-736.6961059570312,0
1734.6650000000009,0.013479194603860378,0.00048814385081641376,-0.0007758166175335646,0.0,0.0,0.0,0.0,-0.0023883541580289602,-0.0028871758840978146,-0.000827001582365483,0.9969854950904846,0.0,0.0,0.0,4.065529823303223,-1.441514492034912,8.147919654846191,-735.8689575195312,0
1744.566999999999,0.013431874103844166,0.0004955053445883095,-0.0008478365489281714,0.0,0.0,0.0,0.0,2.1560461391345598e-05,0.002859948668628931,-0.0007756472914479673,0.9995760917663574,0.0,0.0,0.0,4.072628498077393,-1.4473086595535278,8.153336524963379,-737.1538696289062,0
1754.4860000000008,0.013368556275963783,0.0005216750432737172,-0.0008799337665550411,0.0,0.0,0.0,0.0,0.002389610977843404,0.0009648214909248054,-0.0019943558145314455,0.9989529252052307,0.0,0.0,0.0,4.068974018096924,-1.4395569562911987,8.152759552001953,-736.4923706054688,0
1764.3889999999992,0.013315647840499878,0.0005242846673354506,-0.0009561321348883212,0.0,0.0,0.0,0.0,0.00029804842779412866,-0.0012524646008387208,0.0003106952353846282,1.0003771781921387,0.0,0.0,0.0,4.076198101043701,-1.442121982574463,8.142829895019531,-737.800048828125,0
1774.313,0.014396809041500092,9.456728730583563e-05,-0.00030586536740884185,0.0,0.0,0.0,0.0,-0.0007285973988473415,0.0036291738506406546,-0.00015476135013159364,1.0004947185516357,0.0,0.0,0.0,4.062048435211182,-1.5382848978042603,8.339046478271484,-735.2388916015625,0
1784.2250000000004,0.014380902983248234,0.00012913912360090762,-0.000307507929392159,0.0,0.0,0.0,0.0,0.00269634323194623,-0.0006849158671684563,-0.001110157696530223,1.0008925199508667,0.0,0.0,0.0,4.0651702880859375,-1.5384624004364014,8.325935363769531,-735.8038940429688,0
1794.1479999999992,0.014358400367200375,0.000136201037093997,-0.0003160989435855299,0.0,0.0,0.0,0.0,-0.0023979831021279097,0.002733382396399975,0.00048267512465827167,1.0014632940292358,0.0,0.0,0.0,4.060268402099609,-1.5397456884384155,8.319762229919434,-734.9166870117188,0
1804.0380000000005,0.014341659843921661,0.0001537023053970188,-0.00033190406975336373,0.0,0.0,0.0,0.0,-0.002607885980978608,-0.002376337768509984,-0.0024703647941350937,1.00010085105896,0.0,0.0,0.0,4.064330101013184,-1.538249135017395,8.303495407104492,-735.6517944335938,0
1813.9590000000007,0.014315682463347912,0.00016016780864447355,-0.00033859387622214854,0.0,0.0,0.0,0.0,0.0010219404939562082,0.006535045802593231,-0.00780917052179575,0.9989573955535889,0.0,0.0,0.0,4.059548377990723,-1.5305380821228027,8.293782234191895,-734.7863159179688,0
1823.8610000000008,0.014290285296738148,0.00017439933435525745,-0.0003469650400802493,0.0,0.0,0.0,0.0,-9.27862711250782e-05,-0.0009155230363830924,-0.0027295027393847704,0.9998300075531006,0.0,0.0,0.0,4.066995143890381,-1.523463487625122,8.28747844696045,-736.1342163085938,0
1833.795,0.0144187705591321,3.0004533982719295e-05,-0.0003630001738201827,0.0,0.0,0.0,0.0,0.0021952050738036633,0.00047995150089263916,-0.0016401129541918635,1.0004819631576538,0.0,0.0,0.0,4.0539727210998535,-1.5451042652130127,8.28735637664795,-733.7771606445312,0
1843.6890000000003,0.01439204066991806,7.063792872941121e-05,-0.00036428336170502007,0.0,0.0,0.0,0.0,-0.0017395340837538242,0.0018864660523831844,0.0019173435866832733,1.0012049674987793,0.0,0.0,0.0,4.060676574707031,-1.5408295392990112,8.279704093933105,-734.9905395507812,0
1853.6110000000008,0.01436246931552887,7.56387016735971e-05,-0.0003704134142026305,0.0,0.0,0.0,0.0,-7.748298230580986e-05,-0.0014165453612804413,0.0009532890981063247,1.000377893447876,0.0,0.0,0.0,4.057365894317627,-1.5337903499603271,8.27305793762207,-734.3912963867188,0
1863.5159999999996,0.014332721941173077,0.00010410912364022806,-0.00036738792550750077,0.0,0.0,0.0,0.0,0.0010893814032897353,0.003207375528290868,0.00011287919187452644,1.0014392137527466,0.0,0.0,0.0,4.064809322357178,-1.5277365446090698,8.27281379699707,-735.738525390625,0
1873.4310000000005,0.014298386871814728,0.00010968789138132706,-0.0003704357659444213,0.0,0.0,0.0,0.0,0.000934169685933739,0.0015438975533470511,-0.0019886698573827744,0.9995996952056885,0.0,0.0,0.0,4.059751987457275,-1.52493417263031,8.251961708068848,-734.8231811523438,0
1883.3359999999993,0.014265509322285652,0.00014964447473175824,-0.0003646948025561869,0.0,0.0,0.0,0.0,-0.0022682880517095327,0.004991104360669851,-0.00023940358369145542,1.0007520914077759,0.0,0.0,0.0,4.066279411315918,-1.5244337320327759,8.243396759033203,-736.0046997070312,0
1893.2639999999992,0.014228736981749535,0.0001562696270411834,-0.00036592985270544887,0.0,0.0,0.0,0.0,0.0028061673510819674,0.00447876937687397,-0.0011749450350180268,0.9990925192832947,0.0,0.0,0.0,4.062188625335693,-1.5185489654541016,8.231401443481445,-735.2642211914062,0
1903.161,0.01417558453977108,0.00019753781089093536,-0.0003137241001240909,0.0,0.0,0.0,0.0,-0.0029439490754157305,0.0020640366710722446,-0.0015752430772408843,0.9987260699272156,0.0,0.0,0.0,4.068969249725342,-1.5114694833755493,8.201386451721191,-736.4915161132812,0
1913.0810000000001,0.01413348875939846,0.0002038520760834217,-0.00031109258998185396,0.0,0.0,0.0,0.0,7.457059837179258e-05,0.002879503881558776,0.0024043575394898653,0.9982773661613464,0.0,0.0,0.0,4.064139366149902,-1.5070334672927856,8.19477367401123,-735.6173095703125,0
1922.9860000000008,0.01410242822021246,0.00023589484044350684,-0.0003393743245396763,0.0,0.0,0.0,0.0,0.00032906216802075505,0.0013514665188267827,0.0011092518689110875,0.9979812502861023,0.0,0.0,0.0,4.070642948150635,-1.4986778497695923,8.179388999938965,-736.7944946289062,0
1932.9130000000005,0.014057636260986328,0.00024057505652308464,-0.0003416997496969998,0.0,0.0,0.0,0.0,-4.912432996206917e-05,0.0054228720255196095,-0.0018201875500380993,0.9980056881904602,0.0,0.0,0.0,4.0673909187316895,-1.496752381324768,8.167011260986328,-736.205810546875,0
1942.8199999999997,0.01400679349899292,0.0002608484646771103,-0.00032595416996628046,0.0,0.0,0.0,0.0,-0.002189556136727333,0.0028610441368073225,8.698483725311235e-05,0.9991770386695862,0.0,0.0,0.0,4.069085597991943,-1.4958491325378418,8.153237342834473,-736.5125732421875,0
1952.732,0.013960341922938824,0.0002674073330126703,-0.0003296832146588713,0.0,0.0,0.0,0.0,-0.0007347703794948757,-0.0009402165305800736,0.0003884532779920846,1.0014060735702515,0.0,0.0,0.0,4.064594745635986,-1.4960942268371582,8.123162269592285,-735.69970703125,0
1962.6399999999994,0.013936445116996765,0.00028972906875424087,-0.00039819732774049044,0.0,0.0,0.0,0.0,-0.001434201723895967,-0.0010215557413175702,-0.00026528158923611045,0.9998958706855774,0.0,0.0,0.0,4.074174880981445,-1.4897232055664062,8.129514694213867,-737.433837890625,0
1972.5560000000005,0.013890380971133709,0.0002947844914160669,-0.0004059982893522829,0.0,0.0,0.0,0.0,-0.0016417275182902813,0.0021938977297395468,-0.0023229364305734634,0.9994882941246033,0.0,0.0,0.0,4.069899559020996,-1.4901798963546753,8.124909400939941,-736.6598510742188,0
1982.4660000000003,0.013860180042684078,0.00030894370866008103,-0.000466679863166064,0.0,0.0,0.0,0.0,-0.0028084958903491497,-0.0001529020955786109,-0.0035230880603194237,0.9974857568740845,0.0,0.0,0.0,4.079799652099609,-1.4845716953277588,8.121411323547363,-738.451904296875,0
1992.3829999999998,0.013810547068715096,0.00031367881456390023,-0.0004789118538610637,0.0,0.0,0.0,0.0,0.001558399060741067,0.0021651017013937235,0.0026709819212555885,0.9979753494262695,0.0,0.0,0.0,4.076353073120117,-1.4807422161102295,8.106176376342773,-737.8280639648438,0
2002.286,0.01378234475851059,0.00034594698809087276,-0.0005467321025207639,0.0,0.0,0.0,0.0,0.0023349844850599766,-0.00374778313562274,-0.0010599754750728607,0.9996728897094727,0.0,0.0,0.0,4.081335544586182,-1.4720079898834229,8.107498168945312,-738.7299194335938,0
2012.205,0.013730352744460106,0.00035307317739352584,-0.0005661343457177281,0.0,0.0,0.0,0.0,-0.0005302731296978891,-0.0031860049348324537,-0.0019147350685670972,0.9986231327056885,0.0,0.0,0.0,4.076953411102295,-1.471250057220459,8.104570388793945,-737.9367065429688,0
2022.1170000000002,0.013692991808056831,0.0003617752518039197,-0.0006315732025541365,0.0,0.0,0.0,0.0,0.001014414825476706,-0.005347331985831261,0.004410543944686651,0.9971526861190796,0.0,0.0,0.0,4.0726118087768555,-1.4714277982711792,8.103907585144043,-737.1508178710938,0
2032.0290000000005,0.013638479635119438,0.00037084869109094143,-0.0006560488836839795,0.0,0.0,0.0,0.0,-0.0023584607988595963,0.0018119611777365208,0.0017778311157599092,0.9983128905296326,0.0,0.0,0.0,4.069536209106445,-1.4738457202911377,8.097166061401367,-736.5941772460938,0
2041.938,0.013595841825008392,0.0003850021748803556,-0.0007157997461035848,0.0,0.0,0.0,0.0,0.0002213807456428185,-0.0014162736479192972,-0.0017886508721858263,0.9985036253929138,0.0,0.0,0.0,4.079177379608154,-1.4668852090835571,8.093853950500488,-738.3392333984375,0
2051.8539999999994,0.013538475148379803,0.00039492742507718503,-0.0007463172078132629,0.0,0.0,0.0,0.0,0.0024615738075226545,0.0004896559403277934,0.0017461233073845506,1.0004336833953857,0.0,0.0,0.0,4.075573444366455,-1.454091191291809,8.08973217010498,-737.6868896484375,0
2061.76,0.013492738828063011,0.000406229286454618,-0.0008111504139378667,0.0,0.0,0.0,0.0,-0.0008865335257723927,-0.00249224784784019,-0.0011574836680665612,1.000691533088684,0.0,0.0,0.0,4.086736679077148,-1.457161784172058,8.088677406311035,-739.70751953125,0
2071.6890000000003,0.013432693667709827,0.00041839017649181187,-0.0008443843689747155,0.0,0.0,0.0,0.0,0.0010380134917795658,-0.00013625090650748461,-0.0003580538323149085,1.0004563331604004,0.0,0.0,0.0,4.082221031188965,-1.4593740701675415,8.079814910888672,-738.8901977539062,0
2081.5869999999995,0.01338591706007719,0.0004433414724189788,-0.0009047320345416665,0.0,0.0,0.0,0.0,-0.004447520710527897,0.0036692300345748663,-0.0038474102038890123,0.9985653758049011,0.0,0.0,0.0,4.0886993408203125,-1.4527134895324707,8.069040298461914,-740.062744140625,0
2091.5059999999994,0.01332247443497181,0.00045829120790585876,-0.0009389135520905256,0.0,0.0,0.0,0.0,-0.0031177219934761524,0.0033640966285020113,-0.0016376295825466514,0.9992749691009521,0.0,0.0,0.0,4.08425760269165,-1.4477607011795044,8.06200122833252,-739.2587280273438,0
2101.4120000000003,0.013231039047241211,0.0004396829172037542,-0.0009541718754917383,0.0,0.0,0.0,0.0,-0.0029725302010774612,-0.0017864214023575187,0.003252969356253743,0.9998357892036438,0.0,0.0,0.0,4.092860221862793,-1.4585518836975098,8.04362678527832,-740.8158569335938,0
2111.3359999999993,0.013159661553800106,0.00045381346717476845,-0.000987110659480095,0.0,0.0,0.0,0.0,0.0025097301695495844,0.004421681631356478,0.000451463129138574,0.9994329214096069,0.0,0.0,0.0,4.088474750518799,-1.4500384330749512,8.031042098999023,-740.0220336914062,0
2121.2350000000006,0.013082984834909439,0.00047737310524098575,-0.0010205880971625447,0.0,0.0,0.0,0.0,0.002080077538266778,0.0034334242809563875,-0.0019679514225572348,0.9988875389099121,0.0,0.0,0.0,4.0963664054870605,-1.4429987668991089,8.018375396728516,-741.450439453125,0
2131.165000000001,0.01300652977079153,0.0004928562557324767,-0.001053904416039586,0.0,0.0,0.0,0.0,-0.00026671821251511574,0.0031176351476460695,-0.003484597196802497,0.9968467950820923,0.0,0.0,0.0,4.091805458068848,-1.4436243772506714,7.999345302581787,-740.6249389648438,0
2141.0599999999995,0.012933215126395226,0.0005300450720824301,-0.0010932375444099307,0.0,0.0,0.0,0.0,0.0007595504284836352,-0.00221638148650527,-0.0006233159801922739,0.9990906715393066,0.0,0.0,0.0,4.094334602355957,-1.4308009147644043,7.987027168273926,-741.0827026367188,0
