timestamp,stateEstimate.x,stateEstimate.y,stateEstimate.z,controller.cmd_thrust,controller.cmd_roll,controller.cmd_pitch,controller.cmd_yaw,controller.r_roll,controller.r_pitch,controller.r_yaw,controller.accelz,controller.actuatorThrust,controller.roll,controller.pitch,controller.yaw,controller.rollRate,controller.pitchRate,controller.yawRate,controller.ctr_yaw
0.0,0.01411143783479929,-0.004333642777055502,-0.003707887837663293,0.0,0.0,0.0,0.0,-0.003241051221266389,-0.000828235934022814,-0.002766236662864685,1.0024259090423584,0.0,0.0,0.0,3.058990001678467,6.296816825866699,1.0100090503692627,-553.6832275390625,0
9.89600000000064,0.01408181432634592,-0.004393045790493488,-0.0037478364538401365,0.0,0.0,0.0,0.0,0.0014355974271893501,-0.0033610910177230835,0.004138529766350985,1.0004363059997559,0.0,0.0,0.0,3.0555386543273926,6.29332971572876,1.011418342590332,-553.05859375,0
19.77100000000064,0.014081047847867012,-0.0044263750314712524,-0.0037514318246394396,0.0,0.0,0.0,0.0,-0.002079772064462304,-0.0004822418268304318,-0.003054402768611908,1.002500295639038,0.0,0.0,0.0,3.054175615310669,6.286574840545654,1.012276291847229,-552.8118896484375,0
29.665000000000873,0.01401052251458168,-0.004491071216762066,-0.00380116980522871,0.0,0.0,0.0,0.0,-0.0006952073890715837,-0.0037778986152261496,0.00182741426397115,1.0005064010620117,0.0,0.0,0.0,3.050295352935791,6.2856926918029785,1.0135138034820557,-552.1094970703125,0
39.54199999999946,0.014004988595843315,-0.004528266843408346,-0.0038052748423069715,0.0,0.0,0.0,0.0,0.0008076810045167804,-0.0020080229733139277,0.00041491148294880986,1.0022333860397339,0.0,0.0,0.0,3.047743082046509,6.279576301574707,1.0166127681732178,-551.6475219726562,0
49.4369999999999,0.014017380774021149,-0.004566867370158434,-0.003801906481385231,0.0,0.0,0.0,0.0,-0.0012401279527693987,0.0007903064833953977,0.0014189743669703603,1.0003801584243774,0.0,0.0,0.0,3.045104742050171,6.266329765319824,1.0137156248092651,-551.1699829101562,0
59.3119999999999,0.014113270677626133,-0.003964346833527088,-0.0037396145053207874,0.0,0.0,0.0,0.0,-0.00029266177443787456,0.00037564121885225177,-0.00043927511433139443,1.0000747442245483,0.0,0.0,0.0,3.062008857727051,6.494569778442383,1.0359747409820557,-554.2296752929688,0
69.21800000000076,0.014208914712071419,-0.0040840646252036095,-0.0038040042854845524,0.0,0.0,0.0,0.0,5.2429939387366176e-05,0.005700521636754274,-0.0014554935041815042,1.000227689743042,0.0,0.0,0.0,3.0642783641815186,6.444789886474609,1.047696828842163,-554.6405029296875,0
79.08300000000054,0.01421195175498724,-0.004082489758729935,-0.003794983495026827,0.0,0.0,0.0,0.0,0.0007109470316208899,0.0034797312691807747,-0.0008325980161316693,1.0029321908950806,0.0,0.0,0.0,3.061176300048828,6.43649435043335,1.0309844017028809,-554.0789794921875,0
88.98899999999958,0.014223429374396801,-0.004189516883343458,-0.003885761834681034,0.0,0.0,0.0,0.0,0.0037508683744817972,-0.0013675607042387128,4.4246382458368316e-05,0.9993224740028381,0.0,0.0,0.0,3.052278995513916,6.390997886657715,1.0159178972244263,-552.4685668945312,0
98.85399999999936,0.014214103110134602,-0.003752877004444599,-0.0035551958717405796,0.0,0.0,0.0,0.0,0.0022599862422794104,0.0051699792966246605,0.0002957840042654425,0.9982474446296692,0.0,0.0,0.0,3.069005012512207,6.514392852783203,1.0141433477401733,-555.4960327148438,0
108.74699999999939,0.014293473213911057,-0.003952307160943747,-0.0036696861498057842,0.0,0.0,0.0,0.0,-0.0011479449458420277,-0.003158130683004856,-0.002716675167903304,0.9996694326400757,0.0,0.0,0.0,3.0744071006774902,6.458384037017822,1.003670334815979,-556.4738159179688,0
118.6239999999998,0.01429801806807518,-0.003947669640183449,-0.0036518066190183163,0.0,0.0,0.0,0.0,-0.0005656826542690396,0.00426673237234354,0.0005571236833930016,1.001507043838501,0.0,0.0,0.0,3.0710883140563965,6.454735279083252,1.0069695711135864,-555.8731079101562,0
128.52399999999943,0.014284919947385788,-0.004084752406924963,-0.0037482816260308027,0.0,0.0,0.0,0.0,-0.0014498828677460551,-0.001779694459401071,0.00202256185002625,1.0005619525909424,0.0,0.0,0.0,3.0719430446624756,6.412658214569092,0.9800567030906677,-556.0277709960938,0
138.39500000000044,0.01428854651749134,-0.0040900507010519505,-0.0037382822483778,0.0,0.0,0.0,0.0,0.0019887445960193872,0.003212848911061883,0.0004166173457633704,1.0007152557373047,0.0,0.0,0.0,3.0681004524230957,6.406845569610596,0.9836770296096802,-555.3323364257812,0
148.29199999999946,0.014205229468643665,-0.004179902840405703,-0.0038154420908540487,0.0,0.0,0.0,0.0,-0.0006018862477503717,-0.00357239181175828,-0.0016105599934235215,1.000760555267334,0.0,0.0,0.0,3.0737664699554443,6.369770526885986,0.9610412120819092,-556.35791015625,0
158.16500000000087,0.01420295424759388,-0.003738328581675887,-0.0035091936588287354,0.0,0.0,0.0,0.0,-0.002656663302332163,-0.0005932257627137005,0.0018963039619848132,0.9998640418052673,0.0,0.0,0.0,3.0947439670562744,6.496346950531006,0.9639549255371094,-560.1548461914062,0
168.0640000000003,0.014198483899235725,-0.003720644861459732,-0.003477300051599741,0.0,0.0,0.0,0.0,0.0015950363595038652,0.00037304326542653143,-0.0018025619210675359,1.0005608797073364,0.0,0.0,0.0,3.0920965671539307,6.491537094116211,0.9626115560531616,-559.6755981445312,0
177.9369999999999,0.014193444512784481,-0.003702346468344331,-0.0034450963139533997,0.0,0.0,0.0,0.0,0.000765640230383724,-0.006844844203442335,-0.0014256081776693463,1.0009479522705078,0.0,0.0,0.0,3.0892889499664307,6.481992721557617,0.9531718492507935,-559.1674194335938,0
187.84300000000076,0.014176841825246811,-0.003923570271581411,-0.0036488804034888744,0.0,0.0,0.0,0.0,-4.5320281060412526e-05,-0.0005585755570791662,-0.00019664052524603903,1.0002903938293457,0.0,0.0,0.0,3.0901222229003906,6.415709018707275,0.9591042399406433,-559.3182373046875,0
197.70700000000033,0.01408363413065672,-0.0035401920322328806,-0.003161443630233407,0.0,0.0,0.0,0.0,-0.0016631294274702668,0.001232096808962524,-0.0013844177592545748,0.9994340538978577,0.0,0.0,0.0,3.105813503265381,6.515086650848389,0.950247585773468,-562.158447265625,0
207.60599999999977,0.014137954451143742,-0.0038285567425191402,-0.0033468669280409813,0.0,0.0,0.0,0.0,0.00243373098783195,-0.0003969985991716385,-0.000890932627953589,0.9991486668586731,0.0,0.0,0.0,3.10015869140625,6.445052146911621,0.9538512825965881,-561.1348876953125,0
217.47700000000077,0.014126372523605824,-0.003818195778876543,-0.0033139167353510857,0.0,0.0,0.0,0.0,0.0012538798619061708,0.0031886317301541567,0.0014574346132576466,0.9986020922660828,0.0,0.0,0.0,3.097144842147827,6.429317951202393,0.9493064284324646,-560.58935546875,0
227.3780000000006,0.014121713116765022,-0.004011121112853289,-0.003447637427598238,0.0,0.0,0.0,0.0,-0.0003139079490210861,-0.0020298734307289124,0.00171869364567101,0.9984576106071472,0.0,0.0,0.0,3.091459035873413,6.369781970977783,0.9359536170959473,-559.5602416992188,0
355.8729999999996,0.013970940373837948,-0.004651345312595367,-0.0037478129379451275,0.0,0.0,0.0,0.0,0.00018120731692761183,-0.0021840459667146206,-0.0015204924857243896,0.9995843768119812,0.0,0.0,0.0,3.056164503097534,6.2198710441589355,0.8892167806625366,-553.1718139648438,0
365.7669999999998,0.013940396718680859,-0.00468651344999671,-0.003744492307305336,0.0,0.0,0.0,0.0,-0.0007704257732257247,0.00045389498700387776,-0.0003185159876011312,1.0001493692398071,0.0,0.0,0.0,3.0520222187042236,6.216964244842529,0.8925080895423889,-552.4220581054688,0
375.64999999999964,0.013929078355431557,-0.004725881852209568,-0.0037445889320224524,0.0,0.0,0.0,0.0,-0.0020906212739646435,0.0026839294005185366,0.003408281598240137,1.000109076499939,0.0,0.0,0.0,3.048800468444824,6.216147422790527,0.8894656896591187,-551.8389282226562,0
385.53600000000006,0.013924086466431618,-0.004755610600113869,-0.0037205589469522238,0.0,0.0,0.0,0.0,-0.00028998564812354743,0.0014299029717221856,-0.002301089698448777,1.0023963451385498,0.0,0.0,0.0,3.0462136268615723,6.214516639709473,0.8790785074234009,-551.3707275390625,0
395.41300000000047,0.014074940234422684,-0.0039862641133368015,-0.003873768262565136,0.0,0.0,0.0,0.0,-0.001823761616833508,0.0035940511152148247,0.0008990655769594014,1.0009340047836304,0.0,0.0,0.0,3.0683863162994385,6.445107936859131,0.9150864481925964,-555.3840942382812,0
405.3060000000005,0.014084375463426113,-0.004044066648930311,-0.003929512575268745,0.0,0.0,0.0,0.0,-0.0009762757108546793,-0.003971409983932972,-0.0003482417669147253,1.0021536350250244,0.0,0.0,0.0,3.064985752105713,6.443785667419434,0.9122792482376099,-554.7684936523438,0
415.1839999999993,0.014079838991165161,-0.004039086867123842,-0.0039187162183225155,0.0,0.0,0.0,0.0,0.002285290975123644,0.004003781825304031,0.0010679848492145538,1.000678300857544,0.0,0.0,0.0,3.0618772506713867,6.4393486976623535,0.9230331182479858,-554.2058715820312,0
425.0769999999993,0.014139216393232346,-0.004105382598936558,-0.003962894901633263,0.0,0.0,0.0,0.0,-0.0006111976108513772,0.0013288500485941768,-0.0011614718241617084,1.0007290840148926,0.0,0.0,0.0,3.0692386627197266,6.410871505737305,0.9205138683319092,-555.538330078125,0
434.9549999999999,0.01413628552109003,-0.0041055032052099705,-0.003954609856009483,0.0,0.0,0.0,0.0,0.00045425628195516765,0.0012484375620260835,-0.000834623642731458,0.9979805946350098,0.0,0.0,0.0,3.0655243396759033,6.408807277679443,0.9181294441223145,-554.865966796875,0
444.84900000000016,0.014140415005385876,-0.004170938394963741,-0.004015717189759016,0.0,0.0,0.0,0.0,0.0015530608361586928,0.0012311551254242659,0.0010066446848213673,0.9985004663467407,0.0,0.0,0.0,3.071437358856201,6.381689071655273,0.9138397574424744,-555.9363403320312,0
454.72500000000036,0.01413960475474596,-0.004178059287369251,-0.004015015903860331,0.0,0.0,0.0,0.0,-0.00292950589209795,4.427901512826793e-05,0.0015865906607359648,0.9982088804244995,0.0,0.0,0.0,3.06827449798584,6.369785785675049,0.90829998254776,-555.3638305664062,0
464.6180000000004,0.014135627076029778,-0.0042189727537333965,-0.004052360542118549,0.0,0.0,0.0,0.0,-0.0022816630080342293,-0.00533558614552021,-0.0031874740961939096,0.9987201690673828,0.0,0.0,0.0,3.0733346939086914,6.358073711395264,0.9154102802276611,-556.2796630859375,0
474.4959999999992,0.014116564765572548,-0.0038192584179341793,-0.0037007739301770926,0.0,0.0,0.0,0.0,0.0005515141529031098,0.004473479464650154,0.0012926266063004732,1.0007072687149048,0.0,0.0,0.0,3.084254741668701,6.497710227966309,0.9375506639480591,-558.2562866210938,0
484.40799999999945,0.014133947901427746,-0.003957075532525778,-0.0038093167822808027,0.0,0.0,0.0,0.0,0.0003381346759852022,-0.0015848430339246988,0.00011164770694449544,1.000037431716919,0.0,0.0,0.0,3.0784220695495605,6.459019184112549,0.9232000112533569,-557.2005004882812,0
494.27299999999923,0.014135338366031647,-0.003948489669710398,-0.0037925071083009243,0.0,0.0,0.0,0.0,1.303637236560462e-05,-0.00044604408321902156,4.262620859663002e-05,1.0003345012664795,0.0,0.0,0.0,3.0753026008605957,6.451200485229492,0.9328120946884155,-556.6359252929688,0
504.15899999999965,0.01415784191340208,-0.004064622800797224,-0.0038861033972352743,0.0,0.0,0.0,0.0,-0.0011076409136876464,-0.00295239663682878,-0.0034937839955091476,0.9996272325515747,0.0,0.0,0.0,3.071932792663574,6.445679187774658,0.9366052150726318,-556.0259399414062,0
514.0380000000005,0.014160647056996822,-0.0040632374584674835,-0.0038786972872912884,0.0,0.0,0.0,0.0,-0.0010794721310958266,-0.004884620197117329,0.0030562388710677624,1.0000851154327393,0.0,0.0,0.0,3.0685617923736572,6.442371368408203,0.94837886095047,-555.4158325195312,0
523.9259999999995,0.01412615180015564,-0.004109757952392101,-0.00392591767013073,0.0,0.0,0.0,0.0,0.001579659292474389,-0.006298733875155449,0.0009721109527163208,0.9983184933662415,0.0,0.0,0.0,3.066446542739868,6.439711570739746,0.9527281522750854,-555.0328979492188,0
533.8099999999995,0.01413037907332182,-0.004113730508834124,-0.003924032207578421,0.0,0.0,0.0,0.0,-0.0025795463006943464,0.0015468968776986003,0.003198744961991906,1.0007015466690063,0.0,0.0,0.0,3.063805103302002,6.437894821166992,0.9610981941223145,-554.5547485351562,0
543.7080000000005,0.014151819050312042,-0.004168001469224691,-0.003980522975325584,0.0,0.0,0.0,0.0,-0.0006387764005921781,0.004729138221591711,0.0018429519841447473,1.0002896785736084,0.0,0.0,0.0,3.0616211891174316,6.435811519622803,0.9534643888473511,-554.1595458984375,0
553.5789999999997,0.014159479178488255,-0.004176931455731392,-0.003984138369560242,0.0,0.0,0.0,0.0,0.0016329751815646887,-0.0036001717671751976,0.0005577264819294214,0.999354898929596,0.0,0.0,0.0,3.0587353706359863,6.429783344268799,0.9366023540496826,-553.6371459960938,0
563.4660000000003,0.014162556268274784,-0.004223572555929422,-0.004036426544189453,0.0,0.0,0.0,0.0,0.002463307697325945,-0.0014670994132757187,-0.0015056442935019732,1.0002846717834473,0.0,0.0,0.0,3.064574956893921,6.40919303894043,0.944519579410553,-554.694091796875,0
573.3500000000004,0.014171110466122627,-0.00423436937853694,-0.004044263623654842,0.0,0.0,0.0,0.0,-0.0007125101983547211,0.004982704762369394,-0.002153630368411541,0.999774694442749,0.0,0.0,0.0,3.0616440773010254,6.397341251373291,0.9549317955970764,-554.1636962890625,0
583.2360000000008,0.014232936315238476,-0.004278182052075863,-0.004085212480276823,0.0,0.0,0.0,0.0,7.735344843240455e-05,0.0013527882983908057,0.0005285067018121481,1.0004221200942993,0.0,0.0,0.0,3.0660030841827393,6.376744270324707,0.9592335820198059,-554.9525756835938,0
593.1200000000008,0.014244739897549152,-0.004291350953280926,-0.00409541092813015,0.0,0.0,0.0,0.0,-0.002089322544634342,-0.008427273482084274,-0.00020049000158905983,1.0021440982818604,0.0,0.0,0.0,3.063032388687134,6.370912075042725,0.958527147769928,-554.4149169921875,0
603.0210000000006,0.014182371087372303,-0.004317441955208778,-0.004136947449296713,0.0,0.0,0.0,0.0,0.0012101975735276937,-0.00043153754086233675,-0.0031980848871171474,0.9996157288551331,0.0,0.0,0.0,3.059255361557007,6.365375995635986,0.9792075753211975,-553.7312622070312,0
612.893,0.014191952534019947,-0.004335748963057995,-0.004147958476096392,0.0,0.0,0.0,0.0,-0.0021187306847423315,0.004346013069152832,-0.001725656446069479,0.9990992546081543,0.0,0.0,0.0,3.0556552410125732,6.356317043304443,0.9808328151702881,-553.0796508789062,0
622.777,0.014213085174560547,-0.004378731828182936,-0.004182020202279091,0.0,0.0,0.0,0.0,-0.00029938947409391403,-0.002773044863715768,0.003550856839865446,0.9998855590820312,0.0,0.0,0.0,3.042457342147827,6.344913959503174,0.9848846793174744,-550.6908569335938,0
632.6620000000003,0.014253419823944569,-0.003871456952765584,-0.003967577591538429,0.0,0.0,0.0,0.0,0.0013383155455812812,0.0013662580167874694,-0.0014054689090698957,0.9994287490844727,0.0,0.0,0.0,3.0702857971191406,6.521956443786621,0.9961242079734802,-555.7278442382812,0
642.5509999999995,0.014249047264456749,-0.003940745256841183,-0.004059500060975552,0.0,0.0,0.0,0.0,0.0004762283933814615,0.006347383372485638,-0.002377315890043974,0.99937504529953,0.0,0.0,0.0,3.0670201778411865,6.509106159210205,0.9880887866020203,-555.1367797851562,0
652.4320000000007,0.014257452450692654,-0.003929212223738432,-0.004053632263094187,0.0,0.0,0.0,0.0,0.0003721432003658265,-0.004485778510570526,-0.00035275184200145304,0.9990981221199036,0.0,0.0,0.0,3.06406831741333,6.501810073852539,0.9703081250190735,-554.6024169921875,0
662.3179999999993,0.014266726560890675,-0.003918925300240517,-0.004048387985676527,0.0,0.0,0.0,0.0,-0.0013348192442208529,-0.00034862663596868515,-0.00393707724288106,1.0008258819580078,0.0,0.0,0.0,3.061344623565674,6.496443748474121,0.9752645492553711,-554.1094360351562,0
672.2029999999995,0.014277183450758457,-0.003909672610461712,-0.004043204244226217,0.0,0.0,0.0,0.0,-0.0007086452678777277,0.0024880096316337585,0.0002032862976193428,1.0004299879074097,0.0,0.0,0.0,3.056818962097168,6.490434646606445,0.9814143776893616,-553.2903442382812,0
682.0879999999997,0.014202812686562538,-0.003975125029683113,-0.004152510315179825,0.0,0.0,0.0,0.0,0.0025965990498661995,-0.004825741983950138,0.002278455998748541,1.000861644744873,0.0,0.0,0.0,3.0531435012817383,6.48545503616333,0.9729496240615845,-552.625,0
691.9809999999998,0.014211170375347137,-0.0039716740138828754,-0.004155040252953768,0.0,0.0,0.0,0.0,0.001495417091064155,-0.0005275972653180361,-0.0013661013217642903,1.0025984048843384,0.0,0.0,0.0,3.050170660018921,6.475928783416748,0.9804494976997375,-552.0869140625,0
701.866,0.0142259132117033,-0.004028292838484049,-0.004224009811878204,0.0,0.0,0.0,0.0,0.0016993109602481127,0.006235778331756592,0.0008812940213829279,1.002164363861084,0.0,0.0,0.0,3.054797649383545,6.447541236877441,0.9816994667053223,-552.9244995117188,0
711.7440000000006,0.014234146103262901,-0.0040304032154381275,-0.004228060599416494,0.0,0.0,0.0,0.0,0.0009205441456288099,0.0017460554372519255,0.00047420579358004034,1.00187349319458,0.0,0.0,0.0,3.051065444946289,6.439593315124512,0.9697088003158569,-552.2489013671875,0
721.6309999999994,0.014208386652171612,-0.004073403310030699,-0.004283676855266094,0.0,0.0,0.0,0.0,0.0023949972819536924,-0.002294751815497875,-0.0033073313534259796,1.0017049312591553,0.0,0.0,0.0,3.047985076904297,6.431271553039551,0.9639226794242859,-551.6913452148438,0
731.5139999999992,0.01421554945409298,-0.004079874139279127,-0.0042882938869297504,0.0,0.0,0.0,0.0,-0.0012617503525689244,0.004752069246023893,-0.002237775595858693,1.0019499063491821,0.0,0.0,0.0,3.044419527053833,6.418402194976807,0.9613727331161499,-551.0460205078125,0
741.4099999999999,0.01421408262103796,-0.004109106492251158,-0.004318415652960539,0.0,0.0,0.0,0.0,-0.0009954333072528243,-0.003820165991783142,-0.00033827495644800365,1.0001542568206787,0.0,0.0,0.0,3.0498270988464355,6.398457050323486,0.943550705909729,-552.0247802734375,0
751.2849999999999,0.014220913872122765,-0.004117357544600964,-0.004322309046983719,0.0,0.0,0.0,0.0,-0.0016433633863925934,0.006523001007735729,0.0022211195901036263,0.9989360570907593,0.0,0.0,0.0,3.046612501144409,6.387259483337402,0.9409322738647461,-551.4429321289062,0
761.1720000000005,0.014227965846657753,-0.004142129793763161,-0.004340294282883406,0.0,0.0,0.0,0.0,0.0007431470439769328,-0.0028902410995215178,-0.0004134089103899896,1.0007022619247437,0.0,0.0,0.0,3.037976026535034,6.378283500671387,0.9327543377876282,-549.8796997070312,0
771.0560000000005,0.014183213002979755,-0.003805308835580945,-0.003924299497157335,0.0,0.0,0.0,0.0,0.0008015203638933599,-0.0021185860969126225,-0.001500151352956891,1.0015757083892822,0.0,0.0,0.0,3.0577642917633057,6.511605739593506,0.9402024745941162,-553.4613647460938,0
780.9490000000005,0.01423385739326477,-0.003912193235009909,-0.003997249063104391,0.0,0.0,0.0,0.0,-0.0006871307850815356,0.00024339840456377715,0.0021630353294312954,1.0000933408737183,0.0,0.0,0.0,3.0506908893585205,6.463492393493652,0.9418081045150757,-552.1810913085938,0
790.8340000000007,0.014238538220524788,-0.0039057969115674496,-0.003973908722400665,0.0,0.0,0.0,0.0,-0.0008025945862755179,4.542561873677187e-05,0.000608469417784363,0.9994472861289978,0.0,0.0,0.0,3.0476911067962646,6.4581427574157715,0.9389946460723877,-551.6381225585938,0
800.7119999999995,0.014247730374336243,-0.00401360122486949,-0.004065079614520073,0.0,0.0,0.0,0.0,-0.0004525674448814243,-0.0006053220713511109,0.0032143511343747377,0.9999880194664001,0.0,0.0,0.0,3.040463447570801,6.421356201171875,0.9416671395301819,-550.3299560546875,0
810.5969999999998,0.014251858927309513,-0.0040168799459934235,-0.004052000120282173,0.0,0.0,0.0,0.0,-0.0030702014919370413,-0.0007391017279587686,-0.003117599058896303,1.0013998746871948,0.0,0.0,0.0,3.0384669303894043,6.413080215454102,0.9480066299438477,-549.9685668945312,0
820.4940000000006,0.014303132891654968,-0.004110866691917181,-0.00412983912974596,0.0,0.0,0.0,0.0,-0.0015122852055355906,0.00019668696040753275,0.004278434906154871,1.0003453493118286,0.0,0.0,0.0,3.0256476402282715,6.378315448760986,0.9538460373878479,-547.648193359375,0
830.375,0.014307362958788872,-0.0041230954229831696,-0.004123832564800978,0.0,0.0,0.0,0.0,-0.003255546325817704,-0.002501637674868107,0.0004560894158203155,0.9999490976333618,0.0,0.0,0.0,3.0235555171966553,6.377026081085205,0.9581684470176697,-547.2695922851562,0
840.2669999999998,0.01423837710171938,-0.004180633928626776,-0.004180412273854017,0.0,0.0,0.0,0.0,0.0006376614328473806,-0.00030782792600803077,-0.0029027326963841915,0.9997268319129944,0.0,0.0,0.0,3.015249490737915,6.364496231079102,0.9517507553100586,-545.7661743164062,0
850.1470000000008,0.014238408766686916,-0.004199412651360035,-0.004179784562438726,0.0,0.0,0.0,0.0,-0.0003934632695745677,-0.0010258588008582592,-9.038100688485429e-05,0.9978940486907959,0.0,0.0,0.0,3.0110924243927,6.36020040512085,0.9525632262229919,-545.0137329101562,0
860.0360000000001,0.01425489503890276,-0.004262667614966631,-0.004229940474033356,0.0,0.0,0.0,0.0,0.0007140769739635289,0.0017640328733250499,-0.003375445492565632,0.998626172542572,0.0,0.0,0.0,3.000521659851074,6.3388190269470215,0.9560154676437378,-543.100341796875,0
869.9089999999997,0.014256504364311695,-0.004288294818252325,-0.0042358022183179855,0.0,0.0,0.0,0.0,0.0016460311599075794,0.00805321242660284,-4.387509761727415e-05,0.9990918636322021,0.0,0.0,0.0,2.9960927963256836,6.3267436027526855,0.9528056979179382,-542.2987670898438,0
879.7950000000001,0.014252420514822006,-0.004340650979429483,-0.004275847692042589,0.0,0.0,0.0,0.0,0.00038009873242117465,0.0007781671010889113,0.0009115536231547594,1.000003695487976,0.0,0.0,0.0,2.99373459815979,6.31879997253418,0.9351593255996704,-541.8718872070312,0
889.6800000000003,0.014208772219717503,-0.003989783115684986,-0.003850828390568495,0.0,0.0,0.0,0.0,0.00022367264318745583,0.0029802746139466763,-0.002897359663620591,0.9996352195739746,0.0,0.0,0.0,3.022678852081299,6.4649128913879395,0.9233747720718384,-547.11083984375,0
899.5740000000005,0.014203619211912155,-0.004075198899954557,-0.00391895929351449,0.0,0.0,0.0,0.0,0.0026978005189448595,-0.0018196760211139917,0.00013540915097109973,0.9996681213378906,0.0,0.0,0.0,3.018867254257202,6.456576347351074,0.9064448475837708,-546.4210205078125,0
909.4639999999999,0.014187478460371494,-0.0035811741836369038,-0.0035377792082726955,0.0,0.0,0.0,0.0,0.0018899636343121529,0.002293649362400174,0.00013161178503651172,0.9993115663528442,0.0,0.0,0.0,3.0407955646514893,6.569106578826904,0.8965597748756409,-550.3900146484375,0
988.5400000000009,0.014108695089817047,-0.004148143343627453,-0.003842651844024658,0.0,0.0,0.0,0.0,-0.00041282770689576864,-0.004137290641665459,0.001058205496519804,0.9972265958786011,0.0,0.0,0.0,3.0277180671691895,6.388937473297119,0.8405430316925049,-548.0230102539062,0
998.4310000000005,0.014111727476119995,-0.004211753141134977,-0.0038960648234933615,0.0,0.0,0.0,0.0,0.0005407798453234136,0.0012038367567583919,-0.0005184412002563477,1.0004923343658447,0.0,0.0,0.0,3.024940013885498,6.384726524353027,0.8487708568572998,-547.5202026367188,0
1008.3170000000009,0.014108264818787575,-0.0042297616600990295,-0.0038950443267822266,0.0,0.0,0.0,0.0,-0.0015550151001662016,-0.0008803631062619388,0.001564749632962048,1.0028342008590698,0.0,0.0,0.0,3.0220813751220703,6.378249168395996,0.8481441140174866,-547.0027465820312,0
1018.1910000000007,0.014134016819298267,-0.004302981775254011,-0.003963404335081577,0.0,0.0,0.0,0.0,0.0010486498940736055,-0.005924453027546406,6.656936602666974e-05,1.0017378330230713,0.0,0.0,0.0,3.0198094844818115,6.3715739250183105,0.8486286997795105,-546.5914916992188,0
1028.0769999999993,0.01412962842732668,-0.00432546203956008,-0.00396468723192811,0.0,0.0,0.0,0.0,-0.003948180470615625,-0.0005918273818679154,0.0027530326042324305,0.9985253810882568,0.0,0.0,0.0,3.0167646408081055,6.360157489776611,0.8581111431121826,-546.0404052734375,0
1037.9619999999995,0.01418291311711073,-0.0037876314017921686,-0.003679740009829402,0.0,0.0,0.0,0.0,-0.0009087310172617435,0.003981081768870354,-0.00018334086053073406,0.9988521933555603,0.0,0.0,0.0,3.0345654487609863,6.566113471984863,0.8686130046844482,-549.2623291015625,0
1047.8500000000004,0.014179267920553684,-0.003766395850107074,-0.0036500943824648857,0.0,0.0,0.0,0.0,-0.0030538816936314106,0.0002180751907872036,0.0009459907887503505,0.9998453855514526,0.0,0.0,0.0,3.031721353530884,6.565295696258545,0.8604027628898621,-548.74755859375,0
1057.7330000000002,0.014120918698608875,-0.0032853747252374887,-0.0031024327035993338,0.0,0.0,0.0,0.0,0.00031213273177854717,0.0012075722916051745,-0.0023419202771037817,1.0000627040863037,0.0,0.0,0.0,3.0497467517852783,6.722823143005371,0.8453850746154785,-552.0101928710938,0
1067.6209999999992,0.014110305346548557,-0.003231220180168748,-0.0030303222592920065,0.0,0.0,0.0,0.0,0.004411574453115463,0.0023712487891316414,0.0019772816449403763,1.000680923461914,0.0,0.0,0.0,3.046365737915039,6.713294982910156,0.8356981873512268,-551.3982543945312,0
1077.5049999999992,0.014098473824560642,-0.0031769757624715567,-0.002957475371658802,0.0,0.0,0.0,0.0,0.0015515278792008758,0.00021113958791829646,-0.001966333482414484,1.0016653537750244,0.0,0.0,0.0,3.0437493324279785,6.701540946960449,0.8273712992668152,-550.9247436523438,0
1087.3889999999992,0.014084507711231709,-0.0031228112056851387,-0.0028834242839366198,0.0,0.0,0.0,0.0,-0.001265469822101295,-0.0032212650403380394,-0.0029425653629004955,1.0000301599502563,0.0,0.0,0.0,3.0405845642089844,6.690749168395996,0.8185911178588867,-550.3519287109375,0
1097.2819999999992,0.01406184397637844,-0.002549216151237488,-0.0023704192135483027,0.0,0.0,0.0,0.0,-0.0024573002010583878,-0.004520248156040907,0.0028272776398807764,1.0007468461990356,0.0,0.0,0.0,3.0698037147521973,6.848165988922119,0.8216015696525574,-555.6405639648438,0
1107.1669999999995,0.014047014527022839,-0.0024623724166303873,-0.002261416520923376,0.0,0.0,0.0,0.0,0.0015149664832279086,0.0018913106760010123,0.0017183516174554825,1.0018267631530762,0.0,0.0,0.0,3.0668349266052246,6.846193790435791,0.8300816416740417,-555.1031494140625,0
1117.0570000000007,0.01403208076953888,-0.0023759601172059774,-0.002151168417185545,0.0,0.0,0.0,0.0,0.001783981453627348,-0.004519187845289707,-0.0011498858220875263,1.0024985074996948,0.0,0.0,0.0,3.0643503665924072,6.841688632965088,0.8263309001922607,-554.6535034179688,0
1126.9310000000005,0.014016654342412949,-0.0022900134790688753,-0.0020387591794133186,0.0,0.0,0.0,0.0,-0.0028999659698456526,-0.004127389285713434,0.0019416678696870804,1.0001169443130493,0.0,0.0,0.0,3.062459945678711,6.831374168395996,0.8270455598831177,-554.311279296875,0
1136.8179999999993,0.01400080043822527,-0.0022046605590730906,-0.00192452990449965,0.0,0.0,0.0,0.0,0.0002526486059650779,0.000580049876589328,-0.0023286996874958277,1.0014541149139404,0.0,0.0,0.0,3.0594260692596436,6.82852029800415,0.8297281861305237,-553.76220703125,0
1146.7119999999995,0.013984454795718193,-0.002120156539604068,-0.0018093184335157275,0.0,0.0,0.0,0.0,0.002514764666557312,0.00235645635984838,-0.0018152014818042517,0.9985211491584778,0.0,0.0,0.0,3.0558900833129883,6.823428153991699,0.830054521560669,-553.1221313476562,0
1156.5930000000008,0.013935497030615807,-0.0018322780961170793,-0.001443027867935598,0.0,0.0,0.0,0.0,-0.0031706157606095076,0.004248507786542177,0.0008282630587927997,0.9994074702262878,0.0,0.0,0.0,3.079667568206787,6.877416133880615,0.8223411440849304,-557.4259643554688,0
1166.478000000001,0.013917115516960621,-0.0017376701580360532,-0.0013119203504174948,0.0,0.0,0.0,0.0,0.0023769389372318983,0.0037339190021157265,-0.001239920500665903,1.0009182691574097,0.0,0.0,0.0,3.077244520187378,6.883151531219482,0.8172550201416016,-556.9873657226562,0
1176.357,0.013888976536691189,-0.0015958164585754275,-0.0011176265543326735,0.0,0.0,0.0,0.0,-0.0013194582425057888,-0.0019515332533046603,0.002839205786585808,1.001939058303833,0.0,0.0,0.0,3.1043338775634766,6.887683868408203,0.8069782853126526,-561.890625,0
1186.2440000000006,0.013869882561266422,-0.0014983083819970489,-0.0009809776674956083,0.0,0.0,0.0,0.0,0.0014919028617441654,-0.0014750154223293066,-0.0009590386762283742,1.0003575086593628,0.0,0.0,0.0,3.101804256439209,6.881748199462891,0.8011929988861084,-561.4328002929688,0
1196.1270000000004,0.013850479386746883,-0.001400419045239687,-0.0008429906447418034,0.0,0.0,0.0,0.0,-0.002127255080267787,-0.005529414862394333,0.0007604677230119705,0.9996221661567688,0.0,0.0,0.0,3.0981545448303223,6.874317169189453,0.795737087726593,-560.7721557617188,0
1206.0130000000008,0.013830403797328472,-0.0013029614929109812,-0.0007046629907563329,0.0,0.0,0.0,0.0,0.004577240906655788,-0.00036587018985301256,-0.004511964973062277,0.9992247223854065,0.0,0.0,0.0,3.0948848724365234,6.870415687561035,0.8072390556335449,-560.1802978515625,0
1215.8999999999996,0.013809253461658955,-0.0012040630681440234,-0.0005665997741743922,0.0,0.0,0.0,0.0,-0.0030918042175471783,0.0056127142161130905,-0.00016705745656508952,1.0012767314910889,0.0,0.0,0.0,3.0906903743743896,6.8555097579956055,0.8033743500709534,-559.4210815429688,0
1225.7839999999997,0.013787657953798771,-0.0011029724264517426,-0.0004281493602320552,0.0,0.0,0.0,0.0,0.0021761131938546896,-0.0008165279286913574,-0.001035213703289628,1.0024893283843994,0.0,0.0,0.0,3.0876169204711914,6.856215476989746,0.7926098108291626,-558.86474609375,0
1235.6689999999999,0.013766075484454632,-0.001000666175968945,-0.0002879998064599931,0.0,0.0,0.0,0.0,-0.0031684457790106535,0.0008621035958640277,-0.000981734017841518,1.0012264251708984,0.0,0.0,0.0,3.0848026275634766,6.843326091766357,0.7924440503120422,-558.3554077148438,0
1245.5550000000003,0.013744323514401913,-0.0008975319797173142,-0.0001458752667531371,0.0,0.0,0.0,0.0,0.0003760797844734043,-0.002958458848297596,0.006065430585294962,1.0002555847167969,0.0,0.0,0.0,3.0830061435699463,6.841709136962891,0.796329915523529,-558.0302734375,0
1255.4390000000003,0.013721443712711334,-0.000793794053606689,-2.597400452941656e-06,0.0,0.0,0.0,0.0,0.0009185868548229337,0.0038390206173062325,-0.0034778653644025326,0.9988027215003967,0.0,0.0,0.0,3.08193039894104,6.836339473724365,0.8012629747390747,-557.8355102539062,0
1265.3369999999995,0.013696973212063313,-0.0006902666646055877,0.00014059903332963586,0.0,0.0,0.0,0.0,0.0024855658411979675,0.004659612663090229,0.0012847627513110638,1.0018367767333984,0.0,0.0,0.0,3.0778274536132812,6.828998565673828,0.7909849286079407,-557.0929565429688,0
1275.2090000000007,0.013671448454260826,-0.0005869986489415169,0.0002840647357515991,0.0,0.0,0.0,0.0,-0.000830302422400564,-0.0016337495762854815,-0.0031881846953183413,1.0035967826843262,0.0,0.0,0.0,3.0751354694366455,6.818739891052246,0.7775343060493469,-556.6056518554688,0
1285.0969999999998,0.013645214959979057,-0.00048282105126418173,0.0004297473933547735,0.0,0.0,0.0,0.0,0.002763401949778199,0.0020633067470043898,0.0049269734881818295,1.0025595426559448,0.0,0.0,0.0,3.0704338550567627,6.812187194824219,0.7823368310928345,-555.754638671875,0
1294.9830000000002,0.013618323020637035,-0.0003772325289901346,0.000578393810428679,0.0,0.0,0.0,0.0,-0.0018431018106639385,-0.003197689773514867,-0.0015703171957284212,0.9994786977767944,0.0,0.0,0.0,3.068282127380371,6.798070907592773,0.7691518664360046,-555.3651733398438,0
1304.8719999999994,0.013591448776423931,-0.00026986218290403485,0.0007283853483386338,0.0,0.0,0.0,0.0,0.0011988787446171045,-8.070165495155379e-05,-0.002362167928367853,0.9998087286949158,0.0,0.0,0.0,3.0658819675445557,6.79433012008667,0.7738595008850098,-554.9306640625,0
1314.759,0.013565454632043839,-0.0001604223216418177,0.0008782812510617077,0.0,0.0,0.0,0.0,-0.004025212023407221,0.0027271807193756104,-0.0026098955422639847,0.9996384382247925,0.0,0.0,0.0,3.0616016387939453,6.7863359451293945,0.7794144153594971,-554.156005859375,0
1324.6419999999998,0.013540728949010372,-5.0560542149469256e-05,0.0010280878050252795,0.0,0.0,0.0,0.0,-0.0005106469034217298,0.004461680073291063,-0.001930086873471737,1.001042127609253,0.0,0.0,0.0,3.058187961578369,6.783925533294678,0.7669870257377625,-553.5380859375,0
1334.5220000000008,0.013516178354620934,5.8896897826343775e-05,0.0011783085064962506,0.0,0.0,0.0,0.0,0.0029102801345288754,0.0008630533702671528,0.002085823565721512,1.0037201642990112,0.0,0.0,0.0,3.0541346073150635,6.775726318359375,0.7544033527374268,-552.804443359375,0
1344.4130000000005,0.01349068433046341,0.000168433238286525,0.0013306239852681756,0.0,0.0,0.0,0.0,0.0007300208089873195,-0.005850613582879305,-0.0008765423553995788,1.000028133392334,0.0,0.0,0.0,3.0508406162261963,6.767333030700684,0.75343918800354,-552.208251953125,0
1354.2919999999995,0.013464309275150299,0.0002776015899144113,0.001485042623244226,0.0,0.0,0.0,0.0,0.0001608256861800328,0.0036047750618308783,-0.0015760106034576893,0.9980146884918213,0.0,0.0,0.0,3.047563314437866,6.758646011352539,0.7645730376243591,-551.6150512695312,0
1364.1779999999999,0.013437559828162193,0.00038699692231602967,0.0016389632364735007,0.0,0.0,0.0,0.0,0.004809481557458639,-0.00044159148819744587,0.00236512185074389,1.0015532970428467,0.0,0.0,0.0,3.0440988540649414,6.75283145904541,0.757278323173523,-550.9879150390625,0
1374.0650000000005,0.013410506770014763,0.0004971199668943882,0.0017925461288541555,0.0,0.0,0.0,0.0,0.0045038918033242226,-0.0009872282389551401,0.0026427104603499174,1.000420331954956,0.0,0.0,0.0,3.0409767627716064,6.739879608154297,0.7583297491073608,-550.4228515625,0
1383.9480000000003,0.01338314451277256,0.0006069220253266394,0.0019470547558739781,0.0,0.0,0.0,0.0,-0.0014524786965921521,-0.001502730417996645,0.0015665969112887979,1.001114845275879,0.0,0.0,0.0,3.0379185676574707,6.725735664367676,0.7613124847412109,-549.869384765625,0
1393.8359999999993,0.013355223461985588,0.0007152632460929453,0.002102342899888754,0.0,0.0,0.0,0.0,0.0011995934182778,0.0017440107185393572,-0.0038329986855387688,0.9999028444290161,0.0,0.0,0.0,3.0346310138702393,6.724048614501953,0.7634797096252441,-549.274169921875,0
1403.719000000001,0.013325565494596958,0.0008218931616283953,0.002258365973830223,0.0,0.0,0.0,0.0,0.0017371329013258219,-0.0039436849765479565,-0.002773162443190813,1.0016385316848755,0.0,0.0,0.0,3.030568838119507,6.712213516235352,0.7602693438529968,-548.5389404296875,0
1413.603000000001,0.013293170370161533,0.0009278514189645648,0.002415369963273406,0.0,0.0,0.0,0.0,-5.735243030358106e-05,0.007000475190579891,-0.0033325969707220793,1.0018126964569092,0.0,0.0,0.0,3.0272915363311768,6.701394081115723,0.7662702798843384,-547.94580078125,0
1423.4879999999994,0.013258523307740688,0.0010342261521145701,0.0025740519631654024,0.0,0.0,0.0,0.0,0.001516877906396985,-0.003133024787530303,-0.003299783216789365,1.0013298988342285,0.0,0.0,0.0,3.023895740509033,6.693678855895996,0.7530278563499451,-547.3311157226562,0
1433.375,0.01322318147867918,0.0011412618914619088,0.0027346594724804163,0.0,0.0,0.0,0.0,-0.0030980403535068035,0.0011676305439323187,-0.0027678157202899456,0.9973003268241882,0.0,0.0,0.0,3.020541191101074,6.681812763214111,0.7611676454544067,-546.7239379882812,0
1443.2610000000004,0.013186919502913952,0.0012485551415011287,0.002895369892939925,0.0,0.0,0.0,0.0,0.0024961023591458797,-0.009004546329379082,0.0006957350415177643,0.9983832836151123,0.0,0.0,0.0,3.0167386531829834,6.681268215179443,0.7528240084648132,-546.0357055664062,0
1453.1440000000002,0.013149481266736984,0.0013557890197262168,0.0030544756446033716,0.0,0.0,0.0,0.0,-0.0017889686860144138,0.003962690010666847,-0.0024704306852072477,0.9998951554298401,0.0,0.0,0.0,3.0141091346740723,6.6722211837768555,0.7621393203735352,-545.5597534179688,0
1463.0300000000007,0.013112288899719715,0.0014625893672928214,0.003212752053514123,0.0,0.0,0.0,0.0,0.000708508538082242,-0.0021607051603496075,0.001122075947932899,1.0003349781036377,0.0,0.0,0.0,3.0102367401123047,6.667194366455078,0.7504558563232422,-544.8588256835938,0
1472.9140000000007,0.013076004572212696,0.0015692663146182895,0.00337103265337646,0.0,0.0,0.0,0.0,-0.005012035369873047,-0.0040982612408697605,0.0016353519167751074,1.0007327795028687,0.0,0.0,0.0,3.0074121952056885,6.657334804534912,0.7569295167922974,-544.34765625,0
1482.7999999999993,0.013040605932474136,0.0016763744642958045,0.003529755864292383,0.0,0.0,0.0,0.0,0.0030564528424292803,-0.010022787377238274,0.004129206761717796,0.9992076754570007,0.0,0.0,0.0,3.004061460494995,6.655579566955566,0.7585485577583313,-543.7410278320312,0
1492.6849999999995,0.013006182387471199,0.0017829150892794132,0.0036885677836835384,0.0,0.0,0.0,0.0,0.0008718105382286012,0.003212130628526211,-0.00048186254571191967,0.9996713399887085,0.0,0.0,0.0,3.001354455947876,6.647047519683838,0.7789614200592041,-543.2510986328125,0
1502.5730000000003,0.012972479686141014,0.0018881437135860324,0.003846930805593729,0.0,0.0,0.0,0.0,-0.0015072753885760903,-0.001443907036446035,-0.0007126303971745074,0.9998425245285034,0.0,0.0,0.0,2.9977316856384277,6.640460014343262,0.773597240447998,-542.5953369140625,0
1512.4560000000001,0.012939062900841236,0.00199336651712656,0.004005273338407278,0.0,0.0,0.0,0.0,-0.0010914262384176254,-0.001881475211121142,-0.00020429691358003765,1.0008853673934937,0.0,0.0,0.0,2.994086980819702,6.638134479522705,0.775316059589386,-541.9357299804688,0
1522.3410000000003,0.013730314560234547,-0.004682250786572695,-0.002135643968358636,0.0,0.0,0.0,0.0,-3.726932482095435e-05,-5.1371978770475835e-05,0.0007618197123520076,0.9991233944892883,0.0,0.0,0.0,3.00903058052063,5.6989054679870605,0.812950074672699,-544.6405639648438,0
1532.2299999999996,0.013720721937716007,-0.004801247268915176,-0.0021600089967250824,0.0,0.0,0.0,0.0,0.00042098472476936877,-0.0038130071479827166,-0.0009515420533716679,0.9997211694717407,0.0,0.0,0.0,3.0060691833496094,5.691649436950684,0.8094572424888611,-544.1045532226562,0
1542.1129999999994,0.013712102547287941,-0.004922353662550449,-0.002184608019888401,0.0,0.0,0.0,0.0,-0.001301472308114171,0.0038327898364514112,-0.0003785800945479423,1.000218152999878,0.0,0.0,0.0,3.00247859954834,5.687248229980469,0.8185276389122009,-543.45458984375,0
1552.0,0.013705214485526085,-0.00504501024261117,-0.002209134865552187,0.0,0.0,0.0,0.0,0.0019224771531298757,0.0009074052795767784,0.0030314172618091106,1.0010439157485962,0.0,0.0,0.0,3.0007474422454834,5.680234432220459,0.8163866400718689,-543.1412353515625,0
1561.8829999999998,0.01369905099272728,-0.005169782321900129,-0.002233067760244012,0.0,0.0,0.0,0.0,-0.0016673972131684422,-0.0018793059280142188,-0.0017212816746905446,1.0027241706848145,0.0,0.0,0.0,2.9984817504882812,5.673949241638184,0.8148432374000549,-542.731201171875,0
1571.768,0.013692362233996391,-0.005298248492181301,-0.0022553231101483107,0.0,0.0,0.0,0.0,0.00033514335518702865,0.0016512895235791802,0.00122811587061733,1.0003653764724731,0.0,0.0,0.0,2.993788242340088,5.669044017791748,0.8248289227485657,-541.881591796875,0
1581.6530000000002,0.013685760088264942,-0.005430934019386768,-0.0022758562117815018,0.0,0.0,0.0,0.0,-0.0032037911005318165,-0.0007408626843243837,-0.000642266240902245,0.998513400554657,0.0,0.0,0.0,2.9916887283325195,5.663064002990723,0.8308805227279663,-541.5015869140625,0
1591.5390000000007,0.01367973256856203,-0.005567523185163736,-0.002296357648447156,0.0,0.0,0.0,0.0,0.0008973067160695791,0.00152665248606354,-0.0008419704390689731,0.996704638004303,0.0,0.0,0.0,2.9883840084075928,5.663963317871094,0.825571596622467,-540.9034423828125,0
1601.424000000001,0.013674522750079632,-0.0057070814073085785,-0.0023186414036899805,0.0,0.0,0.0,0.0,0.0011166168842464685,-0.0032607365865260363,0.0026843601372092962,0.996772825717926,0.0,0.0,0.0,2.9852094650268555,5.654973983764648,0.8259876370429993,-540.328857421875,0
1611.3089999999993,0.013670189306139946,-0.005849187262356281,-0.0023438504431396723,0.0,0.0,0.0,0.0,0.00230590277351439,0.00597047945484519,0.0012728265719488263,0.9998865723609924,0.0,0.0,0.0,2.9831011295318604,5.646077632904053,0.8373658061027527,-539.947265625,0
1621.1949999999997,0.013666436076164246,-0.005994840525090694,-0.002370759379118681,0.0,0.0,0.0,0.0,-0.00029882369562983513,0.0012214401504024863,-0.002997957868501544,0.9998552799224854,0.0,0.0,0.0,2.979828119277954,5.637678623199463,0.8179842233657837,-539.3547973632812,0
1631.0820000000003,0.013663292862474918,-0.006144020240753889,-0.0023978177923709154,0.0,0.0,0.0,0.0,0.000354998919647187,0.00018492901290301234,0.001833652495406568,0.9989134073257446,0.0,0.0,0.0,2.975938320159912,5.632705211639404,0.812809407711029,-538.6508178710938,0
1640.9740000000002,0.013660570606589317,-0.006295461673289537,-0.002425203798338771,0.0,0.0,0.0,0.0,0.0014961191918700933,-0.0016804132610559464,0.0016053477302193642,0.9998078346252441,0.0,0.0,0.0,2.9734582901000977,5.625748634338379,0.8124743103981018,-538.2018432617188,0
1650.8580000000002,0.013657288625836372,-0.006449778098613024,-0.002453130204230547,0.0,0.0,0.0,0.0,-0.0017473031766712666,0.00598098523914814,6.320491229416803e-05,0.9987178444862366,0.0,0.0,0.0,2.970616340637207,5.618101596832275,0.8117828369140625,-537.6874389648438,0
1660.7360000000008,0.01345120556652546,-0.00604792358353734,-0.002134826732799411,0.0,0.0,0.0,0.0,-0.0015421988209709525,-0.004194136243313551,0.0029089185409247875,1.0008108615875244,0.0,0.0,0.0,2.9806723594665527,5.742773532867432,0.7309994101524353,-539.5076293945312,0
1670.6209999999992,0.013432938605546951,-0.006185726262629032,-0.002146976301446557,0.0,0.0,0.0,0.0,0.001082689967006445,-0.0015546237118542194,-0.0011109804036095738,0.9994913935661316,0.0,0.0,0.0,2.978964328765869,5.740840435028076,0.7449778318405151,-539.198486328125,0
1680.5079999999998,0.013378077186644077,-0.0061840275302529335,-0.0020283879712224007,0.0,0.0,0.0,0.0,-0.0017057443037629128,0.0016610586317256093,-0.0003097795706707984,1.000786542892456,0.0,0.0,0.0,2.980696201324463,5.771539688110352,0.7343104481697083,-539.511962890625,0
1690.3919999999998,0.01335406955331564,-0.006322558969259262,-0.002033222233876586,0.0,0.0,0.0,0.0,0.0006139574688859284,-0.0006677353521808982,0.0023625181056559086,1.0024292469024658,0.0,0.0,0.0,2.977848529815674,5.770758628845215,0.730950653553009,-538.9965209960938,0
1700.2800000000007,0.013294103555381298,-0.0063677337020635605,-0.0019699446856975555,0.0,0.0,0.0,0.0,0.0011922112898901105,0.0018300628289580345,-0.0005586995976045728,1.0009509325027466,0.0,0.0,0.0,2.987217664718628,5.791335582733154,0.7193542718887329,-540.6923217773438,0
1710.1630000000005,0.013264494016766548,-0.006509170401841402,-0.001967285294085741,0.0,0.0,0.0,0.0,-0.0023266549687832594,0.005112036131322384,-0.0016249220352619886,1.0005202293395996,0.0,0.0,0.0,2.984032392501831,5.781107425689697,0.7144428491592407,-540.1157836914062,0
1720.0480000000007,0.013228131458163261,-0.0065195499919354916,-0.0019097697222605348,0.0,0.0,0.0,0.0,-0.0008961657295003533,-0.001318595139309764,0.0037795903626829386,1.0017679929733276,0.0,0.0,0.0,2.9892070293426514,5.814655303955078,0.697222888469696,-541.0524291992188,0
1729.933000000001,0.013195698149502277,-0.006657543126493692,-0.0018993273843079805,0.0,0.0,0.0,0.0,-0.0025887065567076206,0.0029635620303452015,0.0022041997872292995,1.0012364387512207,0.0,0.0,0.0,2.987048864364624,5.810839653015137,0.7012351155281067,-540.6618041992188,0
1739.8189999999995,0.0132198017090559,-0.006586292292922735,-0.0018604379147291183,0.0,0.0,0.0,0.0,-0.0009855198441073298,0.0029056842904537916,-0.0014764622319489717,1.001491904258728,0.0,0.0,0.0,2.9875717163085938,5.858250617980957,0.7125405669212341,-540.7564086914062,0
1749.7039999999997,0.013189861550927162,-0.006718026008456945,-0.0018378386739641428,0.0,0.0,0.0,0.0,-5.36114202986937e-05,-0.0008639944717288017,-0.002214637119323015,0.999207615852356,0.0,0.0,0.0,2.9841747283935547,5.8579630851745605,0.707270622253418,-540.1415405273438,0
1759.5930000000008,0.013205011375248432,-0.006650185212492943,-0.0017933464841917157,0.0,0.0,0.0,0.0,0.00018538537551648915,-0.0002571880759205669,0.0011329808039590716,0.9995649456977844,0.0,0.0,0.0,2.993966579437256,5.905064105987549,0.7185322046279907,-541.9139404296875,0
1769.4750000000004,0.013173419050872326,-0.006776134017854929,-0.0017619326245039701,0.0,0.0,0.0,0.0,-0.005025195423513651,-0.005656179040670395,0.0024129594676196575,1.000037431716919,0.0,0.0,0.0,2.991461992263794,5.900524139404297,0.7188028693199158,-541.4605712890625,0
1779.362000000001,0.013140594586730003,-0.006904524751007557,-0.0017307715024799109,0.0,0.0,0.0,0.0,-0.0017685865750536323,-0.00543841440230608,-0.0006225632387213409,0.999659538269043,0.0,0.0,0.0,2.9898812770843506,5.899184703826904,0.7289401888847351,-541.1744384765625,0
1789.2450000000008,0.013107966631650925,-0.007035162765532732,-0.0016996378544718027,0.0,0.0,0.0,0.0,-0.0006787789170630276,-0.000885655521415174,0.0007816742872819304,0.9990311861038208,0.0,0.0,0.0,2.986947536468506,5.893486976623535,0.7390153408050537,-540.6434936523438,0
1799.1309999999994,0.013144583441317081,-0.006812664680182934,-0.001673687482252717,0.0,0.0,0.0,0.0,-0.003097650595009327,0.004415181931108236,0.0011105486191809177,1.000855803489685,0.0,0.0,0.0,3.0004451274871826,5.970989227294922,0.7418709993362427,-543.0865478515625,0
1809.018,0.01311414036899805,-0.006931374315172434,-0.0016294056549668312,0.0,0.0,0.0,0.0,-2.421008139208425e-05,0.004059136845171452,0.001560094766318798,1.0011038780212402,0.0,0.0,0.0,2.9974257946014404,5.97059965133667,0.7307996153831482,-542.5399780273438,0
1818.902,0.013148590922355652,-0.006749890279024839,-0.001584501238539815,0.0,0.0,0.0,0.0,0.002068419475108385,-0.000378741038730368,-0.0005527663743123412,0.9986572861671448,0.0,0.0,0.0,3.010952949523926,6.030771732330322,0.7194867730140686,-544.988525390625,0
1828.7909999999993,0.013118957169353962,-0.006859644781798124,-0.0015278358478099108,0.0,0.0,0.0,0.0,9.308109292760491e-05,-0.0022479097824543715,-0.0012406803434714675,0.9987490773200989,0.0,0.0,0.0,3.007410764694214,6.021022796630859,0.7174468040466309,-544.3473510742188,0
1838.6720000000005,0.013129094615578651,-0.006771656218916178,-0.0014675448182970285,0.0,0.0,0.0,0.0,-0.001985548296943307,-0.005573229864239693,-0.000556326936930418,1.0003292560577393,0.0,0.0,0.0,3.018613576889038,6.064368724822998,0.729434609413147,-546.3751220703125,0
1848.576000000001,0.01310026552528143,-0.006879147607833147,-0.0014042097609490156,0.0,0.0,0.0,0.0,-0.003602111479267478,-5.750187119701877e-05,-0.0063668484799563885,1.001496434211731,0.0,0.0,0.0,3.0153255462646484,6.063432216644287,0.7421954274177551,-545.7799682617188,0
1858.4429999999993,0.013106316328048706,-0.006843214388936758,-0.0013209820026531816,0.0,0.0,0.0,0.0,-0.0025124920066446066,0.0010258537949994206,0.002948830835521221,0.9998707175254822,0.0,0.0,0.0,3.010655164718628,6.059633255004883,0.7365856766700745,-544.9345703125,0
1868.335000000001,0.01307593658566475,-0.006945406552404165,-0.001249721273779869,0.0,0.0,0.0,0.0,-0.002114898292347789,0.00038968014996498823,0.002338108839467168,1.0021038055419922,0.0,0.0,0.0,3.008924961090088,6.054346561431885,0.7349447011947632,-544.6213989257812,0
1878.214,0.013094024732708931,-0.006889944430440664,-0.0011887417640537024,0.0,0.0,0.0,0.0,-0.00048022554256021976,0.0016481922939419746,-0.002492352621629834,0.9998452663421631,0.0,0.0,0.0,3.0064034461975098,6.053267478942871,0.7347700595855713,-544.1649780273438,0
1888.107,0.014174691401422024,-0.004022334702312946,-0.004130122251808643,0.0,0.0,0.0,0.0,-0.0018022222211584449,0.0014474367490038276,-0.0016057193279266357,0.998214066028595,0.0,0.0,0.0,3.0314338207244873,6.389522552490234,0.8138932585716248,-548.6954956054688,0
1897.9850000000006,0.014175706543028355,-0.004092915914952755,-0.004135237541049719,0.0,0.0,0.0,0.0,7.406152872135863e-05,0.004090429749339819,-0.001313482178375125,1.0004451274871826,0.0,0.0,0.0,3.0281155109405518,6.38689661026001,0.8083940148353577,-548.094970703125,0
1907.8829999999998,0.014118614606559277,-0.003674870589748025,-0.0036667929962277412,0.0,0.0,0.0,0.0,0.001451269374229014,-0.00026896342751570046,-0.0013244315050542355,0.9976641535758972,0.0,0.0,0.0,3.05275821685791,6.505075931549072,0.7995408177375793,-552.5552978515625,0
1917.7549999999992,0.014186186715960503,-0.003886537393555045,-0.0037148825358599424,0.0,0.0,0.0,0.0,0.001319705625064671,0.005371361970901489,0.0008103698492050171,1.0001918077468872,0.0,0.0,0.0,3.0570664405822754,6.458314895629883,0.7979132533073425,-553.3351440429688,0
1927.6540000000005,0.014175609685480595,-0.003893531858921051,-0.0036394342314451933,0.0,0.0,0.0,0.0,0.0022894786670804024,0.004813824780285358,5.469441748573445e-05,1.001605749130249,0.0,0.0,0.0,3.0545339584350586,6.4492363929748535,0.793828547000885,-552.876708984375,0
1937.5259999999998,0.01417845580726862,-0.0040536546148359776,-0.0036735108587890863,0.0,0.0,0.0,0.0,-0.0006703881663270295,-0.0016392318066209555,-0.000330490933265537,0.9994152784347534,0.0,0.0,0.0,3.060670852661133,6.413434982299805,0.7799590826034546,-553.9874877929688,0
1947.4230000000007,0.014167536050081253,-0.004069742280989885,-0.0036049173213541508,0.0,0.0,0.0,0.0,0.0015158787136897445,-0.002374557312577963,0.0008645904017612338,0.9988901615142822,0.0,0.0,0.0,3.057530641555786,6.410454750061035,0.7812416553497314,-553.4190673828125,0
1957.2960000000003,0.014095385558903217,-0.004178422037512064,-0.003621042240411043,0.0,0.0,0.0,0.0,-7.768316572764888e-05,-0.004275895655155182,0.00023479698575101793,0.997761607170105,0.0,0.0,0.0,3.054356336593628,6.397871017456055,0.7864655256271362,-552.8445434570312,0
1967.1939999999995,0.014083710499107838,-0.00420011393725872,-0.003560577053576708,0.0,0.0,0.0,0.0,4.487825572141446e-05,0.0005082566640339792,-0.0024510095827281475,0.9999454021453857,0.0,0.0,0.0,3.0513205528259277,6.392782688140869,0.7920383810997009,-552.2950439453125,0
1977.076000000001,0.014017967507243156,-0.004328492563217878,-0.003611921798437834,0.0,0.0,0.0,0.0,0.0017190072685480118,0.0005590473883785307,0.0005327036487869918,1.0001201629638672,0.0,0.0,0.0,3.047508716583252,6.38930082321167,0.7913920879364014,-551.6051025390625,0
1986.9660000000003,0.014003884047269821,-0.004357359372079372,-0.003561090212315321,0.0,0.0,0.0,0.0,-0.0002157392882509157,0.0009327890584245324,-5.0881786592071876e-05,0.999614953994751,0.0,0.0,0.0,3.04471755027771,6.3804192543029785,0.7945815920829773,-551.0999145507812,0
1996.8369999999995,0.014002091251313686,-0.004445909522473812,-0.0035764873027801514,0.0,0.0,0.0,0.0,-0.00033132079988718033,-0.0055571673437952995,0.0002284240472363308,0.9999746084213257,0.0,0.0,0.0,3.041121006011963,6.37606143951416,0.7999263405799866,-550.448974609375,0
2006.7299999999996,0.014106515794992447,-0.0038635439705103636,-0.003448914270848036,0.0,0.0,0.0,0.0,0.00034921246697194874,0.001311267027631402,0.0017380486242473125,0.9986447691917419,0.0,0.0,0.0,3.0606651306152344,6.55348014831543,0.841435968875885,-553.9865112304688,0
2016.6139999999996,0.014111660420894623,-0.004032174590975046,-0.003546448890119791,0.0,0.0,0.0,0.0,0.003278238931670785,-0.001224143779836595,-0.00016406177019234747,1.0004544258117676,0.0,0.0,0.0,3.0539371967315674,6.507809638977051,0.8331592082977295,-552.7686767578125,0
2026.5030000000006,0.014100287109613419,-0.004037777427583933,-0.0035020431969314814,0.0,0.0,0.0,0.0,-0.0008358453633263707,0.0007136058993637562,0.0005111447535455227,1.001133918762207,0.0,0.0,0.0,3.049914836883545,6.498053550720215,0.8319260478019714,-552.0407104492188,0
2036.3799999999992,0.014140009880065918,-0.004228806123137474,-0.0036169954109936953,0.0,0.0,0.0,0.0,0.0005706329247914255,-0.0033376964274793863,-0.004174997564405203,0.9998866319656372,0.0,0.0,0.0,3.040330648422241,6.4459228515625,0.8299952745437622,-550.3059692382812,0
2046.2790000000005,0.014130311086773872,-0.0042435466311872005,-0.0035835583694279194,0.0,0.0,0.0,0.0,0.001238696975633502,0.0009540898608975112,0.0015972759574651718,0.9982861876487732,0.0,0.0,0.0,3.035304307937622,6.439908504486084,0.8405972123146057,-549.3961181640625,0
2056.1630000000005,0.014134082943201065,-0.004361368250101805,-0.0036537579726427794,0.0,0.0,0.0,0.0,0.0024249423295259476,0.0035916913766413927,0.0003032229724340141,1.000111699104309,0.0,0.0,0.0,3.0263383388519287,6.403806209564209,0.8365596532821655,-547.7732543945312,0
2066.0499999999993,0.014122309163212776,-0.004383950028568506,-0.0036296157632023096,0.0,0.0,0.0,0.0,0.0012856156099587679,0.0024227711837738752,-0.000700787000823766,0.9999182224273682,0.0,0.0,0.0,3.0230982303619385,6.393007278442383,0.828596293926239,-547.1868286132812,0
2075.9310000000005,0.014126788824796677,-0.004484748467803001,-0.0036881263367831707,0.0,0.0,0.0,0.0,-0.002100727753713727,0.0006596320308744907,0.0023752793204039335,0.9992327690124512,0.0,0.0,0.0,3.0127718448638916,6.35656213760376,0.8239871859550476,-545.3177490234375,0
2085.8160000000007,0.01411453913897276,-0.004514389205724001,-0.003670124337077141,0.0,0.0,0.0,0.0,-0.002627738518640399,0.003201798303052783,-0.0014133199583739042,1.001226782798767,0.0,0.0,0.0,3.010288953781128,6.3513054847717285,0.8251886367797852,-544.8682861328125,0
2095.6910000000007,0.014086115173995495,-0.004591032397001982,-0.003704068250954151,0.0,0.0,0.0,0.0,-0.0008162070880644023,0.002787237521260977,-0.0005113275838084519,0.9989331364631653,0.0,0.0,0.0,3.0164318084716797,6.330405235290527,0.8092879056930542,-545.9801635742188,0
2105.5869999999995,0.014074019156396389,-0.004626184236258268,-0.0036897591780871153,0.0,0.0,0.0,0.0,-0.0020697182044386864,0.004448492079973221,0.0011230666423216462,0.9991673827171326,0.0,0.0,0.0,3.0137271881103516,6.321718692779541,0.7945191264152527,-545.4906005859375,0
2115.465,0.014027565717697144,-0.004662495572119951,-0.0036806717980653048,0.0,0.0,0.0,0.0,-0.0004933731979690492,-0.0014477174263447523,-0.0027163904160261154,1.0000889301300049,0.0,0.0,0.0,3.011288642883301,6.315107822418213,0.7861170172691345,-545.0492553710938,0
2125.3600000000006,0.014015869237482548,-0.004697781056165695,-0.003667518263682723,0.0,0.0,0.0,0.0,0.0028302459977567196,0.000726059777662158,0.0002464759163558483,1.0007996559143066,0.0,0.0,0.0,3.007699489593506,6.311408996582031,0.7904708981513977,-544.399658203125,0
2135.233,0.01396298035979271,-0.00473125372081995,-0.003658279776573181,0.0,0.0,0.0,0.0,-0.003193183336406946,-0.002900888677686453,0.00046017419663257897,1.0019053220748901,0.0,0.0,0.0,3.0047061443328857,6.300421714782715,0.7872968316078186,-543.8577880859375,0
2145.1370000000006,0.013948309235274792,-0.0047661797143518925,-0.0036438233219087124,0.0,0.0,0.0,0.0,0.00019022413471248,0.001445493195205927,-0.0013928257394582033,1.0016335248947144,0.0,0.0,0.0,3.0013694763183594,6.301509857177734,0.7992786765098572,-543.2538452148438,0
2155.0059999999994,0.013898792676627636,-0.004800980444997549,-0.003630313789471984,0.0,0.0,0.0,0.0,0.0005024593556299806,0.0047215004451572895,0.0026317716110497713,1.0017033815383911,0.0,0.0,0.0,2.997102737426758,6.2950568199157715,0.7958663105964661,-542.4815063476562,0
2164.897000000001,0.013880813494324684,-0.004837789107114077,-0.0036127609200775623,0.0,0.0,0.0,0.0,0.0013491478748619556,-0.0027296498883515596,-0.0022997979540377855,0.9993762969970703,0.0,0.0,0.0,2.9946515560150146,6.288538455963135,0.787096381187439,-542.037841796875,0
2174.7780000000002,0.013874602504074574,-0.0048620430752635,-0.0035678737331181765,0.0,0.0,0.0,0.0,0.0007916216854937375,-0.0026142271235585213,-0.0041274516843259335,0.9984655976295471,0.0,0.0,0.0,2.9917142391204834,6.282807350158691,0.7958633303642273,-541.5062255859375,0
2184.6759999999995,0.013857954181730747,-0.004898679908365011,-0.003548788372427225,0.0,0.0,0.0,0.0,0.001764826592989266,0.005344022996723652,0.00020476874487940222,0.9995787143707275,0.0,0.0,0.0,2.9876344203948975,6.276240348815918,0.7962901592254639,-540.7677612304688,0
2194.5560000000005,0.01382314320653677,-0.004922464489936829,-0.003516392782330513,0.0,0.0,0.0,0.0,-0.0024173175916075706,-0.0040438007563352585,-0.0014176700497046113,0.9998751282691956,0.0,0.0,0.0,2.9848904609680176,6.264700412750244,0.7754226922988892,-540.2711791992188,0
2204.4439999999995,0.013803355395793915,-0.00496086897328496,-0.0034974555019289255,0.0,0.0,0.0,0.0,-0.0020667873322963715,-0.0028145192191004753,-0.0013125183759257197,0.9997072219848633,0.0,0.0,0.0,2.9812822341918945,6.263566493988037,0.779930591583252,-539.6180419921875,0
2214.3150000000005,0.013785437680780888,-0.004965690430253744,-0.0034295348450541496,0.0,0.0,0.0,0.0,0.0004809433303307742,-0.0026648615021258593,-0.0004771804960910231,1.0015689134597778,0.0,0.0,0.0,2.9781992435455322,6.260863780975342,0.777996301651001,-539.06005859375,0
2224.210000000001,0.013763298280537128,-0.005002988036721945,-0.0034060925245285034,0.0,0.0,0.0,0.0,-0.002662906888872385,-0.003468792885541916,0.002328321570530534,1.002176284790039,0.0,0.0,0.0,2.974668502807617,6.255093097686768,0.7804438471794128,-538.4208984375,0
2234.09,0.013740399852395058,-0.005041064228862524,-0.003380413632839918,0.0,0.0,0.0,0.0,-0.0014891341561451554,0.004485456272959709,-0.0026250656228512526,1.0010565519332886,0.0,0.0,0.0,2.9730145931243896,6.258756160736084,0.7923228740692139,-538.1215209960938,0
2243.9789999999994,0.014012997969985008,-0.0038622242864221334,-0.0037713004276156425,0.0,0.0,0.0,0.0,2.1978481527185068e-05,0.006171871908009052,0.00025676831137388945,0.9968516230583191,0.0,0.0,0.0,2.9937028884887695,6.551963806152344,0.8380037546157837,-541.8661499023438,0
2253.8559999999998,0.014123067259788513,-0.003980294801294804,-0.003836632240563631,0.0,0.0,0.0,0.0,0.0037393327802419662,0.0037666403222829103,0.0006967867957428098,0.9981626868247986,0.0,0.0,0.0,2.989313840866089,6.503558158874512,0.8396244049072266,-541.07177734375,0
2263.754999999999,0.014109978452324867,-0.003967667929828167,-0.0038132171612232924,0.0,0.0,0.0,0.0,-0.0005640863673761487,0.0004891323624178767,-0.002515483647584915,0.9990148544311523,0.0,0.0,0.0,2.9866929054260254,6.490208148956299,0.8288004994392395,-540.597412109375,0
2273.6270000000004,0.014096243306994438,-0.003955403342843056,-0.003790830494835973,0.0,0.0,0.0,0.0,0.0031591400038450956,0.002028251066803932,-0.0024737517815083265,1.0031310319900513,0.0,0.0,0.0,2.982936382293701,6.484416484832764,0.827207624912262,-539.91748046875,0
2283.5200000000004,0.014082791283726692,-0.003944125026464462,-0.003767151152715087,0.0,0.0,0.0,0.0,-0.00014190234651323408,-0.0032423504162579775,-0.0002257357118651271,1.0037981271743774,0.0,0.0,0.0,2.9793527126312256,6.475549697875977,0.8177811503410339,-539.2687377929688,0
2293.3979999999992,0.014162998646497726,-0.004068884067237377,-0.0038614668883383274,0.0,0.0,0.0,0.0,-0.0013061069184914231,0.0013544464018195868,0.00010758543794509023,1.0000323057174683,0.0,0.0,0.0,2.9845101833343506,6.429043292999268,0.8318063020706177,-540.2022705078125,0
2303.2980000000007,0.014157152734696865,-0.004067665431648493,-0.003841663245111704,0.0,0.0,0.0,0.0,-0.0007087657577358186,0.004012689925730228,-0.00102958211209625,1.0009886026382446,0.0,0.0,0.0,2.9817333221435547,6.42697811126709,0.823874831199646,-539.6996459960938,0
2313.1679999999997,0.014217092655599117,-0.004195831250399351,-0.0039609079249203205,0.0,0.0,0.0,0.0,0.0024102991446852684,-0.0003657894267234951,-0.0019897548481822014,1.0013833045959473,0.0,0.0,0.0,2.97409987449646,6.3838276863098145,0.8192557096481323,-538.3179931640625,0
2323.062,0.014205748215317726,-0.0037357001565396786,-0.0035470754373818636,0.0,0.0,0.0,0.0,-0.0009096274152398109,0.0012012558290734887,0.0015150028048083186,0.9996508955955505,0.0,0.0,0.0,2.9952874183654785,6.506405353546143,0.8149426579475403,-542.1530151367188,0
2332.9390000000003,0.01426332164555788,-0.003924565855413675,-0.0036806268617510796,0.0,0.0,0.0,0.0,0.00020525835861917585,0.003043027129024267,-0.0014872717438265681,0.9990955591201782,0.0,0.0,0.0,2.9981377124786377,6.456009864807129,0.8077539205551147,-542.6688842773438,0
