timestamp,stateEstimate.x,stateEstimate.y,stateEstimate.z,controller.cmd_thrust,controller.cmd_roll,controller.cmd_pitch,controller.cmd_yaw,controller.r_roll,controller.r_pitch,controller.r_yaw,controller.accelz,controller.actuatorThrust,controller.roll,controller.pitch,controller.yaw,controller.rollRate,controller.pitchRate,controller.yawRate,controller.ctr_yaw
0.0,0.018295293673872948,0.02047812193632126,-0.0030571618117392063,0.0,0.0,0.0,0.0,-0.0007159151136875153,-0.00010970523726427928,-0.00019640708342194557,1.001251459121704,0.0,0.0,0.0,-1.4901591539382935,9.733095169067383,0.6110017895698547,269.7217712402344,0
9.881000000001222,0.018325960263609886,0.020075548440217972,-0.0033096191473305225,0.0,0.0,0.0,0.0,0.0013012036215513945,-0.0029285126365721226,0.0009759928216226399,0.9982945322990417,0.0,0.0,0.0,-1.4950872659683228,9.659735679626465,0.6231037378311157,270.61376953125,0
19.772000000000844,0.01827583834528923,0.02046602964401245,-0.0030511654913425446,0.0,0.0,0.0,0.0,-0.0034474057611078024,0.0038286319468170404,-0.0022328232880681753,1.0008652210235596,0.0,0.0,0.0,-1.479703664779663,9.733320236206055,0.6269640922546387,267.8293151855469,0
29.652000000000044,0.01831178180873394,0.02006394974887371,-0.0032990926411002874,0.0,0.0,0.0,0.0,-0.0018985096830874681,-0.00658429367467761,-0.0008288872195407748,1.000305414199829,0.0,0.0,0.0,-1.4853450059890747,9.663670539855957,0.6299695372581482,268.85040283203125,0
39.54600000000028,0.01823938824236393,0.02041243016719818,-0.003027327824383974,0.0,0.0,0.0,0.0,0.0009230556315742433,0.0008259332389570773,0.000766992918215692,0.9989399909973145,0.0,0.0,0.0,-1.4813488721847534,9.734400749206543,0.633739709854126,268.1270751953125,0
49.42200000000048,0.01829422451555729,0.020019710063934326,-0.0032550645992159843,0.0,0.0,0.0,0.0,0.0014675126876682043,-0.0018322985852137208,0.0011334773153066635,0.9992420077323914,0.0,0.0,0.0,-1.4878252744674683,9.658206939697266,0.6342962980270386,269.2993469238281,0
59.31800000000112,0.01826024428009987,0.020422082394361496,-0.003008682280778885,0.0,0.0,0.0,0.0,-0.0008334409212693572,0.0020693650003522635,-0.0025375254917889833,0.9986593723297119,0.0,0.0,0.0,-1.4789577722549438,9.732048988342285,0.6342566609382629,267.6943054199219,0
69.19300000000112,0.018265251070261,0.02005651220679283,-0.003237171098589897,0.0,0.0,0.0,0.0,-2.9801865821355022e-05,-0.00536430673673749,0.0008920126128941774,1.000226378440857,0.0,0.0,0.0,-1.487565040588379,9.6605863571167,0.6271438002586365,269.252197265625,0
79.09000000000015,0.018234556540846825,0.020457027480006218,-0.0029974679928272963,0.0,0.0,0.0,0.0,-0.00029597070533782244,0.001957421191036701,0.0006418728153221309,0.9985671639442444,0.0,0.0,0.0,-1.4771125316619873,9.735033988952637,0.6274983286857605,267.36029052734375,0
88.96600000000035,0.018246809020638466,0.02009441889822483,-0.003218516008928418,0.0,0.0,0.0,0.0,0.0011115417582914233,0.00928270909935236,0.0005328586557880044,0.9974291920661926,0.0,0.0,0.0,-1.4870800971984863,9.668964385986328,0.6284241080284119,269.1644592285156,0
98.84900000000016,0.018219640478491783,0.02049882523715496,-0.0029821982607245445,0.0,0.0,0.0,0.0,-0.0017632914241403341,0.001831939211115241,-0.0011487632291391492,0.9980220794677734,0.0,0.0,0.0,-1.4713166952133179,9.747796058654785,0.607037365436554,266.3112487792969,0
108.73500000000058,0.018282972276210785,0.02007509395480156,-0.0032317047007381916,0.0,0.0,0.0,0.0,-0.0043463739566504955,-0.0015597775345668197,0.00241134618408978,0.9998584389686584,0.0,0.0,0.0,-1.4800821542739868,9.666090965270996,0.6117653250694275,267.8977966308594,0
118.625,0.018242623656988144,0.02047199383378029,-0.0029827370308339596,0.0,0.0,0.0,0.0,0.0010245612356811762,-0.003883566241711378,0.001795527758076787,1.0000523328781128,0.0,0.0,0.0,-1.4666893482208252,9.746749877929688,0.6079407334327698,265.47369384765625,0
128.5030000000006,0.018201323226094246,0.020080963149666786,-0.0032502186950296164,0.0,0.0,0.0,0.0,-0.0055713658221066,-0.002057373756542802,-0.0026579119730740786,0.9970064759254456,0.0,0.0,0.0,-1.4716445207595825,9.663784980773926,0.6125410199165344,266.3705749511719,0
138.39300000000003,0.018144192174077034,0.020444991067051888,-0.0030015052761882544,0.0,0.0,0.0,0.0,-0.0006888661882840097,-0.0051683904603123665,0.002142576966434717,0.9976018667221069,0.0,0.0,0.0,-1.4695208072662354,9.745627403259277,0.606334924697876,265.9862060546875,0
148.27200000000084,0.018224027007818222,0.020050521939992905,-0.003221194026991725,0.0,0.0,0.0,0.0,-0.0006541764596477151,0.0023472500033676624,0.0002846205607056618,0.9993008971214294,0.0,0.0,0.0,-1.4791778326034546,9.676265716552734,0.6281953454017639,267.734130859375,0
158.16100000000006,0.018167007714509964,0.02040860801935196,-0.0029765875078737736,0.0,0.0,0.0,0.0,0.0025672721676528454,0.00441280473023653,0.002261462854221463,1.0002470016479492,0.0,0.0,0.0,-1.474536418914795,9.747905731201172,0.6165074706077576,266.89404296875,0
168.04700000000048,0.018211442977190018,0.020028995350003242,-0.0031964858062565327,0.0,0.0,0.0,0.0,0.0025276546366512775,-0.006734986323863268,-0.00042399580706842244,1.000657558441162,0.0,0.0,0.0,-1.483220100402832,9.67081356048584,0.6192229986190796,268.46575927734375,0
177.9300000000003,0.018130116164684296,0.02038702182471752,-0.0029094000346958637,0.0,0.0,0.0,0.0,0.002958679338917136,-0.0025984682142734528,-0.0004184503632131964,1.0006917715072632,0.0,0.0,0.0,-1.4819995164871216,9.73820972442627,0.6193212270736694,268.2448425292969,0
187.8130000000001,0.018179593607783318,0.019997064024209976,-0.0031260340474545956,0.0,0.0,0.0,0.0,0.002685921499505639,-0.0008221446769312024,-0.0017744810320436954,0.9976910948753357,0.0,0.0,0.0,-1.4887444972991943,9.659945487976074,0.634463906288147,269.4657287597656,0
197.70399999999972,0.018123192712664604,0.020386280491948128,-0.0028572911396622658,0.0,0.0,0.0,0.0,-0.0012230267748236656,0.002305242931470275,-0.0014682121109217405,0.9994046688079834,0.0,0.0,0.0,-1.4879155158996582,9.73224925994873,0.6271511316299438,269.315673828125,0
207.58799999999974,0.018136195838451385,0.01997959427535534,-0.0031007861252874136,0.0,0.0,0.0,0.0,0.002120326040312648,-0.0011702746851369739,0.0002504460862837732,0.9985590577125549,0.0,0.0,0.0,-1.4975610971450806,9.656681060791016,0.6276382803916931,271.0615234375,0
217.47400000000016,0.018122943118214607,0.02039175108075142,-0.002891190815716982,0.0,0.0,0.0,0.0,-0.001288474421016872,-0.000597492849919945,0.0014859106158837676,0.9988767504692078,0.0,0.0,0.0,-1.4912534952163696,9.733890533447266,0.630057156085968,269.9198303222656,0
227.35400000000118,0.018140187487006187,0.020026057958602905,-0.0031029051169753075,0.0,0.0,0.0,0.0,0.002418005606159568,0.009193269535899162,-0.001613897504284978,1.0007917881011963,0.0,0.0,0.0,-1.4966939687728882,9.670787811279297,0.6375809907913208,270.9045715332031,0
237.2420000000002,0.018087923526763916,0.020411698147654533,-0.002844511065632105,0.0,0.0,0.0,0.0,0.00019445930956862867,-0.006619994528591633,0.001340409042313695,0.998132586479187,0.0,0.0,0.0,-1.4932359457015991,9.740961074829102,0.6168404817581177,270.2786560058594,0
247.1280000000006,0.01820802129805088,0.019960828125476837,-0.0030767819844186306,0.0,0.0,0.0,0.0,-0.0005498336395248771,-0.0011563606094568968,0.004958287347108126,0.9987894892692566,0.0,0.0,0.0,-1.500610113143921,9.653085708618164,0.6497181057929993,271.6134033203125,0
257.0100000000002,0.018199194222688675,0.020377546548843384,-0.0028643144760280848,0.0,0.0,0.0,0.0,-0.004506825003772974,0.00019908697868231684,2.894163117161952e-05,1.0004196166992188,0.0,0.0,0.0,-1.499671459197998,9.736543655395508,0.653247058391571,271.4434814453125,0
266.89400000000023,0.018305212259292603,0.0199549812823534,-0.003086443990468979,0.0,0.0,0.0,0.0,-0.0020956944208592176,-0.000834177597425878,-0.0016055636806413531,0.9995389580726624,0.0,0.0,0.0,-1.5032633543014526,9.660639762878418,0.6696299910545349,272.09368896484375,0
276.78100000000086,0.018274713307619095,0.02034986950457096,-0.002845106180757284,0.0,0.0,0.0,0.0,-0.0020252030808478594,0.0032570373732596636,-1.6200063328142278e-05,0.9986764788627625,0.0,0.0,0.0,-1.5003606081008911,9.737862586975098,0.6612834930419922,271.5682678222656,0
286.6660000000011,0.018336141481995583,0.019924795255064964,-0.0030870249029248953,0.0,0.0,0.0,0.0,0.0018202150240540504,-0.0056329574435949326,-0.0018658203771337867,0.9977673292160034,0.0,0.0,0.0,-1.5058854818344116,9.660000801086426,0.6632663607597351,272.5682678222656,0
296.5500000000011,0.01830880343914032,0.02031898871064186,-0.0028476775623857975,0.0,0.0,0.0,0.0,0.0008327525574713945,-0.0005942284478805959,0.004218797665089369,1.0003211498260498,0.0,0.0,0.0,-1.501441240310669,9.735846519470215,0.6654304265975952,271.7638244628906,0
306.4390000000003,0.018345538526773453,0.019917495548725128,-0.003085949458181858,0.0,0.0,0.0,0.0,-0.0036283063236624002,0.01021084189414978,0.0004637781821656972,1.0002695322036743,0.0,0.0,0.0,-1.5042942762374878,9.657744407653809,0.6691407561302185,272.2802429199219,0
316.3230000000003,0.01831817626953125,0.02031208761036396,-0.0028459476307034492,0.0,0.0,0.0,0.0,-0.0015308152651414275,-0.0025143749080598354,0.0038724502082914114,0.9995478987693787,0.0,0.0,0.0,-1.4983696937561035,9.741514205932617,0.6342548131942749,271.2078857421875,0
326.20800000000054,0.018316099420189857,0.01993175782263279,-0.0030795163474977016,0.0,0.0,0.0,0.0,0.0024854429066181183,-0.0003262205864302814,-0.0016932114958763123,0.9989755153656006,0.0,0.0,0.0,-1.504315733909607,9.666900634765625,0.6335751414299011,272.2841491699219,0
336.09500000000116,0.018262390047311783,0.020314175635576248,-0.002805376425385475,0.0,0.0,0.0,0.0,0.0003580519405659288,0.0010889997938647866,-0.0007361441967077553,1.0001825094223022,0.0,0.0,0.0,-1.499896764755249,9.735541343688965,0.6189458966255188,271.48431396484375,0
345.97400000000016,0.01824154332280159,0.019917091354727745,-0.003056576009839773,0.0,0.0,0.0,0.0,0.0012603262439370155,-0.0031365060713142157,0.0029306940268725157,0.9982739686965942,0.0,0.0,0.0,-1.508049726486206,9.657087326049805,0.6211910843849182,272.96002197265625,0
355.8670000000002,0.018208619207143784,0.020326130092144012,-0.002800474176183343,0.0,0.0,0.0,0.0,0.0032851118594408035,0.0011364328674972057,-0.0026268670335412025,0.9978688955307007,0.0,0.0,0.0,-1.504352331161499,9.739423751831055,0.6264500617980957,272.2908020019531,0
365.7510000000002,0.01823664829134941,0.019961340352892876,-0.0030109910294413567,0.0,0.0,0.0,0.0,-0.00268512312322855,0.0023177857510745525,-0.0030177223961800337,1.002023696899414,0.0,0.0,0.0,-1.511337161064148,9.663385391235352,0.6327743530273438,273.5550231933594,0
375.6310000000012,0.018233297392725945,0.020379936322569847,-0.002797983353957534,0.0,0.0,0.0,0.0,0.0013784226030111313,-0.003167768707498908,-0.001073416555300355,0.9999463558197021,0.0,0.0,0.0,-1.5110433101654053,9.751258850097656,0.6200187802314758,273.5018310546875,0
385.52000000000044,0.018238428980112076,0.020013904199004173,-0.003021846292540431,0.0,0.0,0.0,0.0,-0.0032682055607438087,0.0018486208282411098,0.0029313950799405575,0.9994267225265503,0.0,0.0,0.0,-1.5159523487091064,9.677257537841797,0.6262320280075073,274.390380859375,0
395.40500000000065,0.018220871686935425,0.020411962643265724,-0.0028017451986670494,0.0,0.0,0.0,0.0,-0.0005019832169637084,-0.0015710474690422416,-0.0007355496636591852,0.9984070658683777,0.0,0.0,0.0,-1.5042649507522583,9.758907318115234,0.6208686828613281,272.27496337890625,0
405.28700000000026,0.018224352970719337,0.020028691738843918,-0.003039746079593897,0.0,0.0,0.0,0.0,-0.0015251825097948313,0.0005607536877505481,0.0012371124466881156,1.0000742673873901,0.0,0.0,0.0,-1.5122671127319336,9.682884216308594,0.6337482333183289,273.7233581542969,0
415.1730000000007,0.018260149285197258,0.0204978808760643,-0.002866823924705386,0.0,0.0,0.0,0.0,-0.0002588290080893785,-0.00448004063218832,0.0014909330056980252,0.9992353916168213,0.0,0.0,0.0,-1.5038527250289917,9.7744722366333,0.6399192810058594,272.2003479003906,0
425.0570000000007,0.018266525119543076,0.02010713703930378,-0.0031198367942124605,0.0,0.0,0.0,0.0,0.0011475991923362017,-0.005010688677430153,0.004937377758324146,0.9991282820701599,0.0,0.0,0.0,-1.5141054391860962,9.699498176574707,0.6533820033073425,274.05609130859375,0
434.9400000000005,0.01827141083776951,0.020534297451376915,-0.0029235833790153265,0.0,0.0,0.0,0.0,0.0007878378382883966,0.004396812990307808,0.0007510768482461572,1.0004080533981323,0.0,0.0,0.0,-1.507996916770935,9.779839515686035,0.6633195281028748,272.950439453125,0
444.82700000000114,0.01825772412121296,0.020169297233223915,-0.0031706674490123987,0.0,0.0,0.0,0.0,-0.0003928655351046473,-0.002546287840232253,-0.00011269242531852797,1.0005576610565186,0.0,0.0,0.0,-1.5173594951629639,9.703699111938477,0.6511898040771484,274.6450500488281,0
454.71399999999994,0.018252655863761902,0.020580003038048744,-0.0029653524979948997,0.0,0.0,0.0,0.0,-0.00019800220616161823,0.0008266034419648349,-3.420433131395839e-05,0.9983252286911011,0.0,0.0,0.0,-1.5110975503921509,9.780790328979492,0.6492528915405273,273.5116882324219,0
464.6110000000008,0.018279055133461952,0.02019067294895649,-0.0032187090255320072,0.0,0.0,0.0,0.0,0.001081850379705429,0.00011510504555189982,-0.0027325102128088474,0.9983885884284973,0.0,0.0,0.0,-1.5181705951690674,9.702295303344727,0.6495319604873657,274.7919006347656,0
474.4920000000002,0.018282582983374596,0.02062956988811493,-0.0030128087382763624,0.0,0.0,0.0,0.0,-0.0009050825610756874,-0.0016300164861604571,0.002408647211268544,0.9972915053367615,0.0,0.0,0.0,-1.5050569772720337,9.783547401428223,0.6492369174957275,272.4183044433594,0
484.3670000000002,0.0183283481746912,0.020205959677696228,-0.003289612475782633,0.0,0.0,0.0,0.0,0.0004204491269774735,-0.003847871208563447,-0.002571251941844821,0.9981452822685242,0.0,0.0,0.0,-1.5130845308303833,9.69887638092041,0.6608102917671204,273.8713073730469,0
494.2520000000004,0.01828244887292385,0.020574603229761124,-0.0030478588305413723,0.0,0.0,0.0,0.0,-0.0029274574480950832,0.0007746097398921847,0.0035456139594316483,0.9975243806838989,0.0,0.0,0.0,-1.514203429222107,9.76537799835205,0.6583006978034973,274.0738220214844,0
504.14000000000124,0.018303140997886658,0.020181728526949883,-0.0033159172162413597,0.0,0.0,0.0,0.0,-0.000705549493432045,-0.004118561279028654,0.0017462314572185278,0.9991933107376099,0.0,0.0,0.0,-1.5202919244766235,9.690144538879395,0.6545479893684387,275.1759033203125,0
514.0200000000004,0.018213536590337753,0.020501837134361267,-0.0030388995073735714,0.0,0.0,0.0,0.0,-0.0010600700043141842,-0.0004717391566373408,-0.0025063506327569485,0.9982625842094421,0.0,0.0,0.0,-1.5150845050811768,9.749935150146484,0.6537067294120789,274.2333068847656,0
523.9050000000007,0.01831034943461418,0.020074451342225075,-0.0032960125245153904,0.0,0.0,0.0,0.0,0.0006730730528943241,-0.0013630077010020614,0.0012443936429917812,0.998773992061615,0.0,0.0,0.0,-1.5227469205856323,9.66474437713623,0.674752950668335,275.6202087402344,0
533.7950000000001,0.01822708174586296,0.02043677121400833,-0.0029972167685627937,0.0,0.0,0.0,0.0,-0.0022809067741036415,-0.004161909222602844,0.0012816042872145772,0.9998351335525513,0.0,0.0,0.0,-1.5117141008377075,9.729681968688965,0.66385817527771,273.6232604980469,0
543.6800000000003,0.01826477237045765,0.020049039274454117,-0.0032426954712718725,0.0,0.0,0.0,0.0,0.0034936873707920313,0.00308603304438293,0.003266114043071866,0.9999022483825684,0.0,0.0,0.0,-1.5190082788467407,9.658846855163574,0.6797606945037842,274.9435119628906,0
553.5600000000013,0.0182142686098814,0.020414259284734726,-0.002988597610965371,0.0,0.0,0.0,0.0,0.00020271945686545223,-0.0019204978598281741,0.0025726333260536194,0.9990834593772888,0.0,0.0,0.0,-1.510308861732483,9.722343444824219,0.6653367877006531,273.3689270019531,0
563.4459999999999,0.01827339082956314,0.020001064985990524,-0.003239130135625601,0.0,0.0,0.0,0.0,-0.001653216895647347,0.0024591360706835985,-0.0010753896785899997,0.9972958564758301,0.0,0.0,0.0,-1.5164498090744019,9.638716697692871,0.6820992231369019,274.48040771484375,0
573.3299999999999,0.018256686627864838,0.020420989021658897,-0.0030035674571990967,0.0,0.0,0.0,0.0,0.0003220021026208997,-0.002866122405976057,0.002406773390248418,0.9973161220550537,0.0,0.0,0.0,-1.5038104057312012,9.71915340423584,0.6842517852783203,272.19268798828125,0
583.2160000000003,0.018312327563762665,0.02004716545343399,-0.003230012021958828,0.0,0.0,0.0,0.0,0.0005011549801565707,0.0001755003904690966,0.0013989536091685295,0.9972901940345764,0.0,0.0,0.0,-1.5074008703231812,9.643196105957031,0.7048621773719788,272.8425598144531,0
593.1110000000008,0.018261468037962914,0.020406823605298996,-0.0029732706025242805,0.0,0.0,0.0,0.0,0.00010157081123907119,0.001349203521385789,0.0009365500300191343,0.997651994228363,0.0,0.0,0.0,-1.5004823207855225,9.712200164794922,0.6944968700408936,271.5903015136719,0
602.987000000001,0.018306219950318336,0.01999448612332344,-0.0032330062240362167,0.0,0.0,0.0,0.0,0.0007812618860043585,0.005287836771458387,-0.0010787384817376733,0.9993931651115417,0.0,0.0,0.0,-1.5042407512664795,9.630268096923828,0.7009631991386414,272.2705993652344,0
612.8770000000004,0.018236828967928886,0.020348835736513138,-0.00294894864782691,0.0,0.0,0.0,0.0,-0.0014494715724140406,-0.009146480821073055,0.0002860508393496275,0.999359130859375,0.0,0.0,0.0,-1.4904381036758423,9.698930740356445,0.6797123551368713,269.7722473144531,0
622.7610000000004,0.018275907263159752,0.019947398453950882,-0.003197786631062627,0.0,0.0,0.0,0.0,-0.0019008618546649814,-0.0011506190057843924,8.135625830618665e-05,1.0002752542495728,0.0,0.0,0.0,-1.4955520629882812,9.619492530822754,0.7041639685630798,270.6978759765625,0
632.6409999999996,0.018282869830727577,0.02038746513426304,-0.002977841068059206,0.0,0.0,0.0,0.0,-0.00010438258323119953,-0.009369468316435814,0.0013538184575736523,1.0004463195800781,0.0,0.0,0.0,-1.4847021102905273,9.706774711608887,0.7111228704452515,268.7340087890625,0
642.5259999999998,0.018314925953745842,0.019981781020760536,-0.003236020216718316,0.0,0.0,0.0,0.0,-0.0002495200315024704,-0.0025543917436152697,-0.0020013190805912018,1.0013443231582642,0.0,0.0,0.0,-1.487579107284546,9.629412651062012,0.7438969612121582,269.2547607421875,0
652.4260000000013,0.01828329637646675,0.02036224864423275,-0.002984453924000263,0.0,0.0,0.0,0.0,0.000825502211228013,-0.0025613666512072086,0.0010923428926616907,1.0018218755722046,0.0,0.0,0.0,-1.4859485626220703,9.707436561584473,0.7462815046310425,268.9596252441406,0
662.2970000000005,0.018304774537682533,0.020014440640807152,-0.003199685597792268,0.0,0.0,0.0,0.0,-0.0019531226716935635,-0.00035450284485705197,0.0027688071131706238,0.9996591806411743,0.0,0.0,0.0,-1.491597056388855,9.635695457458496,0.7530753016471863,269.9820556640625,0
672.1840000000011,0.018271273002028465,0.020391685888171196,-0.002938155084848404,0.0,0.0,0.0,0.0,-0.001644448610022664,0.0036245016381144524,-0.0034833920653909445,0.998994767665863,0.0,0.0,0.0,-1.4835292100906372,9.711737632751465,0.7426285147666931,268.5217590332031,0
682.0660000000007,0.018296027556061745,0.01999584771692753,-0.0031828093342483044,0.0,0.0,0.0,0.0,0.00042614724952727556,-0.0022972298320382833,-0.0009909357177093625,0.9995355010032654,0.0,0.0,0.0,-1.488707423210144,9.63576602935791,0.7365462183952332,269.45904541015625,0
691.9510000000009,0.018271906301379204,0.020373355597257614,-0.0029351639095693827,0.0,0.0,0.0,0.0,0.0006470601074397564,0.001487460220232606,0.0036220599431544542,1.000923991203308,0.0,0.0,0.0,-1.4823201894760132,9.707155227661133,0.7333499193191528,268.3028869628906,0
701.8360000000011,0.018275458365678787,0.020002534613013268,-0.003169003175571561,0.0,0.0,0.0,0.0,-0.0014595530228689313,0.00214083818718791,0.003073018277063966,0.9980248212814331,0.0,0.0,0.0,-1.4904367923736572,9.632097244262695,0.7331181168556213,269.77203369140625,0
711.7219999999998,0.01824917271733284,0.020374314859509468,-0.00292001198977232,0.0,0.0,0.0,0.0,-0.002059514634311199,-0.0013667712919414043,-0.002463154960423708,0.9998877048492432,0.0,0.0,0.0,-1.4859391450881958,9.711325645446777,0.7290710806846619,268.95794677734375,0
721.5990000000002,0.01828199438750744,0.01997094601392746,-0.003164379158988595,0.0,0.0,0.0,0.0,-0.0026670917868614197,-0.003701114095747471,0.0013250532792881131,0.9993292093276978,0.0,0.0,0.0,-1.4923914670944214,9.635115623474121,0.7407741546630859,270.1258239746094,0
731.4950000000008,0.018264498561620712,0.020362114533782005,-0.002917890902608633,0.0,0.0,0.0,0.0,-0.0010923793306574225,0.0024191217962652445,-0.0013589859008789062,1.0010178089141846,0.0,0.0,0.0,-1.4895516633987427,9.719050407409668,0.7459743618965149,269.6118469238281,0
741.3690000000006,0.0182508435100317,0.020004110410809517,-0.003148274263367057,0.0,0.0,0.0,0.0,-0.0020455678459256887,1.8023059965344146e-05,0.005393494851887226,1.0001468658447266,0.0,0.0,0.0,-1.497376799583435,9.6495361328125,0.7337148189544678,271.0281677246094,0
751.2650000000012,0.018291695043444633,0.020478663966059685,-0.0029497728683054447,0.0,0.0,0.0,0.0,0.0025993511080741882,-0.008024610579013824,0.00257631647400558,0.9986748695373535,0.0,0.0,0.0,-1.4866896867752075,9.746962547302246,0.7319663763046265,269.0937805175781,0
761.1460000000006,0.018323278054594994,0.020070619881153107,-0.0032080290839076042,0.0,0.0,0.0,0.0,-0.000855134567245841,-0.0011377200717106462,0.000884443405084312,0.9989688396453857,0.0,0.0,0.0,-1.4935423135757446,9.658477783203125,0.7546583414077759,270.3341064453125,0
771.0360000000001,0.018307585269212723,0.020438648760318756,-0.0029803591314703226,0.0,0.0,0.0,0.0,0.0022500944323837757,-0.00504128634929657,-0.0016535769682377577,0.9978044033050537,0.0,0.0,0.0,-1.489598274230957,9.733180046081543,0.7458747029304504,269.6202392578125,0
780.9110000000019,0.018327176570892334,0.02004801295697689,-0.0032355436123907566,0.0,0.0,0.0,0.0,0.0039594052359461784,0.0010915093589574099,-0.0023377765901386738,0.9983612298965454,0.0,0.0,0.0,-1.4967683553695679,9.652860641479492,0.7483801245689392,270.9180603027344,0
790.8059999999987,0.018331022933125496,0.020476480945944786,-0.0030076319817453623,0.0,0.0,0.0,0.0,-0.004179759416729212,0.0004944597603753209,0.0014239028096199036,0.9990940093994141,0.0,0.0,0.0,-1.4923547506332397,9.72992992401123,0.7355758547782898,270.11920166015625,0
800.6869999999999,0.018324928358197212,0.02010866440832615,-0.003262733342126012,0.0,0.0,0.0,0.0,0.0012487760977819562,0.000289711490040645,9.64540959103033e-05,0.999905526638031,0.0,0.0,0.0,-1.4988183975219727,9.66271686553955,0.7293273210525513,271.28912353515625,0
810.5730000000021,0.018240081146359444,0.020430104807019234,-0.002957843244075775,0.0,0.0,0.0,0.0,0.0010128897847607732,0.0008930966141633689,-0.0014709694078192115,1.0000685453414917,0.0,0.0,0.0,-1.4854525327682495,9.719475746154785,0.7120500802993774,268.869873046875,0
820.4489999999987,0.018278837203979492,0.020078059285879135,-0.003175408812239766,0.0,0.0,0.0,0.0,0.0010946807451546192,-0.0009624798549339175,0.0012059682048857212,0.995582640171051,0.0,0.0,0.0,-1.4875507354736328,9.645650863647461,0.7153992056846619,269.2496032714844,0
830.3449999999993,0.01824183017015457,0.02044447883963585,-0.0029229435604065657,0.0,0.0,0.0,0.0,-0.0021884404122829437,-0.0021065587643533945,-0.00376044400036335,0.9979994893074036,0.0,0.0,0.0,-1.480249285697937,9.713179588317871,0.7040730714797974,267.9280700683594,0
840.2240000000002,0.018269337713718414,0.02006593905389309,-0.0031674017664045095,0.0,0.0,0.0,0.0,-0.00021543823822867125,-0.0027428031899034977,-0.0034066312946379185,0.9978456497192383,0.0,0.0,0.0,-1.4920423030853271,9.639677047729492,0.7082679867744446,270.0626220703125,0
850.116,0.01820812188088894,0.020427342504262924,-0.002879919484257698,0.0,0.0,0.0,0.0,-6.531978579005226e-05,-0.0008041250985115767,0.001643393188714981,0.9999144077301025,0.0,0.0,0.0,-1.4871388673782349,9.71158504486084,0.7011902332305908,269.1750793457031,0
859.9889999999996,0.018243368715047836,0.02005019038915634,-0.0031182460952550173,0.0,0.0,0.0,0.0,0.0007044300436973572,-0.0031861078459769487,0.00010598343214951456,0.9986041188240051,0.0,0.0,0.0,-1.4934519529342651,9.634574890136719,0.7088203430175781,270.3177795410156,0
869.8809999999994,0.018227387219667435,0.020437953993678093,-0.0028823502361774445,0.0,0.0,0.0,0.0,-0.0004103217215742916,0.0017064595595002174,0.0015109480591490865,0.9991455078125,0.0,0.0,0.0,-1.4916332960128784,9.707867622375488,0.7063547372817993,269.98858642578125,0
879.7620000000006,0.01825341023504734,0.020062603056430817,-0.0031260300893336535,0.0,0.0,0.0,0.0,-0.0008691319380886853,0.0030414783395826817,-0.001089704455807805,1.0016061067581177,0.0,0.0,0.0,-1.4970279932022095,9.629048347473145,0.704474151134491,270.9650573730469,0
889.6590000000015,0.01820284128189087,0.0204356387257576,-0.002843838417902589,0.0,0.0,0.0,0.0,0.001507233246229589,-0.006309060379862785,-0.0010767827043309808,0.9995691180229187,0.0,0.0,0.0,-1.494529366493225,9.703604698181152,0.6891183853149414,270.5127868652344,0
899.5310000000009,0.018275396898388863,0.02006525546312332,-0.003059182083234191,0.0,0.0,0.0,0.0,0.0002332779549760744,0.00019604033150244504,0.0007428117096424103,0.9999521970748901,0.0,0.0,0.0,-1.50038743019104,9.6238374710083,0.7108151912689209,271.5730895996094,0
909.4260000000013,0.018284138292074203,0.02048763446509838,-0.002838331973180175,0.0,0.0,0.0,0.0,0.0012393491342663765,0.002126282313838601,-0.0012118658050894737,0.999542236328125,0.0,0.0,0.0,-1.4859333038330078,9.708562850952148,0.7097776532173157,268.95684814453125,0
919.3000000000011,0.01826411299407482,0.020094696432352066,-0.0031123573426157236,0.0,0.0,0.0,0.0,0.0018241684883832932,0.0015323356492444873,0.0013964842073619366,0.9994916319847107,0.0,0.0,0.0,-1.4918824434280396,9.627157211303711,0.707053005695343,270.03369140625,0
929.1960000000017,0.018236618489027023,0.020468996837735176,-0.0028687496669590473,0.0,0.0,0.0,0.0,0.00037511391565203667,0.001367335207760334,0.00715943006798625,0.9972229599952698,0.0,0.0,0.0,-1.490225076675415,9.698810577392578,0.6970547437667847,269.73370361328125,0
939.0799999999999,0.018281787633895874,0.020106574520468712,-0.0030958743300288916,0.0,0.0,0.0,0.0,0.003143836045637727,0.00046774340444244444,-0.0002396119962213561,0.9973433613777161,0.0,0.0,0.0,-1.4934759140014648,9.62176513671875,0.6962500214576721,270.3221130371094,0
948.9699999999993,0.018252277746796608,0.020476238802075386,-0.0028530422132462263,0.0,0.0,0.0,0.0,0.0016880080802366138,0.0007118109497241676,-0.0039511555805802345,0.9984292387962341,0.0,0.0,0.0,-1.4870041608810425,9.684039115905762,0.6745566725730896,269.15069580078125,0
958.8520000000008,0.018299438059329987,0.02010280080139637,-0.0030898386612534523,0.0,0.0,0.0,0.0,0.0014471742324531078,-0.001360463909804821,-0.0015252666780725121,0.9989217519760132,0.0,0.0,0.0,-1.493708848953247,9.60168170928955,0.672675371170044,270.3642578125,0
968.733000000002,0.01832258142530918,0.02054542861878872,-0.0028940646443516016,0.0,0.0,0.0,0.0,0.001244967570528388,0.00011661217286018655,-0.00021937019482720643,0.9988961219787598,0.0,0.0,0.0,-1.4882981777191162,9.68456745147705,0.6791115403175354,269.3849182128906,0
978.6099999999988,0.0183856301009655,0.020123250782489777,-0.003167983377352357,0.0,0.0,0.0,0.0,-0.00048726453678682446,-2.9700751838390715e-05,-0.005012684501707554,0.9982724189758301,0.0,0.0,0.0,-1.4939090013504028,9.594918251037598,0.6864067316055298,270.4004821777344,0
988.5059999999994,0.018331045284867287,0.020461101084947586,-0.002908474998548627,0.0,0.0,0.0,0.0,0.0030694566667079926,-0.0014918037923052907,-0.002032302785664797,0.9972589612007141,0.0,0.0,0.0,-1.494341492652893,9.662213325500488,0.6692975759506226,270.478759765625,0
998.3809999999994,0.01837332919239998,0.020056670531630516,-0.0031764355953782797,0.0,0.0,0.0,0.0,-0.000705376616679132,0.0037675276398658752,-0.0018693911843001842,0.9982656836509705,0.0,0.0,0.0,-1.49717378616333,9.57307243347168,0.6821149587631226,270.9914245605469,0
1008.2739999999994,0.018326034769415855,0.02041604369878769,-0.0029170725028961897,0.0,0.0,0.0,0.0,0.0002926932356785983,-0.00503268837928772,-0.00021380542602855712,0.9999356865882874,0.0,0.0,0.0,-1.4949803352355957,9.640167236328125,0.6591100096702576,270.5943908691406,0
1018.1499999999996,0.01831911876797676,0.020025823265314102,-0.003191232681274414,0.0,0.0,0.0,0.0,0.002225718926638365,-0.007678210269659758,-0.003475687699392438,1.0013302564620972,0.0,0.0,0.0,-1.5025066137313843,9.55862045288086,0.6647235751152039,271.9566955566406,0
1028.0429999999997,0.01827731542289257,0.020401928573846817,-0.0029372810386121273,0.0,0.0,0.0,0.0,0.0006609322736039758,-0.001104704919271171,0.0035985393915325403,1.0000264644622803,0.0,0.0,0.0,-1.5010669231414795,9.630464553833008,0.6719550490379333,271.69610595703125,0
1037.924000000001,0.01829836145043373,0.020006563514471054,-0.0031975791789591312,0.0,0.0,0.0,0.0,0.0010027820244431496,0.00248555070720613,0.0031528950203210115,0.9976193904876709,0.0,0.0,0.0,-1.5054835081100464,9.549797058105469,0.6773492693901062,272.4955139160156,0
1047.817000000001,0.01825641095638275,0.020388163626194,-0.0029463304672390223,0.0,0.0,0.0,0.0,-0.00038181786658242345,0.0028014976996928453,-0.00023876447812654078,0.9996163845062256,0.0,0.0,0.0,-1.498184323310852,9.626158714294434,0.6682900190353394,271.17431640625,0
1057.6930000000011,0.018297474831342697,0.020039884373545647,-0.00316171208396554,0.0,0.0,0.0,0.0,-0.0021644895896315575,-0.003929974045604467,-0.00017039116937667131,1.0011403560638428,0.0,0.0,0.0,-1.501436471939087,9.553391456604004,0.6746442914009094,271.7629699707031,0
1067.5870000000014,0.018280548974871635,0.020455773919820786,-0.0029301156755536795,0.0,0.0,0.0,0.0,-0.0022992228623479605,0.0029340111650526524,0.003681664587929845,0.9968721270561218,0.0,0.0,0.0,-1.4890642166137695,9.642436027526855,0.6848297119140625,269.5235900878906,0
1077.460000000001,0.018315281718969345,0.02007177099585533,-0.003176397178322077,0.0,0.0,0.0,0.0,-0.0009190224809572101,0.0013085921527817845,0.0014047204749658704,0.9989591836929321,0.0,0.0,0.0,-1.4899708032608032,9.570375442504883,0.6914358735084534,269.68768310546875,0
1087.3619999999992,0.01832076907157898,0.02051420882344246,-0.002962823025882244,0.0,0.0,0.0,0.0,0.000645957188680768,0.0019620449747890234,0.0005838219076395035,1.000256896018982,0.0,0.0,0.0,-1.4827579259872437,9.660595893859863,0.6907221078872681,268.3821105957031,0
1097.2310000000016,0.018325461074709892,0.020158274099230766,-0.0032043312676250935,0.0,0.0,0.0,0.0,0.0020868307910859585,0.0018474988173693419,-0.003474041586741805,0.9983762502670288,0.0,0.0,0.0,-1.4869740009307861,9.584525108337402,0.6878212690353394,269.1452331542969,0
1107.128999999999,0.018333034589886665,0.020606761798262596,-0.002993763890117407,0.0,0.0,0.0,0.0,0.001500638434663415,-0.0016666569281369448,0.0031500898767262697,0.9989968538284302,0.0,0.0,0.0,-1.47391939163208,9.669610023498535,0.6774041056632996,266.7823486328125,0
1117.003999999999,0.01835969090461731,0.020182279869914055,-0.0032843737863004208,0.0,0.0,0.0,0.0,-0.00014601483417209238,0.0028853428084403276,-0.0011868596775457263,1.0005015134811401,0.0,0.0,0.0,-1.4784691333770752,9.577540397644043,0.6834893226623535,267.6058654785156,0
1126.8950000000023,0.018269602209329605,0.020497556775808334,-0.002997335512191057,0.0,0.0,0.0,0.0,0.0010354879777878523,0.00038753965054638684,0.0035036916378885508,0.9985052347183228,0.0,0.0,0.0,-1.4746557474136353,9.639719009399414,0.6585370302200317,266.9156188964844,0
1136.777,0.018310625106096268,0.020078953355550766,-0.0032693371176719666,0.0,0.0,0.0,0.0,-0.00226336601190269,0.0034839678555727005,0.001976298401132226,0.9978660941123962,0.0,0.0,0.0,-1.4788340330123901,9.55186939239502,0.667030930519104,267.6719055175781,0
1146.664999999999,0.018294159322977066,0.02052011899650097,-0.0030250917188823223,0.0,0.0,0.0,0.0,-0.0024761923123151064,-0.004272110294550657,-0.0005207445938140154,1.00045907497406,0.0,0.0,0.0,-1.4696227312088013,9.644002914428711,0.6579857468605042,266.004638671875,0
1156.5409999999993,0.018329642713069916,0.020103558897972107,-0.0032991571351885796,0.0,0.0,0.0,0.0,0.0033430561888962984,0.0015455756802111864,-0.0014387782430276275,0.9999830722808838,0.0,0.0,0.0,-1.4761017560958862,9.56168270111084,0.6786062717437744,267.1773376464844,0
1166.4480000000021,0.01830720156431198,0.020504355430603027,-0.0030666254460811615,0.0,0.0,0.0,0.0,0.0013232569908723235,0.0005931266932748258,-0.0011265163775533438,0.9972751140594482,0.0,0.0,0.0,-1.4733424186706543,9.63338565826416,0.6726062893867493,266.6779479980469,0
1176.3200000000015,0.018333321437239647,0.020112264901399612,-0.00333039416000247,0.0,0.0,0.0,0.0,-2.3266458811121993e-05,-0.0016175686614587903,-0.002437443705275655,0.9985560178756714,0.0,0.0,0.0,-1.4791498184204102,9.551498413085938,0.6732739210128784,267.72906494140625,0
1186.2039999999997,0.0183252040296793,0.020557692274451256,-0.003101025940850377,0.0,0.0,0.0,0.0,0.00048105616588145494,0.004061507992446423,0.0024209904950112104,1.000030517578125,0.0,0.0,0.0,-1.4670472145080566,9.640273094177246,0.6721712946891785,265.5384521484375,0
1196.0810000000001,0.018361153081059456,0.020148931071162224,-0.003376479260623455,0.0,0.0,0.0,0.0,0.0009747675503604114,-0.004043427295982838,4.402689683047356e-06,0.9987994432449341,0.0,0.0,0.0,-1.472726821899414,9.554014205932617,0.6669676899909973,266.5664978027344,0
1205.9740000000002,0.018335876986384392,0.020107029005885124,-0.003398345084860921,0.0,0.0,0.0,0.0,0.000569423136767,0.0033089311327785254,-0.00032698942231945693,0.9982182383537292,0.0,0.0,0.0,-1.471203088760376,9.542379379272461,0.6784924864768982,266.2906494140625,0
1215.858000000002,0.018277479335665703,0.01986917480826378,-0.0035693671088665724,0.0,0.0,0.0,0.0,0.0007937712362036109,0.0007060270290821791,0.0011379453353583813,1.0000814199447632,0.0,0.0,0.0,-1.4803383350372314,9.484532356262207,0.6674708724021912,267.9441833496094,0
1225.746000000001,0.018221065402030945,0.020227937027812004,-0.003287652973085642,0.0,0.0,0.0,0.0,-0.0004642365383915603,0.0002615309786051512,0.0010300308931618929,1.0006070137023926,0.0,0.0,0.0,-1.4767414331436157,9.589763641357422,0.654873251914978,267.2931213378906,0
1235.6220000000012,0.01819446310400963,0.019976502284407616,-0.003459442174062133,0.0,0.0,0.0,0.0,0.0022019934840500355,-0.006601471453905106,0.0022417367435991764,0.9983610510826111,0.0,0.0,0.0,-1.4868969917297363,9.533492088317871,0.6491861939430237,269.1313171386719,0
1245.5150000000012,0.018132803961634636,0.02034847065806389,-0.003196932142600417,0.0,0.0,0.0,0.0,0.0029856758192181587,-0.00290012639015913,0.0017862740205600858,0.9961022734642029,0.0,0.0,0.0,-1.4828128814697266,9.619587898254395,0.6518943905830383,268.39208984375,0
1255.3920000000016,0.018220312893390656,0.020008357241749763,-0.00338271027430892,0.0,0.0,0.0,0.0,-0.00019317933765705675,-0.004662083927541971,0.0012137105222791433,0.9965433478355408,0.0,0.0,0.0,-1.4908812046051025,9.545694351196289,0.6713443994522095,269.8524475097656,0
1265.2850000000017,0.018177710473537445,0.02043657936155796,-0.003121740184724331,0.0,0.0,0.0,0.0,0.0005227847141213715,-0.008820479735732079,0.001286797458305955,0.9969215393066406,0.0,0.0,0.0,-1.4893395900726318,9.641085624694824,0.6710787415504456,269.57342529296875,0
1275.1629999999986,0.01824255846440792,0.020066415891051292,-0.003343825461342931,0.0,0.0,0.0,0.0,-0.0027853986248373985,0.0034625583793967962,0.0015827629249542952,0.9990016222000122,0.0,0.0,0.0,-1.4995627403259277,9.559476852416992,0.6986010670661926,271.423828125,0
1285.0589999999993,0.018168631941080093,0.0204277653247118,-0.0030688669066876173,0.0,0.0,0.0,0.0,0.0004553305625449866,-0.003653043881058693,0.0006982901832088828,0.9990941286087036,0.0,0.0,0.0,-1.4962068796157837,9.63742446899414,0.6848306655883789,270.81640625,0
1294.9349999999995,0.018277335911989212,0.020016754046082497,-0.003300777170807123,0.0,0.0,0.0,0.0,0.0010475056478753686,0.0028840983286499977,0.0007021785713732243,1.0002000331878662,0.0,0.0,0.0,-1.501931071281433,9.555107116699219,0.7152559757232666,271.8525085449219,0
1304.8360000000011,0.018222009763121605,0.0203931275755167,-0.0030385516583919525,0.0,0.0,0.0,0.0,0.0017444244585931301,0.00042961983126588166,-0.0002303182554896921,1.0004918575286865,0.0,0.0,0.0,-1.494549036026001,9.629396438598633,0.6991460919380188,270.5163269042969,0
1314.7080000000005,0.01828303001821041,0.020006801933050156,-0.003268907777965069,0.0,0.0,0.0,0.0,0.0026248206850141287,0.003908861894160509,0.0002054561919067055,1.0003718137741089,0.0,0.0,0.0,-1.502793312072754,9.551119804382324,0.7078893184661865,272.008544921875,0
1324.6020000000008,0.01823057420551777,0.020379688590765,-0.00300775864161551,0.0,0.0,0.0,0.0,-0.001672294456511736,-0.0008329899865202606,0.0003570553963072598,0.9985905885696411,0.0,0.0,0.0,-1.5010946989059448,9.616569519042969,0.6880037188529968,271.70111083984375,0
1334.4719999999998,0.018253084272146225,0.020015696063637733,-0.003231283277273178,0.0,0.0,0.0,0.0,-0.003299456089735031,-0.010828397236764431,-0.00032923227990977466,0.9985938668251038,0.0,0.0,0.0,-1.508147120475769,9.547236442565918,0.6942383646965027,272.9776611328125,0
1344.3690000000006,0.018203362822532654,0.020426874980330467,-0.0029483530670404434,0.0,0.0,0.0,0.0,0.0012987778754904866,-0.0018135275458917022,0.0011421260423958302,0.998728334903717,0.0,0.0,0.0,-1.491617202758789,9.633308410644531,0.7023899555206299,269.9856872558594,0
1354.2420000000002,0.018281837925314903,0.020055297762155533,-0.003151719458401203,0.0,0.0,0.0,0.0,-0.001618802547454834,-0.0014095440274104476,0.0005929451435804367,0.9998519420623779,0.0,0.0,0.0,-1.49612557888031,9.553404808044434,0.7179844379425049,270.80169677734375,0
1364.1489999999994,0.018214084208011627,0.020418496802449226,-0.0028518149629235268,0.0,0.0,0.0,0.0,-4.278623600839637e-05,-0.0007284866296686232,-9.243386739399284e-05,0.9990909695625305,0.0,0.0,0.0,-1.492260456085205,9.631874084472656,0.710183322429657,270.10211181640625,0
1374.0170000000016,0.018269609659910202,0.019991829991340637,-0.0030999425798654556,0.0,0.0,0.0,0.0,-5.6084470998030156e-05,-0.0028520245105028152,0.0019726157188415527,0.9985806941986084,0.0,0.0,0.0,-1.4990679025650024,9.549931526184082,0.7298260927200317,271.33428955078125,0
1383.9050000000007,0.018280144780874252,0.02043214440345764,-0.002876108046621084,0.0,0.0,0.0,0.0,-0.0009514947305433452,-0.0006658812053501606,0.003805534215644002,0.9976991415023804,0.0,0.0,0.0,-1.4828652143478394,9.636855125427246,0.7430052161216736,268.40155029296875,0
1393.782000000001,0.018293244764208794,0.02002882771193981,-0.003131766803562641,0.0,0.0,0.0,0.0,-0.00011070633627241477,-0.00880478322505951,-0.00282883713953197,0.9981851577758789,0.0,0.0,0.0,-1.491045594215393,9.555471420288086,0.748542845249176,269.8822021484375,0
1403.6849999999995,0.018279805779457092,0.020458223298192024,-0.002882688771933317,0.0,0.0,0.0,0.0,0.0018498668214306235,0.001760822138749063,0.0015045659383758903,0.9988794326782227,0.0,0.0,0.0,-1.4881889820098877,9.643961906433105,0.7640159726142883,269.3652038574219,0
1413.5520000000015,0.01828235387802124,0.020063349977135658,-0.0031377726700156927,0.0,0.0,0.0,0.0,-0.0014448872534558177,-0.00046683321124874055,0.004013569559901953,1.001067876815796,0.0,0.0,0.0,-1.4968221187591553,9.56244945526123,0.7546197175979614,270.9277648925781,0
1423.449999999999,0.018254341557621956,0.020012959837913513,-0.0031420846935361624,0.0,0.0,0.0,0.0,-0.0027598619926720858,-0.00033919961424544454,0.001402045600116253,0.9987428188323975,0.0,0.0,0.0,-1.494438886642456,9.552328109741211,0.754366397857666,270.4964294433594,0
1433.3330000000005,0.018180735409259796,0.01973770186305046,-0.0033204942010343075,0.0,0.0,0.0,0.0,0.00038492956082336605,-0.010068648494780064,-0.0007509819115512073,0.9992097616195679,0.0,0.0,0.0,-1.495790719985962,9.489534378051758,0.7466298341751099,270.7410888671875,0
1443.2199999999993,0.01820031739771366,0.020176002755761147,-0.0031132791191339493,0.0,0.0,0.0,0.0,0.005766580812633038,0.0051306867972016335,-0.00028877684962935746,0.9984678626060486,0.0,0.0,0.0,-1.4952434301376343,9.616013526916504,0.7655078172683716,270.6420593261719,0
1453.092999999999,0.01822390966117382,0.01987520046532154,-0.0032965680584311485,0.0,0.0,0.0,0.0,0.0014389693969860673,0.006237297784537077,0.00010628048767102882,1.0000555515289307,0.0,0.0,0.0,-1.500861406326294,9.53345775604248,0.7602543830871582,271.65887451171875,0
1462.9930000000004,0.018200041726231575,0.020282169803977013,-0.0030522909946739674,0.0,0.0,0.0,0.0,0.00010731570364441723,-0.0027618363965302706,0.0005615783156827092,1.0015251636505127,0.0,0.0,0.0,-1.4985228776931763,9.630411148071289,0.7364916801452637,271.2356262207031,0
1472.8629999999994,0.01820884644985199,0.019955949857831,-0.0032530766911804676,0.0,0.0,0.0,0.0,-0.001790825161151588,0.0005155351827852428,0.0011850431328639388,0.9985218644142151,0.0,0.0,0.0,-1.504173755645752,9.559795379638672,0.7474725246429443,272.25848388671875,0
1482.7579999999998,0.01822657324373722,0.020437994971871376,-0.0030262123327702284,0.0,0.0,0.0,0.0,0.00041001898352988064,-0.005852115340530872,-0.0010495122987776995,0.9983415007591248,0.0,0.0,0.0,-1.4940595626831055,9.666379928588867,0.7437065243721008,270.427734375,0
1492.6350000000002,0.018292278051376343,0.020045839250087738,-0.003262775018811226,0.0,0.0,0.0,0.0,0.0016906302189454436,0.0046415776014328,5.155571852810681e-05,1.000139594078064,0.0,0.0,0.0,-1.5019755363464355,9.579998016357422,0.7664452791213989,271.86053466796875,0
1502.5330000000013,0.0182462427765131,0.020412487909197807,-0.0029883719980716705,0.0,0.0,0.0,0.0,0.0010545897530391812,6.685792322969064e-05,-0.002515392145141959,1.0029696226119995,0.0,0.0,0.0,-1.499343752861023,9.658757209777832,0.7490578293800354,271.3841857910156,0
1512.4040000000005,0.018292583525180817,0.020011570304632187,-0.0032393152359873056,0.0,0.0,0.0,0.0,-0.0005239765159785748,0.00033043784787878394,-0.0015286380657926202,1.0002059936523438,0.0,0.0,0.0,-1.5072033405303955,9.572033882141113,0.7545849680900574,272.8067932128906,0
1522.2980000000007,0.018284441903233528,0.020426413044333458,-0.0029881279915571213,0.0,0.0,0.0,0.0,0.0011373552260920405,0.001783191692084074,0.000597540638409555,0.9996417760848999,0.0,0.0,0.0,-1.4919613599777222,9.65995979309082,0.7439689040184021,270.0480041503906,0
1532.1760000000013,0.01835005171597004,0.02003488875925541,-0.00321983452886343,0.0,0.0,0.0,0.0,0.0023663986939936876,-0.005636076908558607,0.0017904695123434067,0.9983158707618713,0.0,0.0,0.0,-1.4950957298278809,9.578149795532227,0.7488948106765747,270.6153259277344,0
1542.0700000000015,0.018337102606892586,0.020438743755221367,-0.0029640495777130127,0.0,0.0,0.0,0.0,0.0014086638111621141,7.5898883551417384e-06,-0.0017037163488566875,0.9992218613624573,0.0,0.0,0.0,-1.4847170114517212,9.653790473937988,0.7511650919914246,268.7367248535156,0
1551.9450000000015,0.01837584190070629,0.02003927156329155,-0.0032154738437384367,0.0,0.0,0.0,0.0,0.0006818244582973421,0.0010595578933134675,-0.003278749529272318,0.9992255568504333,0.0,0.0,0.0,-1.485908031463623,9.56544017791748,0.7559028267860413,268.9522705078125,0
1561.8370000000014,0.01832876354455948,0.020396137610077858,-0.002932312898337841,0.0,0.0,0.0,0.0,0.000852782919537276,-0.0011272348929196596,0.0003633818996604532,1.0002866983413696,0.0,0.0,0.0,-1.4846513271331787,9.636032104492188,0.740222692489624,268.7248229980469,0
1571.7160000000022,0.01832587458193302,0.02004907839000225,-0.0031520570628345013,0.0,0.0,0.0,0.0,0.0018990559037774801,0.0034840083681046963,0.002222356852144003,0.9987499117851257,0.0,0.0,0.0,-1.4898784160614014,9.566892623901367,0.7390749454498291,269.67095947265625,0
1581.6090000000022,0.018307002261281013,0.019996803253889084,-0.0031507941894233227,0.0,0.0,0.0,0.0,-0.001013792003504932,-0.0008015684434212744,-0.00136092072352767,0.999524712562561,0.0,0.0,0.0,-1.4880419969558716,9.554451942443848,0.7405716180801392,269.33856201171875,0
1591.4849999999988,0.018262285739183426,0.019710605964064598,-0.0033304281532764435,0.0,0.0,0.0,0.0,-0.0011787826661020517,-0.0011080728145316243,0.0008349011186510324,0.9988359212875366,0.0,0.0,0.0,-1.4941614866256714,9.48681926727295,0.7451204657554626,270.4461975097656,0
1601.3809999999994,0.018271930515766144,0.020152797922492027,-0.0030697020702064037,0.0,0.0,0.0,0.0,-0.0013755267718806863,0.0017463770927861333,-0.0011338862823322415,0.9996750950813293,0.0,0.0,0.0,-1.4809694290161133,9.611413955688477,0.7427796721458435,268.05841064453125,0
1611.2549999999992,0.018258104100823402,0.019866278395056725,-0.0032539216335862875,0.0,0.0,0.0,0.0,0.0025896166916936636,0.00563307898119092,-0.003325673285871744,0.9986740350723267,0.0,0.0,0.0,-1.4929758310317993,9.544015884399414,0.7315869331359863,270.2315979003906,0
1621.1479999999992,0.01821473054587841,0.020263126119971275,-0.0029539503157138824,0.0,0.0,0.0,0.0,0.0016533622983843088,-0.002656399505212903,0.00054322270443663,0.9990247488021851,0.0,0.0,0.0,-1.4882508516311646,9.629203796386719,0.7117452025413513,269.3763732910156,0
1631.0259999999998,0.018223486840724945,0.019939474761486053,-0.0031481862533837557,0.0,0.0,0.0,0.0,0.0016621575923636556,0.0026808767579495907,-0.0006847318727523088,0.9995036721229553,0.0,0.0,0.0,-1.4986540079116821,9.55325984954834,0.7118458151817322,271.25933837890625,0
1640.9220000000005,0.01820390298962593,0.019885852932929993,-0.003147514071315527,0.0,0.0,0.0,0.0,0.0024725834373384714,0.0031705298461019993,0.0018466790206730366,1.001118540763855,0.0,0.0,0.0,-1.497262716293335,9.541007041931152,0.7024703025817871,271.0075378417969,0
1650.795,0.018132518976926804,0.019635388627648354,-0.0033028863836079836,0.0,0.0,0.0,0.0,0.003577845636755228,0.0008674733689986169,0.002732593799009919,1.0001360177993774,0.0,0.0,0.0,-1.5087767839431763,9.47527027130127,0.692611038684845,273.09161376953125,0
1660.6900000000005,0.018163319677114487,0.0200815349817276,-0.0030895648524165154,0.0,0.0,0.0,0.0,-0.0008140525314956903,0.0018532737158238888,0.0005645528435707092,0.9989793300628662,0.0,0.0,0.0,-1.4951262474060059,9.595691680908203,0.6961579322814941,270.620849609375,0
1670.5650000000005,0.018187860026955605,0.019804097712039948,-0.003250816138461232,0.0,0.0,0.0,0.0,-0.002980524208396673,-0.008100844919681549,0.0008246449870057404,0.9990561008453369,0.0,0.0,0.0,-1.505422592163086,9.531486511230469,0.6998026967048645,272.4844970703125,0
1680.4590000000007,0.0182319525629282,0.020284399390220642,-0.003060136456042528,0.0,0.0,0.0,0.0,-0.0018224160885438323,0.00013041615602560341,0.0009108241647481918,0.9999080896377563,0.0,0.0,0.0,-1.4911082983016968,9.64997386932373,0.7202460169792175,269.8935852050781,0
1690.3370000000014,0.01819753088057041,0.019959010183811188,-0.0032820147462189198,0.0,0.0,0.0,0.0,-0.0012184919323772192,-0.003254682058468461,0.0007133436156436801,1.0015389919281006,0.0,0.0,0.0,-1.5028940439224243,9.578649520874023,0.7058646082878113,272.02679443359375,0
1700.228000000001,0.018221911042928696,0.02044513076543808,-0.003058222122490406,0.0,0.0,0.0,0.0,0.0009060604497790337,7.072373409755528e-05,-0.001022146549075842,0.9989053010940552,0.0,0.0,0.0,-1.493584394454956,9.687755584716797,0.7079954147338867,270.3417663574219,0
1710.1090000000022,0.01826268807053566,0.020106833428144455,-0.0032622467260807753,0.0,0.0,0.0,0.0,-0.0011433713370934129,-0.00710391765460372,-0.004785188008099794,0.9975801706314087,0.0,0.0,0.0,-1.506040096282959,9.614629745483398,0.704178512096405,272.5962829589844,0
1720.0000000000018,0.01826423965394497,0.02052224427461624,-0.0030375211499631405,0.0,0.0,0.0,0.0,-0.0029946016147732735,-0.0051975734531879425,-0.00196497212164104,0.9971655011177063,0.0,0.0,0.0,-1.4994431734085083,9.700608253479004,0.7097662091255188,271.4021911621094,0
1729.876000000002,0.01829039491713047,0.02018049545586109,-0.003254193812608719,0.0,0.0,0.0,0.0,0.0003035043191630393,0.0096364701166749,-0.0008326885872520506,0.9984922409057617,0.0,0.0,0.0,-1.5134339332580566,9.634922981262207,0.7169764637947083,273.9345397949219,0
1739.769000000002,0.018251433968544006,0.020545175299048424,-0.0029965401627123356,0.0,0.0,0.0,0.0,-0.0026400808710604906,-0.0013808567309752107,-0.0016097687184810638,0.9999536275863647,0.0,0.0,0.0,-1.4995396137237549,9.70671272277832,0.6880378723144531,271.41961669921875,0
1749.6459999999988,0.01825006678700447,0.020167429000139236,-0.0032511032186448574,0.0,0.0,0.0,0.0,0.003384858136996627,-0.002664511790499091,-0.00014712748816236854,0.9989213347434998,0.0,0.0,0.0,-1.5146348476409912,9.638937950134277,0.6812641620635986,274.1518859863281,0
1759.5439999999999,0.018220482394099236,0.02054598368704319,-0.0030025863088667393,0.0,0.0,0.0,0.0,4.658235047827475e-05,-5.809253707411699e-05,-0.00033346537384204566,0.9994816780090332,0.0,0.0,0.0,-1.50083589553833,9.701704025268555,0.6721264123916626,271.6542663574219,0
1769.42,0.018307289108633995,0.020118489861488342,-0.0032558662351220846,0.0,0.0,0.0,0.0,-8.935822734201793e-06,0.0025517973117530346,-0.004723407793790102,1.0006539821624756,0.0,0.0,0.0,-1.5076969861984253,9.615813255310059,0.6719805598258972,272.8961486816406,0
1779.3099999999995,0.018277345225214958,0.020494170486927032,-0.003000427968800068,0.0,0.0,0.0,0.0,-3.955866486649029e-05,0.001122913439758122,0.0017569968476891518,0.9992154836654663,0.0,0.0,0.0,-1.4967930316925049,9.68748950958252,0.6541962623596191,270.9224853515625,0
1789.1900000000005,0.018344847485423088,0.02007840946316719,-0.0032488005235791206,0.0,0.0,0.0,0.0,0.0025353915989398956,-0.00018642142822500318,0.0005966601311229169,0.9994484186172485,0.0,0.0,0.0,-1.5009112358093262,9.602090835571289,0.6686099767684937,271.66790771484375,0
1799.0880000000016,0.018291011452674866,0.020416604354977608,-0.0029743234626948833,0.0,0.0,0.0,0.0,0.0015281609958037734,-0.007269193418323994,0.0003648287965916097,1.0008084774017334,0.0,0.0,0.0,-1.4976494312286377,9.662908554077148,0.6548076272010803,271.0775451660156,0
1808.9630000000016,0.018275093287229538,0.02038443088531494,-0.002959584817290306,0.0,0.0,0.0,0.0,0.0027896238025277853,0.003243850776925683,0.002685891231521964,0.9980033040046692,0.0,0.0,0.0,-1.4957945346832275,9.652626037597656,0.669647753238678,270.74176025390625,0
1818.853000000001,0.018236873671412468,0.020826445892453194,-0.0026521626859903336,0.0,0.0,0.0,0.0,-0.0005898121162317693,-0.0004883058718405664,-0.000643723295070231,0.9982632994651794,0.0,0.0,0.0,-1.482646107673645,9.752789497375488,0.653563380241394,268.36187744140625,0
1828.7270000000008,0.0182226300239563,0.02081415429711342,-0.002618442988023162,0.0,0.0,0.0,0.0,0.0018113956321030855,0.004091096110641956,-0.0016004733042791486,0.9994512796401978,0.0,0.0,0.0,-1.481137990951538,9.740476608276367,0.6497021913528442,268.08892822265625,0
1838.616,0.018134767189621925,0.0210951566696167,-0.002314681187272072,0.0,0.0,0.0,0.0,-0.002461615251377225,-0.005826636683195829,-0.00040605300455354154,0.997791588306427,0.0,0.0,0.0,-1.4771642684936523,9.810616493225098,0.6200829744338989,267.3696594238281,0
1848.4980000000014,0.018115157261490822,0.021095598116517067,-0.002262876136228442,0.0,0.0,0.0,0.0,0.002488772850483656,0.0016762067098170519,-0.0006345217116177082,0.9972087144851685,0.0,0.0,0.0,-1.4760552644729614,9.809761047363281,0.6308283805847168,267.1689453125,0
1858.3900000000012,0.018050391227006912,0.021392015740275383,-0.001990231452509761,0.0,0.0,0.0,0.0,-0.00043476620339788496,0.0004026888054795563,0.002475225366652012,0.99893718957901,0.0,0.0,0.0,-1.4718736410140991,9.884474754333496,0.6040955781936646,266.4120178222656,0
1868.269000000002,0.018024349585175514,0.021409600973129272,-0.0019251987105235457,0.0,0.0,0.0,0.0,-0.0013481375062838197,-0.0007879157201386988,0.0019727470353245735,1.0004469156265259,0.0,0.0,0.0,-1.4694854021072388,9.870768547058105,0.5949968099594116,265.97979736328125,0
1878.1540000000005,0.01796647347509861,0.02159911021590233,-0.0017217645654454827,0.0,0.0,0.0,0.0,-0.0014573766384273767,-0.006181421224027872,0.0014531513443216681,1.0010429620742798,0.0,0.0,0.0,-1.467661738395691,9.914705276489258,0.5815511345863342,265.6496887207031,0
1888.0389999999989,0.017937617376446724,0.02162826992571354,-0.0016453472198918462,0.0,0.0,0.0,0.0,0.001741760061122477,-0.004859131295233965,0.0004860925837419927,1.001991868019104,0.0,0.0,0.0,-1.4659950733184814,9.902886390686035,0.5949508547782898,265.3480224609375,0
1897.924000000001,0.017910854890942574,0.021771756932139397,-0.0014981688000261784,0.0,0.0,0.0,0.0,-0.001437919563613832,-0.0005627417122013867,0.0005963806761428714,1.0006577968597412,0.0,0.0,0.0,-1.4627426862716675,9.93348503112793,0.6097884774208069,264.75933837890625,0
1907.807999999999,0.017885159701108932,0.021805567666888237,-0.0014136217068880796,0.0,0.0,0.0,0.0,-0.0005801612278446555,-0.004993071313947439,0.0026395022869110107,0.9973886013031006,0.0,0.0,0.0,-1.4611282348632812,9.92306137084961,0.6112350821495056,264.4671325683594,0
1917.6960000000017,0.017878931015729904,0.021909313276410103,-0.0013050853740423918,0.0,0.0,0.0,0.0,0.0017570855561643839,-0.006885633338242769,-0.0010539216455072165,0.9994878768920898,0.0,0.0,0.0,-1.4585204124450684,9.910478591918945,0.6110432147979736,263.9951171875,0
1927.5840000000007,0.01785529963672161,0.02194329909980297,-0.001220437465235591,0.0,0.0,0.0,0.0,0.0005081516574136913,0.005361076444387436,-9.616582246962935e-05,0.9998303651809692,0.0,0.0,0.0,-1.4572571516036987,9.89390754699707,0.6285523176193237,263.7664489746094,0
1937.465000000002,0.017863862216472626,0.022007867693901062,-0.001150732859969139,0.0,0.0,0.0,0.0,2.4979955924209207e-05,-0.0016218154923990369,0.00139001221396029,1.0013411045074463,0.0,0.0,0.0,-1.4556585550308228,9.883134841918945,0.6158108115196228,263.4770812988281,0
1947.3469999999998,0.017841443419456482,0.02204287238419056,-0.0010661191772669554,0.0,0.0,0.0,0.0,-0.0024476246908307076,-0.0007463495130650699,-0.004141234327107668,0.9991413950920105,0.0,0.0,0.0,-1.4533162117004395,9.873331069946289,0.6208632588386536,263.0531311035156,0
1957.2430000000004,0.017874106764793396,0.02207866683602333,-0.001035354332998395,0.0,0.0,0.0,0.0,0.0012146735098212957,0.00011984391312580556,-0.004487460013478994,0.9984368681907654,0.0,0.0,0.0,-1.4527684450149536,9.869634628295898,0.624695360660553,262.9539794921875,0
1967.1180000000004,0.017855599522590637,0.022112911567091942,-0.0009553302661515772,0.0,0.0,0.0,0.0,0.003572860499843955,-0.0003648380807135254,-1.3103817764203995e-05,0.9995036125183105,0.0,0.0,0.0,-1.4522359371185303,9.85889720916748,0.6271811723709106,262.8575744628906,0
1977.0029999999988,0.01788399927318096,0.022121487185359,-0.0009391327039338648,0.0,0.0,0.0,0.0,0.0005014261114411056,-0.005495942197740078,-1.4973201359680388e-05,1.0001164674758911,0.0,0.0,0.0,-1.450640320777893,9.84566879272461,0.636461079120636,262.56878662109375,0
1986.8900000000012,0.017868004739284515,0.022154340520501137,-0.0008643011096864939,0.0,0.0,0.0,0.0,0.002678345423191786,0.0027553527615964413,-0.0006734731723554432,0.9977000951766968,0.0,0.0,0.0,-1.4487985372543335,9.839241981506348,0.6471648812294006,262.23541259765625,0
1996.7759999999998,0.01785174012184143,0.0221872515976429,-0.0007903570658527315,0.0,0.0,0.0,0.0,-0.000312066258629784,-0.0034249359741806984,0.0017686460632830858,0.9973659515380859,0.0,0.0,0.0,-1.4475477933883667,9.827784538269043,0.6386704444885254,262.009033203125,0
2006.6590000000015,0.01783531904220581,0.022219257429242134,-0.0007183158304542303,0.0,0.0,0.0,0.0,0.0008999237907119095,-0.0012074800906702876,0.006050263997167349,1.0004899501800537,0.0,0.0,0.0,-1.4457706212997437,9.817334175109863,0.6488242149353027,261.6873779296875,0
2016.5470000000005,0.017818570137023926,0.022250184789299965,-0.0006468878709711134,0.0,0.0,0.0,0.0,-0.001633544685319066,0.002263131085783243,0.0006511196261271834,0.9983856081962585,0.0,0.0,0.0,-1.4422787427902222,9.805421829223633,0.6540615558624268,261.05535888671875,0
2026.4270000000015,0.01780085451900959,0.02227984555065632,-0.0005759899504482746,0.0,0.0,0.0,0.0,2.995588511112146e-05,-0.0020729857496917248,0.0028220624662935734,0.9975940585136414,0.0,0.0,0.0,-1.4399868249893188,9.796810150146484,0.643955647945404,260.6404724121094,0
2036.3150000000005,0.017782198265194893,0.02230806276202202,-0.0005067036836408079,0.0,0.0,0.0,0.0,0.001579651958309114,0.0038427819963544607,0.00043994595762342215,0.9998124241828918,0.0,0.0,0.0,-1.437610387802124,9.785720825195312,0.6470556855201721,260.2103271484375,0
2046.1980000000021,0.018205972388386726,0.02057049423456192,-0.0020286799408495426,0.0,0.0,0.0,0.0,0.0017439224757254124,0.0009290342568419874,0.001488039270043373,1.00077486038208,0.0,0.0,0.0,-1.4502943754196167,9.276987075805664,0.733110249042511,262.50616455078125,0
2056.0830000000005,0.01820644922554493,0.020486226305365562,-0.002054191892966628,0.0,0.0,0.0,0.0,0.001239160425029695,0.0035287034697830677,-5.3457668400369585e-05,1.000016212463379,0.0,0.0,0.0,-1.4493261575698853,9.264013290405273,0.7313685417175293,262.3309020996094,0
2065.9669999999987,0.018176395446062088,0.019889289513230324,-0.002698675962164998,0.0,0.0,0.0,0.0,-0.0017988409381359816,-0.002077326411381364,0.002689887536689639,0.9985567927360535,0.0,0.0,0.0,-1.456347942352295,9.10300350189209,0.7262356281280518,263.60186767578125,0
2075.8639999999996,0.01817682944238186,0.019766563549637794,-0.0027593872509896755,0.0,0.0,0.0,0.0,-0.003067880403250456,0.0001958823122549802,-0.0022360277362167835,0.9978129863739014,0.0,0.0,0.0,-1.453814148902893,9.098514556884766,0.7360805869102478,263.14324951171875,0
2085.7389999999996,0.018138065934181213,0.01944597437977791,-0.0030510732904076576,0.0,0.0,0.0,0.0,0.0013925752136856318,-6.146215309854597e-05,0.0015815001679584384,1.000145673751831,0.0,0.0,0.0,-1.4694916009902954,9.03177261352539,0.7234231233596802,265.98089599609375,0
2095.625000000002,0.018139131367206573,0.01930117979645729,-0.0031274869106709957,0.0,0.0,0.0,0.0,0.003282195655629039,-0.0024639058392494917,-0.0009451477089896798,1.000255823135376,0.0,0.0,0.0,-1.4673786163330078,9.012772560119629,0.7187477946281433,265.5984191894531,0
2105.508,0.01812257431447506,0.019069083034992218,-0.0032946611754596233,0.0,0.0,0.0,0.0,-0.0023848158307373524,-0.006464298348873854,0.002159146359190345,0.9997854828834534,0.0,0.0,0.0,-1.4749828577041626,8.974679946899414,0.7217475175857544,266.9748229980469,0
2115.393000000002,0.018124783411622047,0.018911104649305344,-0.00337653118185699,0.0,0.0,0.0,0.0,0.003335729241371155,0.004315842408686876,-0.00021815256332047284,0.9977940917015076,0.0,0.0,0.0,-1.4731489419937134,8.971456527709961,0.733913004398346,266.6429138183594,0
2125.287000000002,0.018085990101099014,0.018773779273033142,-0.0034317884128540754,0.0,0.0,0.0,0.0,0.0004665112937800586,-0.0006738445372320712,-0.00023090092872735113,0.9977437257766724,0.0,0.0,0.0,-1.4830495119094849,8.965006828308105,0.7213049530982971,268.4349060058594,0
2135.1669999999995,0.01808868907392025,0.01861044019460678,-0.003514955285936594,0.0,0.0,0.0,0.0,-0.0012838596012443304,0.0009075621492229402,-0.001495555741712451,1.0012452602386475,0.0,0.0,0.0,-1.4814704656600952,8.954362869262695,0.7211483120918274,268.1490783691406,0
2145.054000000002,0.018046438694000244,0.01855379343032837,-0.00347795314155519,0.0,0.0,0.0,0.0,-0.0007210106705315411,0.003885749028995633,-0.000742273055948317,1.0010664463043213,0.0,0.0,0.0,-1.4885038137435913,8.984313011169434,0.702919602394104,269.42218017578125,0
2154.9359999999997,0.018048971891403198,0.018390797078609467,-0.0035509385634213686,0.0,0.0,0.0,0.0,0.003376976354047656,0.0029387110844254494,0.0007017566822469234,1.000091791152954,0.0,0.0,0.0,-1.487083077430725,8.974104881286621,0.6910525560379028,269.16497802734375,0
