timestamp,stateEstimate.x,stateEstimate.y,stateEstimate.z,controller.cmd_thrust,controller.cmd_roll,controller.cmd_pitch,controller.cmd_yaw,controller.r_roll,controller.r_pitch,controller.r_yaw,controller.accelz,controller.actuatorThrust,controller.roll,controller.pitch,controller.yaw,controller.rollRate,controller.pitchRate,controller.yawRate,controller.ctr_yaw
0.0,0.02573784813284874,-0.02426568791270256,-0.0018955122213810682,0.0,0.0,0.0,0.0,0.0016498826444149017,-0.0004607341543305665,0.0010721510043367743,1.0019327402114868,0.0,0.0,0.0,-61.14618682861328,6.867277145385742,-0.46707504987716675,11067.5810546875,0
9.887000000000626,0.025741489604115486,-0.02419801987707615,-0.0018163989298045635,0.0,0.0,0.0,0.0,-0.0039484696462750435,-0.0006341602420434356,0.0019002987537533045,0.999079704284668,0.0,0.0,0.0,-61.08787536621094,6.862799644470215,-0.4592738449573517,11057.0263671875,0
19.77100000000064,0.025744274258613586,-0.024130620062351227,-0.0017367452383041382,0.0,0.0,0.0,0.0,-0.0020735592115670443,0.001190830604173243,0.0001878805342130363,1.0009273290634155,0.0,0.0,0.0,-61.02859115600586,6.862736701965332,-0.4688330888748169,11046.296875,0
29.655000000000655,0.02580384351313114,-0.025169191882014275,-0.002774435095489025,0.0,0.0,0.0,0.0,-0.0014838128117844462,-4.6372628276003525e-05,0.002738387556746602,1.0007805824279785,0.0,0.0,0.0,-61.1306266784668,6.742303848266602,-0.1749740093946457,11064.765625,0
39.54500000000007,0.025766683742403984,-0.024787021800875664,-0.0023161866702139378,0.0,0.0,0.0,0.0,0.0008881022804416716,0.0019541322253644466,-0.00022452970733866096,1.000067949295044,0.0,0.0,0.0,-61.12505340576172,6.776606559753418,-0.27461618185043335,11063.755859375,0
49.42500000000109,0.02576330304145813,-0.0254559013992548,-0.002817049389705062,0.0,0.0,0.0,0.0,-0.00035224255407229066,-0.0034123666118830442,-0.00145512237213552,0.9996213912963867,0.0,0.0,0.0,-61.216243743896484,6.722492218017578,-0.13252614438533783,11080.26171875,0
59.3119999999999,0.025779802352190018,-0.025469841435551643,-0.0028166514821350574,0.0,0.0,0.0,0.0,0.0007110609440132976,0.0014137113466858864,-3.6382760299602523e-05,0.9991843104362488,0.0,0.0,0.0,-61.15787887573242,6.719504356384277,-0.12367690354585648,11069.697265625,0
69.19700000000012,0.025728074833750725,-0.025887278839945793,-0.003132166340947151,0.0,0.0,0.0,0.0,-0.00025480592739768326,-0.0007000811165198684,0.0009413044899702072,0.9995136260986328,0.0,0.0,0.0,-61.242984771728516,6.678755760192871,-0.043803635984659195,11085.1015625,0
79.08300000000054,0.025732269510626793,-0.025423547253012657,-0.00279021542519331,0.0,0.0,0.0,0.0,-0.00208063586615026,0.0028384560719132423,-0.00025174784241244197,1.0027408599853516,0.0,0.0,0.0,-61.22911071777344,6.723076343536377,-0.15677690505981445,11082.5908203125,0
88.97100000000137,0.025748154148459435,-0.025432726368308067,-0.0027847341261804104,0.0,0.0,0.0,0.0,-0.0015300792874768376,0.0008793950546532869,0.002890652744099498,1.0025510787963867,0.0,0.0,0.0,-61.17093276977539,6.724832057952881,-0.14925366640090942,11072.0595703125,0
98.86000000000058,0.025674371048808098,-0.024990610778331757,-0.0023320671170949936,0.0,0.0,0.0,0.0,-0.0015203332295641303,0.0025444512721151114,-0.0020773818250745535,1.0015426874160767,0.0,0.0,0.0,-61.16803741455078,6.750943183898926,-0.24991442263126373,11071.5361328125,0
108.7390000000014,0.025682056322693825,-0.02497861534357071,-0.0022889485117048025,0.0,0.0,0.0,0.0,0.0007685805903747678,-0.0011543463915586472,0.0006805353332310915,1.0004754066467285,0.0,0.0,0.0,-61.110599517822266,6.74423885345459,-0.25750115513801575,11061.140625,0
118.63600000000042,0.025687893852591515,-0.024965697899460793,-0.0022449055686593056,0.0,0.0,0.0,0.0,0.0010934866731986403,-0.00203181360848248,-0.00037974558654241264,0.9998713731765747,0.0,0.0,0.0,-61.052406311035156,6.740608215332031,-0.24884667992591858,11050.6064453125,0
128.51500000000124,0.025752725079655647,-0.02571665123105049,-0.0027828305028378963,0.0,0.0,0.0,0.0,0.0019098719349130988,0.0018380660330876708,0.0032309172675013542,1.0004159212112427,0.0,0.0,0.0,-61.14639663696289,6.690506935119629,-0.051122236996889114,11067.619140625,0
138.39300000000003,0.025779904797673225,-0.025224177166819572,-0.0024194614961743355,0.0,0.0,0.0,0.0,0.0013866967055946589,-8.692534174770117e-05,0.0008429746376350522,0.9995590448379517,0.0,0.0,0.0,-61.143951416015625,6.741361618041992,-0.1694173663854599,11067.1767578125,0
148.29500000000007,0.025695938616991043,-0.025771286338567734,-0.0028020963072776794,0.0,0.0,0.0,0.0,-0.0008120312704704702,-0.006109993904829025,7.233695941977203e-05,1.0011546611785889,0.0,0.0,0.0,-61.23701477050781,6.702592372894287,-0.0780072957277298,11084.0205078125,0
158.16400000000067,0.02572140470147133,-0.025260156020522118,-0.0024928422644734383,0.0,0.0,0.0,0.0,-0.0024545439518988132,-0.007198065984994173,0.00017954462964553386,1.0001164674758911,0.0,0.0,0.0,-61.22541046142578,6.742477893829346,-0.1595158725976944,11081.9208984375,0
168.0560000000005,0.02570362016558647,-0.02577143907546997,-0.0027779985684901476,0.0,0.0,0.0,0.0,0.0021311005111783743,-0.0014669059310108423,0.0014701582258567214,0.9989601969718933,0.0,0.0,0.0,-61.29023361206055,6.7186737060546875,-0.06389565020799637,11093.654296875,0
177.94300000000112,0.025761866942048073,-0.025199130177497864,-0.0025164159014821053,0.0,0.0,0.0,0.0,0.0013282649451866746,-0.0013001313200220466,0.0009138067252933979,0.9996917247772217,0.0,0.0,0.0,-61.279632568359375,6.752681732177734,-0.15106220543384552,11091.7353515625,0
187.82200000000012,0.025717495009303093,-0.025693241506814957,-0.002803018782287836,0.0,0.0,0.0,0.0,0.0012544365599751472,0.0007366121863014996,0.0022316942922770977,1.0016413927078247,0.0,0.0,0.0,-61.34271240234375,6.7252516746521,-0.09209596365690231,11103.154296875,0
197.70399999999972,0.025774769484996796,-0.02513841725885868,-0.0025542406365275383,0.0,0.0,0.0,0.0,-0.0017227132339030504,0.0011170472716912627,-0.0016134321922436357,1.0010948181152344,0.0,0.0,0.0,-61.32295227050781,6.758844375610352,-0.17213431000709534,11099.576171875,0
207.59600000000137,0.02578834258019924,-0.025137491524219513,-0.0025348737835884094,0.0,0.0,0.0,0.0,0.0005251994589343667,0.0006670033326372504,-0.001653262646868825,1.0002893209457397,0.0,0.0,0.0,-61.264503479003906,6.757938385009766,-0.16673016548156738,11088.99609375,0
217.47400000000016,0.025802191346883774,-0.02513747289776802,-0.002514861524105072,0.0,0.0,0.0,0.0,-0.00037601724034175277,-0.007854912430047989,0.003614863147959113,0.9996619820594788,0.0,0.0,0.0,-61.207611083984375,6.751633167266846,-0.16067148745059967,11078.69921875,0
227.36599999999999,0.025814887136220932,-0.025139184668660164,-0.0024946401827037334,0.0,0.0,0.0,0.0,0.0036189176607877016,0.0012966484064236283,0.0009336550137959421,0.9982810020446777,0.0,0.0,0.0,-61.14911651611328,6.7450947761535645,-0.1388157159090042,11068.111328125,0
355.8739999999998,0.025611381977796555,-0.024425603449344635,-0.00191778177395463,0.0,0.0,0.0,0.0,-0.0016255389200523496,0.0011613633250817657,-0.002619221108034253,0.999535083770752,0.0,0.0,0.0,-61.23147964477539,6.773333549499512,-0.33849048614501953,11083.0185546875,0
365.7600000000002,0.025743382051587105,-0.02530290000140667,-0.0024509038776159286,0.0,0.0,0.0,0.0,-0.0009028568165376782,0.0031899907626211643,-0.0011678726878017187,1.0003840923309326,0.0,0.0,0.0,-61.310916900634766,6.742824077606201,-0.12800538539886475,11097.3984375,0
375.6360000000004,0.025784146040678024,-0.02482548914849758,-0.0021505902986973524,0.0,0.0,0.0,0.0,0.0010464093647897243,0.007612806744873524,-0.0003851430374197662,1.0005096197128296,0.0,0.0,0.0,-61.2905158996582,6.786980152130127,-0.21944677829742432,11093.7060546875,0
385.53700000000026,0.025780923664569855,-0.025490909814834595,-0.0025431415997445583,0.0,0.0,0.0,0.0,0.0007099769427441061,-0.011699811555445194,0.0024830540642142296,0.9989314079284668,0.0,0.0,0.0,-61.348304748535156,6.742664337158203,-0.11731229722499847,11104.1650390625,0
395.40700000000106,0.025838930159807205,-0.02499941736459732,-0.002289397642016411,0.0,0.0,0.0,0.0,0.0013666654704138637,-0.001983041176572442,0.0010918889893218875,0.9992580413818359,0.0,0.0,0.0,-61.32652282714844,6.781444072723389,-0.177642360329628,11100.22265625,0
405.2970000000005,0.025705862790346146,-0.025638487190008163,-0.0027174088172614574,0.0,0.0,0.0,0.0,-6.282048707362264e-05,0.005275884177535772,-0.0001080347501556389,0.9995100498199463,0.0,0.0,0.0,-61.39537048339844,6.7285542488098145,-0.0763765275478363,11112.6845703125,0
415.1830000000009,0.025769414380192757,-0.02511347085237503,-0.0024821865372359753,0.0,0.0,0.0,0.0,-0.0004132647591177374,0.002036514924839139,-0.0005798096535727382,0.9984379410743713,0.0,0.0,0.0,-61.372989654541016,6.769796848297119,-0.17149467766284943,11108.6337890625,0
425.0690000000013,0.025788413360714912,-0.025118594989180565,-0.0024706022813916206,0.0,0.0,0.0,0.0,-1.788020381354727e-05,-0.004019733518362045,0.0026295993011444807,0.9991727471351624,0.0,0.0,0.0,-61.314884185791016,6.768991470336914,-0.17522625625133514,11098.1171875,0
434.95100000000093,0.025806153193116188,-0.025125838816165924,-0.002459889277815819,0.0,0.0,0.0,0.0,-0.0023755463771522045,0.004572139587253332,0.0019247517921030521,0.9996944665908813,0.0,0.0,0.0,-61.25586700439453,6.764598369598389,-0.160696879029274,11087.43359375,0
444.84799999999996,0.025822922587394714,-0.02513526938855648,-0.002449583262205124,0.0,0.0,0.0,0.0,-0.00046531346742995083,-0.001285374048165977,-0.000502062845043838,1.0002832412719727,0.0,0.0,0.0,-61.196533203125,6.7665510177612305,-0.16278128325939178,11076.6943359375,0
454.72199999999975,0.02583843283355236,-0.02514597587287426,-0.002439085626974702,0.0,0.0,0.0,0.0,-0.0006969227688387036,-0.004103387705981731,8.068087481660768e-06,0.9999982118606567,0.0,0.0,0.0,-61.13822937011719,6.765056610107422,-0.16084831953048706,11066.140625,0
464.6149999999998,0.02576507441699505,-0.025842970237135887,-0.0030140739399939775,0.0,0.0,0.0,0.0,-0.004196161404252052,0.0029037047643214464,0.001009907922707498,0.998440682888031,0.0,0.0,0.0,-61.21938705444336,6.684896945953369,0.021740851923823357,11080.830078125,0
474.4930000000004,0.02578149549663067,-0.02589666098356247,-0.0030445982702076435,0.0,0.0,0.0,0.0,-0.001997251994907856,-0.002138533629477024,-0.001036749454215169,0.9992091655731201,0.0,0.0,0.0,-61.16035079956055,6.6882243156433105,0.023669039830565453,11070.14453125,0
484.3770000000004,0.025730155408382416,-0.02627994678914547,-0.0033604521304368973,0.0,0.0,0.0,0.0,-0.002947137225419283,-0.005225902423262596,0.0014034562045708299,0.9998891949653625,0.0,0.0,0.0,-61.243194580078125,6.6537981033325195,0.1163378581404686,11085.1396484375,0
494.26800000000003,0.02585001103579998,-0.025647737085819244,-0.0031382874585688114,0.0,0.0,0.0,0.0,0.0016933243023231626,0.0026853412855416536,0.0035820603370666504,1.0003212690353394,0.0,0.0,0.0,-61.234249114990234,6.776629447937012,-0.07205899804830551,11083.5205078125,0
504.16300000000047,0.0258222334086895,-0.026017479598522186,-0.0033934973180294037,0.0,0.0,0.0,0.0,-0.00018712671590037644,-0.0015937654534354806,0.0003607984399423003,0.9986223578453064,0.0,0.0,0.0,-61.29432678222656,6.74254035949707,0.0060847606509923935,11094.3955078125,0
514.0360000000001,0.025846274569630623,-0.02606792002916336,-0.003439804073423147,0.0,0.0,0.0,0.0,-8.696332952240482e-05,0.0031443999614566565,0.00414525019004941,0.9992114305496216,0.0,0.0,0.0,-61.23592758178711,6.735515594482422,0.013020836748182774,11083.8251953125,0
523.9290000000001,0.025774722918868065,-0.026318592950701714,-0.0036331340670585632,0.0,0.0,0.0,0.0,0.00010897594620473683,0.001636231318116188,0.000920974591281265,0.9984779357910156,0.0,0.0,0.0,-61.3074951171875,6.714483261108398,0.05433107912540436,11096.7783203125,0
533.8060000000005,0.025826536118984222,-0.025769490748643875,-0.0033595648128539324,0.0,0.0,0.0,0.0,0.00022763838933315128,-0.0012625607196241617,6.661376392003149e-05,0.9987150430679321,0.0,0.0,0.0,-61.29063034057617,6.790905475616455,-0.10596735775470734,11093.7275390625,0
543.6910000000007,0.025814084336161613,-0.026084518060088158,-0.0035451215226203203,0.0,0.0,0.0,0.0,0.0012501385062932968,0.0008812877931632102,0.0016346221091225743,1.0001418590545654,0.0,0.0,0.0,-61.3467903137207,6.777829647064209,-0.04505140706896782,11103.8916015625,0
553.5789999999997,0.02581709995865822,-0.025541534647345543,-0.003231204114854336,0.0,0.0,0.0,0.0,0.0022098959889262915,-0.001849454827606678,-0.0006479176227003336,1.000237226486206,0.0,0.0,0.0,-61.323974609375,6.818387508392334,-0.1656145453453064,11099.76171875,0
563.4639999999999,0.025806184858083725,-0.02594769187271595,-0.003455657046288252,0.0,0.0,0.0,0.0,0.0035895758774131536,0.0035930604208260775,-0.0023214214015752077,0.9993879795074463,0.0,0.0,0.0,-61.38656234741211,6.794259548187256,-0.09559286385774612,11111.08984375,0
573.3460000000014,0.025768309831619263,-0.025461383163928986,-0.003108063479885459,0.0,0.0,0.0,0.0,-4.701076977653429e-05,-0.004079900216311216,-0.0007118171197362244,1.0010361671447754,0.0,0.0,0.0,-61.36672592163086,6.811732292175293,-0.19198499619960785,11107.5,0
583.2330000000002,0.025792622938752174,-0.025475073605775833,-0.0031123762018978596,0.0,0.0,0.0,0.0,0.0009200761560350657,0.0034593327436596155,0.002697630785405636,1.0014678239822388,0.0,0.0,0.0,-61.30809020996094,6.807376861572266,-0.18179720640182495,11096.88671875,0
593.1180000000004,0.02581508830189705,-0.02548888698220253,-0.0031153324525803328,0.0,0.0,0.0,0.0,-0.0029912095051258802,-0.0024141957983374596,-0.0018930144142359495,0.9997634291648865,0.0,0.0,0.0,-61.2491455078125,6.800109386444092,-0.18356257677078247,11086.2177734375,0
603.0060000000012,0.025800464674830437,-0.02588229440152645,-0.0033732494339346886,0.0,0.0,0.0,0.0,-0.0008543946896679699,-0.0001768389920471236,-0.0005587242776528001,0.9993264675140381,0.0,0.0,0.0,-61.30727767944336,6.784730911254883,-0.09109850972890854,11096.7392578125,0
612.8950000000004,0.025748463347554207,-0.02543439157307148,-0.0029288569930940866,0.0,0.0,0.0,0.0,-0.001511216163635254,-0.0030483072623610497,-0.0017719889292493463,1.0001840591430664,0.0,0.0,0.0,-61.28905487060547,6.818192958831787,-0.20203904807567596,11093.44140625,0
622.7700000000004,0.025801921263337135,-0.025892645120620728,-0.003166978247463703,0.0,0.0,0.0,0.0,0.0012426028260961175,0.002124965889379382,-0.001750612398609519,1.0007030963897705,0.0,0.0,0.0,-61.34012985229492,6.807228088378906,-0.09846679121255875,11102.685546875,0
632.6560000000009,0.02578851953148842,-0.02539447322487831,-0.002799050882458687,0.0,0.0,0.0,0.0,-0.0017774275038391352,-0.006574942730367184,0.0020177639089524746,1.000165343284607,0.0,0.0,0.0,-61.3172492980957,6.836535930633545,-0.19666747748851776,11098.5439453125,0
642.5439999999999,0.025691894814372063,-0.025883538648486137,-0.0030978391878306866,0.0,0.0,0.0,0.0,-0.0019035517470911145,-0.007202274166047573,-0.0003306310682091862,1.0015755891799927,0.0,0.0,0.0,-61.37916946411133,6.80519437789917,-0.10617875307798386,11109.7529296875,0
652.4279999999999,0.02570844069123268,-0.025363223627209663,-0.0027699756901711226,0.0,0.0,0.0,0.0,0.0017720359610393643,0.005629415158182383,-0.0021362588740885258,1.0007356405258179,0.0,0.0,0.0,-61.35383224487305,6.841917514801025,-0.17603635787963867,11105.166015625,0
662.3130000000001,0.025676662102341652,-0.02587163634598255,-0.0030556584242731333,0.0,0.0,0.0,0.0,-0.0004385864594951272,0.004649796523153782,-0.0024889393243938684,1.000131607055664,0.0,0.0,0.0,-61.413902282714844,6.810667514801025,-0.1196599155664444,11116.0380859375,0
672.2060000000001,0.0257327388972044,-0.025282053276896477,-0.0027493073139339685,0.0,0.0,0.0,0.0,0.0009783824207261205,0.00027487584156915545,0.0012965565547347069,0.9991756677627563,0.0,0.0,0.0,-61.39154815673828,6.853651523590088,-0.22893401980400085,11111.9931640625,0
682.0860000000011,0.0257668886333704,-0.025280850008130074,-0.002722380682826042,0.0,0.0,0.0,0.0,0.0014627892524003983,0.0015189193654805422,-0.0018587514059618115,0.9977813959121704,0.0,0.0,0.0,-61.332759857177734,6.845768928527832,-0.2277814894914627,11101.3515625,0
691.9719999999998,0.025743667036294937,-0.02478581666946411,-0.0023380147758871317,0.0,0.0,0.0,0.0,-0.00020772629068233073,-0.0011541224084794521,0.004346038214862347,0.9978193044662476,0.0,0.0,0.0,-61.308982849121094,6.869420051574707,-0.3319883644580841,11097.0478515625,0
701.848,0.025774145498871803,-0.024765660986304283,-0.0022891422268003225,0.0,0.0,0.0,0.0,-0.0013178407680243254,0.002127057174220681,-0.0006513149128295481,0.998014509677887,0.0,0.0,0.0,-61.24821472167969,6.86012077331543,-0.32046836614608765,11086.0478515625,0
711.7390000000014,0.0257706418633461,-0.02431558258831501,-0.001961884554475546,0.0,0.0,0.0,0.0,-0.0017144676530733705,0.002049919217824936,-0.000677501258905977,0.9992730021476746,0.0,0.0,0.0,-61.23801803588867,6.898499011993408,-0.4280272424221039,11084.2021484375,0
721.6310000000012,0.025834474712610245,-0.02515326254069805,-0.0025170105509459972,0.0,0.0,0.0,0.0,-0.0008169400389306247,-0.0025549368001520634,0.002244740491732955,0.9979636669158936,0.0,0.0,0.0,-61.30525588989258,6.844030857086182,-0.2364773005247116,11096.373046875,0
731.5120000000006,0.025873970240354538,-0.025151167064905167,-0.0024970322847366333,0.0,0.0,0.0,0.0,-0.0021189029794186354,-0.004708408378064632,-0.0003854293317999691,0.998150646686554,0.0,0.0,0.0,-61.24648666381836,6.835827350616455,-0.22682420909404755,11085.7353515625,0
741.3900000000012,0.025807728990912437,-0.02566485106945038,-0.0028526748064905405,0.0,0.0,0.0,0.0,0.001982190180569887,0.0030279080383479595,0.00015652702131774276,0.9991424083709717,0.0,0.0,0.0,-61.29835510253906,6.784714221954346,-0.09609434753656387,11095.1240234375,0
751.2790000000005,0.025853412225842476,-0.025170503184199333,-0.0025498063769191504,0.0,0.0,0.0,0.0,-0.0008781733340583742,-0.005489909555763006,-0.001211622729897499,0.9994884729385376,0.0,0.0,0.0,-61.281097412109375,6.831518173217773,-0.22583718597888947,11092.0009765625,0
761.1560000000009,0.025748636573553085,-0.02571626752614975,-0.0029204427264630795,0.0,0.0,0.0,0.0,0.001149189891293645,0.0018090094672515988,0.0003234534233342856,0.9993800520896912,0.0,0.0,0.0,-61.343292236328125,6.780115604400635,-0.1159924790263176,11103.2578125,0
771.0560000000005,0.02579108066856861,-0.025187205523252487,-0.0026430056896060705,0.0,0.0,0.0,0.0,0.0002724500955082476,0.0055335890501737595,0.0011657110881060362,1.0000543594360352,0.0,0.0,0.0,-61.32776641845703,6.81814432144165,-0.22463905811309814,11100.4482421875,0
780.9300000000003,0.02572355978190899,-0.02572440914809704,-0.0029897980857640505,0.0,0.0,0.0,0.0,-0.0027720057405531406,0.00038352826959453523,-0.0041685085743665695,1.000341534614563,0.0,0.0,0.0,-61.38290786743164,6.773259162902832,-0.1460324227809906,11110.4296875,0
790.8240000000005,0.02578476443886757,-0.02517598122358322,-0.0027370480820536613,0.0,0.0,0.0,0.0,0.0004568085423670709,-0.0037856961134821177,0.0004090823058504611,0.9997574090957642,0.0,0.0,0.0,-61.35737609863281,6.8205695152282715,-0.23743483424186707,11105.8076171875,0
800.7000000000007,0.0258222296833992,-0.025176456198096275,-0.002735000802204013,0.0,0.0,0.0,0.0,0.0016643301350995898,0.00012227105617057532,-0.0002322540240129456,0.9993074536323547,0.0,0.0,0.0,-61.29807662963867,6.816365718841553,-0.22559550404548645,11095.07421875,0
810.5900000000001,0.025744495913386345,-0.024769587442278862,-0.0023185655009001493,0.0,0.0,0.0,0.0,0.0001810463727451861,0.0015949305379763246,0.0013424038188531995,0.9997515082359314,0.0,0.0,0.0,-61.27691650390625,6.8199262619018555,-0.32213491201400757,11091.2431640625,0
820.4760000000006,0.02577381022274494,-0.024753551930189133,-0.0022874311544001102,0.0,0.0,0.0,0.0,0.0001110195807996206,-0.0045032803900539875,-0.002381818601861596,0.9999106526374817,0.0,0.0,0.0,-61.217689514160156,6.814621448516846,-0.31640055775642395,11080.5224609375,0
830.3630000000012,0.025729145854711533,-0.02434903010725975,-0.0019269027980044484,0.0,0.0,0.0,0.0,-0.0014399585779756308,-0.006142050493508577,0.0004152151523157954,0.998673141002655,0.0,0.0,0.0,-61.19960403442383,6.831521034240723,-0.40531691908836365,11077.2490234375,0
840.2470000000012,0.025864262133836746,-0.02523553930222988,-0.0024709657300263643,0.0,0.0,0.0,0.0,0.0007351206731982529,0.002784180222079158,-0.0011900188401341438,0.9993886947631836,0.0,0.0,0.0,-61.25318908691406,6.789076328277588,-0.17592479288578033,11086.94921875,0
850.1350000000002,0.025860853493213654,-0.024811826646327972,-0.00212773191742599,0.0,0.0,0.0,0.0,-0.002474216278642416,-0.004040924832224846,-0.004324185661971569,0.9999726414680481,0.0,0.0,0.0,-61.23286056518555,6.814795970916748,-0.2729613780975342,11083.26953125,0
860.0130000000008,0.02574593387544155,-0.025517037138342857,-0.0025976975448429585,0.0,0.0,0.0,0.0,-0.0025245368015021086,-0.0030267524998635054,0.0007704685558564961,1.0015352964401245,0.0,0.0,0.0,-61.29506301879883,6.758816242218018,-0.14134487509727478,11094.5283203125,0
869.9030000000002,0.02583080716431141,-0.024989290162920952,-0.0023628927301615477,0.0,0.0,0.0,0.0,-0.0014285799115896225,0.0004911357536911964,0.002368711633607745,1.0014290809631348,0.0,0.0,0.0,-61.27121353149414,6.808395862579346,-0.22150205075740814,11090.2109375,0
879.7790000000005,0.025805482640862465,-0.025574741885066032,-0.002719386713579297,0.0,0.0,0.0,0.0,0.0014940113760530949,-0.0040429700165987015,0.0019502455834299326,0.9995207190513611,0.0,0.0,0.0,-61.31489181518555,6.771234512329102,-0.12410047650337219,11098.1181640625,0
889.6730000000007,0.02584199421107769,-0.02559378556907177,-0.00272750505246222,0.0,0.0,0.0,0.0,0.0005220423336140811,0.0023126108571887016,0.0027293513994663954,0.998993456363678,0.0,0.0,0.0,-61.2557373046875,6.764830589294434,-0.11950352042913437,11087.4091796875,0
899.5490000000009,0.025692114606499672,-0.026025306433439255,-0.003030928084626794,0.0,0.0,0.0,0.0,0.004260259214788675,-0.004505140241235495,-0.00029362202621996403,0.9978347420692444,0.0,0.0,0.0,-61.3149528503418,6.715827941894531,-0.047239214181900024,11098.12890625,0
909.4430000000011,0.02572721429169178,-0.026065804064273834,-0.0030623890925198793,0.0,0.0,0.0,0.0,0.0003167847462464124,-0.001096883905120194,-0.000280496955383569,1.0001248121261597,0.0,0.0,0.0,-61.256561279296875,6.7030110359191895,-0.03404463455080986,11087.55859375,0
919.3220000000001,0.025761593133211136,-0.02610836736857891,-0.0030944112222641706,0.0,0.0,0.0,0.0,-0.0007533408934250474,-0.0013684156583622098,-0.000646317726932466,1.00078284740448,0.0,0.0,0.0,-61.198246002197266,6.696383953094482,-0.023048417642712593,11077.00390625,0
929.2150000000001,0.025794409215450287,-0.02615305408835411,-0.0031256380025297403,0.0,0.0,0.0,0.0,-0.0005664768978022039,-0.005353833548724651,0.000525238283444196,1.0018653869628906,0.0,0.0,0.0,-61.14015579223633,6.691808700561523,-0.012561495415866375,11066.4892578125,0
939.0930000000008,0.02582550421357155,-0.0261990949511528,-0.0031553860753774643,0.0,0.0,0.0,0.0,-0.001422717235982418,-0.003221870167180896,-0.0019415437709540129,1.0003479719161987,0.0,0.0,0.0,-61.081947326660156,6.68656063079834,-0.00020159405539743602,11055.9541015625,0
948.987000000001,0.025872061029076576,-0.02537204511463642,-0.0026033795438706875,0.0,0.0,0.0,0.0,0.0014255477581173182,-0.0014047576114535332,-0.002558502135798335,0.9999552369117737,0.0,0.0,0.0,-61.0748176574707,6.80490779876709,-0.26001906394958496,11054.6640625,0
958.8649999999998,0.025767281651496887,-0.025831710547208786,-0.0030491340439766645,0.0,0.0,0.0,0.0,-2.2494996301247738e-05,-0.0017594415694475174,0.00287387752905488,0.9996302127838135,0.0,0.0,0.0,-61.15119934082031,6.7385029792785645,-0.11709839850664139,11068.48828125,0
968.7630000000008,0.025810472667217255,-0.025260353460907936,-0.002691317582502961,0.0,0.0,0.0,0.0,-0.0004902733489871025,-0.007100027985870838,0.0015246184775605798,0.9999184012413025,0.0,0.0,0.0,-61.13859176635742,6.807165622711182,-0.26502805948257446,11066.2060546875,0
978.6320000000014,0.025742584839463234,-0.02575003169476986,-0.0030447174794971943,0.0,0.0,0.0,0.0,-0.0013696369715034962,0.004015409853309393,0.0022092266008257866,0.9995338320732117,0.0,0.0,0.0,-61.211734771728516,6.7648844718933105,-0.13543930649757385,11079.4453125,0
988.527,0.02577793225646019,-0.025203203782439232,-0.002747628837823868,0.0,0.0,0.0,0.0,-0.002145911566913128,-0.0010263558942824602,-0.002388559514656663,0.9994845390319824,0.0,0.0,0.0,-61.19773483276367,6.813992500305176,-0.24685098230838776,11076.9111328125,0
998.4020000000019,0.025777895003557205,-0.025679973885416985,-0.0030253317672759295,0.0,0.0,0.0,0.0,-0.0003690478333737701,0.0036788342986255884,0.002660219557583332,1.000327467918396,0.0,0.0,0.0,-61.25331115722656,6.789463996887207,-0.15348151326179504,11086.970703125,0
1008.2960000000021,0.02580679953098297,-0.025679567828774452,-0.00303900009021163,0.0,0.0,0.0,0.0,-0.0008332796860486269,-0.00014669910888187587,-0.0023278514854609966,0.9996890425682068,0.0,0.0,0.0,-61.19397735595703,6.783603191375732,-0.15480832755565643,11076.2314453125,0
1018.1720000000023,0.02567661553621292,-0.026029687374830246,-0.0032965419813990593,0.0,0.0,0.0,0.0,-0.0005856101051904261,0.004145901184529066,-0.00027332708123140037,0.9997662305831909,0.0,0.0,0.0,-61.26546096801758,6.745737075805664,-0.08843380212783813,11089.169921875,0
1028.071,0.025757718831300735,-0.025415346026420593,-0.003057439811527729,0.0,0.0,0.0,0.0,0.003076218767091632,0.0048947688192129135,0.003630460938438773,1.0019938945770264,0.0,0.0,0.0,-61.246864318847656,6.805202484130859,-0.21849539875984192,11085.8046875,0
1037.9439999999995,0.02569608762860298,-0.025841427966952324,-0.003330976003780961,0.0,0.0,0.0,0.0,0.0014557774411514401,-0.004747217986732721,-0.0005912708002142608,1.0011255741119385,0.0,0.0,0.0,-61.313087463378906,6.769369602203369,-0.16193999350070953,11097.7919921875,0
1047.8349999999991,0.025733226910233498,-0.025248263031244278,-0.003051073756068945,0.0,0.0,0.0,0.0,-0.00016728109039831907,-0.0013196399668231606,-0.0032554904464632273,1.0003924369812012,0.0,0.0,0.0,-61.29520797729492,6.806561470031738,-0.24977420270442963,11094.5546875,0
1057.7160000000003,0.025764809921383858,-0.025230620056390762,-0.003053936641663313,0.0,0.0,0.0,0.0,-0.0014204923063516617,0.0001629827165743336,0.0015649216948077083,0.9989460706710815,0.0,0.0,0.0,-61.2378044128418,6.802037715911865,-0.24268895387649536,11084.1640625,0
1067.6100000000006,0.02568109706044197,-0.024755865335464478,-0.00261226505972445,0.0,0.0,0.0,0.0,0.004182673525065184,-0.002431548433378339,0.002287098206579685,0.9983108043670654,0.0,0.0,0.0,-61.224021911621094,6.819860458374023,-0.34075233340263367,11081.6689453125,0
1077.4880000000012,0.025819160044193268,-0.025455981492996216,-0.0029940225649625063,0.0,0.0,0.0,0.0,-0.0005667980294674635,0.00328460824675858,-0.0026978719979524612,0.9992130994796753,0.0,0.0,0.0,-61.28759765625,6.792165756225586,-0.18752285838127136,11093.177734375,0
1087.3840000000018,0.025800850242376328,-0.024969592690467834,-0.002634449629113078,0.0,0.0,0.0,0.0,0.0019728457555174828,-0.00042401341488584876,-0.0006279475637711585,0.9999513030052185,0.0,0.0,0.0,-61.270652770996094,6.820265293121338,-0.27504751086235046,11090.109375,0
1097.255000000001,0.02579810842871666,-0.02552850730717182,-0.002973182126879692,0.0,0.0,0.0,0.0,3.101078254985623e-05,-0.005319815129041672,0.0029533710330724716,1.0011087656021118,0.0,0.0,0.0,-61.32687759399414,6.788867473602295,-0.18260270357131958,11100.287109375,0
1107.148000000001,0.025819944217801094,-0.025004766881465912,-0.0026628568302839994,0.0,0.0,0.0,0.0,0.00034448294900357723,0.00071510742418468,0.00223075901158154,1.000161051750183,0.0,0.0,0.0,-61.3047981262207,6.819626808166504,-0.25542938709259033,11096.291015625,0
1117.0270000000019,0.025792930275201797,-0.025555716827511787,-0.0030039779376238585,0.0,0.0,0.0,0.0,-0.0022770778741687536,-0.0007229559123516083,-0.0004126579442527145,1.001430869102478,0.0,0.0,0.0,-61.364498138427734,6.787554740905762,-0.17397259175777435,11107.0966796875,0
1126.9180000000015,0.025787347927689552,-0.025056593120098114,-0.002670689020305872,0.0,0.0,0.0,0.0,-0.001085034222342074,0.0021399762481451035,0.0019708636682480574,1.0018962621688843,0.0,0.0,0.0,-61.34478759765625,6.813375473022461,-0.2501285970211029,11103.5283203125,0
1136.8110000000015,0.025784865021705627,-0.025594821199774742,-0.0029884714167565107,0.0,0.0,0.0,0.0,-0.0020687079522758722,0.0017607908230274916,-0.0013393503613770008,1.002286434173584,0.0,0.0,0.0,-61.40040588378906,6.786750316619873,-0.17048713564872742,11113.595703125,0
1146.6929999999993,0.025817785412073135,-0.025590980425477028,-0.002986861625686288,0.0,0.0,0.0,0.0,0.0017183601157739758,0.0011703894706442952,0.0003853107918985188,0.9998864531517029,0.0,0.0,0.0,-61.342185974121094,6.785642623901367,-0.17295901477336884,11103.0576171875,0
1156.5689999999995,0.02584892511367798,-0.025587856769561768,-0.0029840050265192986,0.0,0.0,0.0,0.0,0.0016562051605433226,-0.0001552312751300633,0.002044524298980832,0.9999039173126221,0.0,0.0,0.0,-61.28325271606445,6.776533603668213,-0.18024605512619019,11092.390625,0
1166.4650000000001,0.025878259912133217,-0.025585580617189407,-0.002981046214699745,0.0,0.0,0.0,0.0,-0.0008692588889971375,-0.0012114137643948197,0.0016306182369589806,1.0000790357589722,0.0,0.0,0.0,-61.224815368652344,6.765086650848389,-0.18544884026050568,11081.8125,0
1176.3359999999993,0.025905843824148178,-0.025584714487195015,-0.002977910451591015,0.0,0.0,0.0,0.0,-0.00028003391344100237,0.0014270162209868431,0.0009342847624793649,1.0014582872390747,0.0,0.0,0.0,-61.16615676879883,6.759171962738037,-0.18129821121692657,11071.1953125,0
1186.2289999999994,0.02593197301030159,-0.02558451145887375,-0.0029738848097622395,0.0,0.0,0.0,0.0,-0.0005057245725765824,-0.0005737515748478472,-0.0009028532658703625,1.0001378059387207,0.0,0.0,0.0,-61.107234954833984,6.751407146453857,-0.18202310800552368,11060.53125,0
1196.1059999999998,0.02577582560479641,-0.0260723065584898,-0.003398359753191471,0.0,0.0,0.0,0.0,-0.001400412991642952,0.000596498663071543,0.0002159214927814901,1.0013259649276733,0.0,0.0,0.0,-61.18212127685547,6.660281658172607,-0.07256072014570236,11074.0849609375,0
1206.0010000000002,0.025813112035393715,-0.025459663942456245,-0.0029765504878014326,0.0,0.0,0.0,0.0,0.0010499849449843168,-0.003887457773089409,0.002986191539093852,1.0017056465148926,0.0,0.0,0.0,-61.1682014465332,6.751023769378662,-0.25655534863471985,11071.5654296875,0
1215.8760000000002,0.025814596563577652,-0.025857025757431984,-0.0032542881090193987,0.0,0.0,0.0,0.0,0.0017554922960698605,0.003627787809818983,-0.0021155853755772114,1.000888705253601,0.0,0.0,0.0,-61.22518539428711,6.722354888916016,-0.14835229516029358,11081.880859375,0
1225.7750000000015,0.025832179933786392,-0.025316840037703514,-0.0028984397649765015,0.0,0.0,0.0,0.0,0.001096704276278615,0.0026198653504252434,0.0003969179233536124,1.0005210638046265,0.0,0.0,0.0,-61.20862579345703,6.77247428894043,-0.2830545902252197,11078.8828125,0
1235.6470000000008,0.02571745403110981,-0.025771941989660263,-0.003212827956303954,0.0,0.0,0.0,0.0,-0.00013391688116826117,-0.0005496458034031093,0.0008056872175075114,1.0000203847885132,0.0,0.0,0.0,-61.27836990356445,6.730576992034912,-0.2076984941959381,11091.505859375,0
1245.546000000002,0.025714606046676636,-0.025224078446626663,-0.0028658281080424786,0.0,0.0,0.0,0.0,0.00015151151455938816,0.0011759805493056774,-0.0012056543491780758,0.9981324076652527,0.0,0.0,0.0,-61.26163101196289,6.766127586364746,-0.303764283657074,11088.4765625,0
1255.4180000000015,0.025794165208935738,-0.025715550407767296,-0.0031054439023137093,0.0,0.0,0.0,0.0,0.0007384247146546841,0.0014846576377749443,-0.0006529319216497242,1.001945972442627,0.0,0.0,0.0,-61.313533782958984,6.747624397277832,-0.2148796021938324,11097.8720703125,0
1265.3150000000023,0.025784257799386978,-0.025192324072122574,-0.002756974194198847,0.0,0.0,0.0,0.0,-0.00022568399435840547,0.00010303445014869794,0.0024718905333429575,1.0009385347366333,0.0,0.0,0.0,-61.29796600341797,6.777519702911377,-0.29843437671661377,11095.0546875,0
1275.1929999999993,0.025807412341237068,-0.025177225470542908,-0.002727808430790901,0.0,0.0,0.0,0.0,0.0003413405502215028,-0.00405911635607481,0.0010442080674692988,0.9991136789321899,0.0,0.0,0.0,-61.239315032958984,6.776223182678223,-0.2898940443992615,11084.4375,0
1285.0849999999991,0.02582947537302971,-0.025162843987345695,-0.0026983320713043213,0.0,0.0,0.0,0.0,-0.0007007342646829784,0.0036119206342846155,0.005735167767852545,0.9980688095092773,0.0,0.0,0.0,-61.18091583251953,6.77255392074585,-0.2736319899559021,11073.8681640625,0
1294.958999999999,0.02584950067102909,-0.025149228051304817,-0.002669922076165676,0.0,0.0,0.0,0.0,0.0002249804965686053,0.0018215964082628489,-0.0008380464278161526,0.9981866478919983,0.0,0.0,0.0,-61.120887756347656,6.772434711456299,-0.2772137224674225,11063.0029296875,0
1304.8549999999996,0.025783972814679146,-0.024629484862089157,-0.0021722717210650444,0.0,0.0,0.0,0.0,-0.0016483515501022339,0.0038393877912312746,0.00038279753061942756,1.0012578964233398,0.0,0.0,0.0,-61.10685729980469,6.801270484924316,-0.39863571524620056,11060.462890625,0
1314.7289999999994,0.02581966295838356,-0.02532714232802391,-0.0026990072801709175,0.0,0.0,0.0,0.0,0.0015057947020977736,0.00746740959584713,0.0007732228259555995,0.9982354044914246,0.0,0.0,0.0,-61.17097091674805,6.755662441253662,-0.23422355949878693,11072.06640625,0
1324.6260000000002,0.025800161063671112,-0.02486703172326088,-0.0023032817989587784,0.0,0.0,0.0,0.0,-0.001854371977970004,0.0025336085818707943,-0.00040441498276777565,0.9999623894691467,0.0,0.0,0.0,-61.16251754760742,6.782887935638428,-0.3559070825576782,11070.5380859375,0
1334.5,0.025787029415369034,-0.025479130446910858,-0.0026810932904481888,0.0,0.0,0.0,0.0,0.00244799698702991,-0.0020514449570327997,0.002039890270680189,1.0026062726974487,0.0,0.0,0.0,-61.21982955932617,6.745656967163086,-0.25458788871765137,11080.9111328125,0
1344.3990000000013,0.02581527642905712,-0.024978317320346832,-0.0023906989954411983,0.0,0.0,0.0,0.0,-0.000897091522347182,0.003612513653934002,0.0001101872549043037,1.0030184984207153,0.0,0.0,0.0,-61.20137405395508,6.7733635902404785,-0.33207282423973083,11077.5703125,0
1354.2720000000008,0.025683477520942688,-0.02558971382677555,-0.0027907006442546844,0.0,0.0,0.0,0.0,0.002579315798357129,0.0019864945206791162,0.003357479814440012,1.0025684833526611,0.0,0.0,0.0,-61.27231216430664,6.726592063903809,-0.2582553029060364,11090.41015625,0
1364.1650000000009,0.025715850293636322,-0.025047162547707558,-0.0025037885643541813,0.0,0.0,0.0,0.0,0.002029824536293745,0.0021750142332166433,0.0003036522539332509,0.9999133944511414,0.0,0.0,0.0,-61.25594711303711,6.758979320526123,-0.34966468811035156,11087.4482421875,0
1374.0430000000015,0.02575593627989292,-0.02565326727926731,-0.00283324858173728,0.0,0.0,0.0,0.0,0.0024325770791620016,0.00221363571472466,0.0002545014431234449,1.0003080368041992,0.0,0.0,0.0,-61.3175163269043,6.729507923126221,-0.25909945368766785,11098.5927734375,0
1383.9370000000017,0.02576989307999611,-0.02565956674516201,-0.002826165873557329,0.0,0.0,0.0,0.0,-0.0007299216813407838,0.004291181918233633,0.0016762720188125968,1.0001391172409058,0.0,0.0,0.0,-61.258426666259766,6.722938060760498,-0.2534206211566925,11087.896484375,0
1393.8120000000017,0.025720365345478058,-0.026050645858049393,-0.003075770102441311,0.0,0.0,0.0,0.0,0.0011288967216387391,-0.001988816075026989,-0.0011394122848287225,0.9994907379150391,0.0,0.0,0.0,-61.324100494384766,6.694968223571777,-0.18924342095851898,11099.7841796875,0
1403.7109999999993,0.025796232745051384,-0.025437980890274048,-0.002832225989550352,0.0,0.0,0.0,0.0,0.0018442479195073247,0.0007386483484879136,0.0005437167128548026,1.000320315361023,0.0,0.0,0.0,-61.306373596191406,6.75381326675415,-0.30541837215423584,11096.576171875,0
1413.5920000000006,0.025738030672073364,-0.025897661224007607,-0.00311096734367311,0.0,0.0,0.0,0.0,-2.2070058548706584e-05,-0.0006681403028778732,-0.00020297586161177605,1.0029395818710327,0.0,0.0,0.0,-61.36783218383789,6.72029447555542,-0.2293885499238968,11107.7001953125,0
1423.4890000000014,0.025753967463970184,-0.025317544117569923,-0.0028147357515990734,0.0,0.0,0.0,0.0,-0.00043928850209340453,0.0005024729762226343,0.0011614998802542686,1.0021568536758423,0.0,0.0,0.0,-61.349021911621094,6.764525413513184,-0.32784315943717957,11104.294921875,0
1433.351999999999,0.025792816653847694,-0.025795018300414085,-0.003063524840399623,0.0,0.0,0.0,0.0,-0.0009120111353695393,-0.00036068749614059925,0.00010428349924040958,1.0000450611114502,0.0,0.0,0.0,-61.398109436035156,6.744984149932861,-0.24481232464313507,11113.1796875,0
1443.2479999999996,0.025813385844230652,-0.025224050506949425,-0.002767788013443351,0.0,0.0,0.0,0.0,-0.0008265352225862443,0.004606070928275585,-0.0009931362001225352,0.9987977147102356,0.0,0.0,0.0,-61.37511444091797,6.785392761230469,-0.33398786187171936,11109.0185546875,0
1453.130000000001,0.025702979415655136,-0.025732586160302162,-0.0031016834545880556,0.0,0.0,0.0,0.0,-0.0017156023532152176,-0.00523538189008832,0.0009535974240861833,1.0005322694778442,0.0,0.0,0.0,-61.4340705871582,6.748376846313477,-0.2620404362678528,11119.689453125,0
1463.0240000000013,0.025699665769934654,-0.025170782580971718,-0.002778472611680627,0.0,0.0,0.0,0.0,0.0013332045637071133,0.0014375416794791818,0.0012686485424637794,1.0025323629379272,0.0,0.0,0.0,-61.41048049926758,6.785591125488281,-0.3352290689945221,11115.4189453125,0
1472.8940000000002,0.025675229728221893,-0.02570500783622265,-0.003096331376582384,0.0,0.0,0.0,0.0,-0.0007435635197907686,-0.0008743046200834215,0.0020822675433009863,1.003170132637024,0.0,0.0,0.0,-61.47015380859375,6.756800174713135,-0.24926163256168365,11126.220703125,0
1482.796000000002,0.025708824396133423,-0.025131970643997192,-0.0028182074893265963,0.0,0.0,0.0,0.0,0.001075039734132588,-0.008330893702805042,0.002034650184214115,1.0014604330062866,0.0,0.0,0.0,-61.44689178466797,6.797674179077148,-0.33396434783935547,11122.0107421875,0
1492.666000000001,0.025657277554273605,-0.025623561814427376,-0.003117856103926897,0.0,0.0,0.0,0.0,0.004545347765088081,-0.0012157585006207228,0.001773832947947085,0.9999247789382935,0.0,0.0,0.0,-61.49979782104492,6.76775598526001,-0.23576951026916504,11131.5859375,0
1502.5620000000017,0.02566855028271675,-0.025622066110372543,-0.00311811501160264,0.0,0.0,0.0,0.0,-0.0021976495627313852,-0.008391154929995537,-7.316165283555165e-05,0.9985103607177734,0.0,0.0,0.0,-61.439979553222656,6.758288860321045,-0.2201758772134781,11120.7587890625,0
1512.4360000000015,0.025679174810647964,-0.02562173269689083,-0.003118811408057809,0.0,0.0,0.0,0.0,0.0017587901093065739,-0.001650849124416709,0.0006526423385366797,1.001222014427185,0.0,0.0,0.0,-61.38029861450195,6.759533882141113,-0.2006266713142395,11109.95703125,0
1522.3290000000015,0.02566356770694256,-0.02501925267279148,-0.0026635508984327316,0.0,0.0,0.0,0.0,-0.0016477652825415134,-0.0020155110396444798,0.0009191047865897417,0.9994068145751953,0.0,0.0,0.0,-61.362648010253906,6.809031009674072,-0.3429970443248749,11106.76171875,0
1532.206000000002,0.02572980336844921,-0.025579847395420074,-0.0030057004187256098,0.0,0.0,0.0,0.0,-0.0006403949810191989,0.002663763239979744,0.0025157707277685404,0.9994007349014282,0.0,0.0,0.0,-61.4252815246582,6.788520812988281,-0.18929313123226166,11118.0986328125,0
1542.1049999999996,0.025679560378193855,-0.025105098262429237,-0.0025952125433832407,0.0,0.0,0.0,0.0,-0.0012446304317563772,-0.0003722172405105084,0.0021585302893072367,1.0018260478973389,0.0,0.0,0.0,-61.402565002441406,6.8159637451171875,-0.29941993951797485,11113.986328125,0
1551.9799999999996,0.025688059628009796,-0.025077026337385178,-0.002557243686169386,0.0,0.0,0.0,0.0,-0.0005835695774294436,-0.004950371105223894,-0.0033670009579509497,1.0007084608078003,0.0,0.0,0.0,-61.343563079833984,6.813345909118652,-0.3020077645778656,11103.3076171875,0
1561.8760000000002,0.02559000812470913,-0.02464791014790535,-0.0021080083679407835,0.0,0.0,0.0,0.0,-0.0003930751990992576,-0.002503329887986183,0.003984425216913223,0.9996939301490784,0.0,0.0,0.0,-61.32681655883789,6.82754373550415,-0.39120718836784363,11100.2763671875,0
1571.7459999999992,0.02558698132634163,-0.024596545845270157,-0.0020364949014037848,0.0,0.0,0.0,0.0,-0.0023917804937809706,4.7758701839484274e-05,-0.0017557141836732626,1.0015828609466553,0.0,0.0,0.0,-61.26717758178711,6.8207597732543945,-0.3829999268054962,11089.4814453125,0
1581.6389999999992,0.025521522387862206,-0.024207739159464836,-0.0016668009338900447,0.0,0.0,0.0,0.0,-0.004169446416199207,0.0039019149262458086,0.0028033889830112457,1.002127766609192,0.0,0.0,0.0,-61.25312042236328,6.840508460998535,-0.4677739143371582,11086.935546875,0
1591.518,0.02550947107374668,-0.024136390537023544,-0.0015702336095273495,0.0,0.0,0.0,0.0,0.0016074697487056255,-0.002823369111865759,0.0025577032938599586,0.9989745616912842,0.0,0.0,0.0,-61.194522857666016,6.845971584320068,-0.47094446420669556,11076.330078125,0
1601.4140000000007,0.02549627237021923,-0.02406407706439495,-0.0014732442796230316,0.0,0.0,0.0,0.0,0.00038808342651464045,-0.002040836028754711,0.0023978177923709154,0.9976620674133301,0.0,0.0,0.0,-61.13579177856445,6.836852073669434,-0.4552054703235626,11065.69921875,0
1611.291000000001,0.025481972843408585,-0.023990487679839134,-0.0013777309795841575,0.0,0.0,0.0,0.0,-0.0007412757258862257,-0.006105328910052776,0.000391105015296489,0.9976431727409363,0.0,0.0,0.0,-61.076847076416016,6.833836078643799,-0.4457439184188843,11055.0302734375,0
1621.179,0.02546541951596737,-0.02391703426837921,-0.001284216996282339,0.0,0.0,0.0,0.0,0.001929849968291819,0.002524260664358735,-0.0011094806250184774,0.9985519051551819,0.0,0.0,0.0,-61.01914596557617,6.832957744598389,-0.43780311942100525,11044.587890625,0
1631.059000000001,0.025446651503443718,-0.02384406141936779,-0.0011924812570214272,0.0,0.0,0.0,0.0,0.0009509225492365658,-0.00415105652064085,0.0006272101891227067,0.9989168047904968,0.0,0.0,0.0,-60.961456298828125,6.824971675872803,-0.4463244080543518,11034.14453125,0
1640.9500000000007,0.02542603760957718,-0.023771125823259354,-0.0011020594974979758,0.0,0.0,0.0,0.0,-0.00042671762639656663,0.0047716922126710415,0.0017509968020021915,0.9991294741630554,0.0,0.0,0.0,-60.90388488769531,6.818918228149414,-0.4381656050682068,11023.724609375,0
1650.8280000000013,0.02540358528494835,-0.023698700591921806,-0.0010121837258338928,0.0,0.0,0.0,0.0,-0.003164364956319332,-0.003854237962514162,-0.001018986222334206,0.9999371767044067,0.0,0.0,0.0,-60.845741271972656,6.817288398742676,-0.44345375895500183,11013.2001953125,0
1660.7210000000014,0.025380289182066917,-0.023627599701285362,-0.0009221099899150431,0.0,0.0,0.0,0.0,-3.176668906235136e-05,0.0009843818843364716,-0.003080992726609111,1.0004246234893799,0.0,0.0,0.0,-60.78799057006836,6.820779323577881,-0.42964404821395874,11002.74609375,0
1670.5980000000018,0.025356657803058624,-0.02355891466140747,-0.0008314365986734629,0.0,0.0,0.0,0.0,0.00038643775042146444,0.005398360546678305,-0.002240299480035901,1.0013717412948608,0.0,0.0,0.0,-60.730228424072266,6.816654682159424,-0.4335668087005615,10992.2919921875,0
1680.4939999999988,0.025332119315862656,-0.023491768166422844,-0.0007395667489618063,0.0,0.0,0.0,0.0,0.0017233804101124406,0.0011693361448124051,-0.0016469878610223532,1.0008920431137085,0.0,0.0,0.0,-60.672210693359375,6.807861804962158,-0.4476590156555176,10981.7900390625,0
1690.3770000000004,0.025306064635515213,-0.023424820974469185,-0.0006462374003604054,0.0,0.0,0.0,0.0,-0.0016477185999974608,-0.00674235075712204,0.003860796568915248,0.9991368651390076,0.0,0.0,0.0,-60.615379333496094,6.801410675048828,-0.4472668468952179,10971.50390625,0
1700.268,0.02527756616473198,-0.02335795760154724,-0.0005524957668967545,0.0,0.0,0.0,0.0,-0.0023411258589476347,-0.00029471860034391284,-0.0020085542928427458,0.9980401992797852,0.0,0.0,0.0,-60.556365966796875,6.799838066101074,-0.43127521872520447,10960.822265625,0
1710.1510000000017,0.02524719387292862,-0.02329139970242977,-0.00045969971688464284,0.0,0.0,0.0,0.0,0.0010104059474542737,0.005996214225888252,0.0017204517498612404,0.9995866417884827,0.0,0.0,0.0,-60.49866485595703,6.797544479370117,-0.43051791191101074,10950.37890625,0
1720.036,0.02533108927309513,-0.023101942613720894,-0.00045248365495353937,0.0,0.0,0.0,0.0,0.0014538783580064774,-0.005189333111047745,-0.0014449052978307009,1.001022458076477,0.0,0.0,0.0,-60.53754806518555,6.824759483337402,-0.4653644263744354,10957.4169921875,0
1729.9089999999997,0.025305602699518204,-0.023027988150715828,-0.0003645949182100594,0.0,0.0,0.0,0.0,0.0008025718270801008,0.0004853663849644363,0.0010508571285754442,0.9998890161514282,0.0,0.0,0.0,-60.479949951171875,6.817437171936035,-0.45543739199638367,10946.9912109375,0
1739.8019999999997,0.025277450680732727,-0.02295299991965294,-0.00027618021704256535,0.0,0.0,0.0,0.0,0.0007114241016097367,0.006617964245378971,0.001754077267833054,0.9990485906600952,0.0,0.0,0.0,-60.42155075073242,6.811645984649658,-0.45383262634277344,10936.4208984375,0
1749.6810000000005,0.02524593099951744,-0.02287653088569641,-0.00018788932356983423,0.0,0.0,0.0,0.0,-0.0007595174247398973,-0.004598185885697603,0.0005435760831460357,0.9999503493309021,0.0,0.0,0.0,-60.36259078979492,6.806266784667969,-0.46273696422576904,10925.75,0
1759.5750000000007,0.025211110711097717,-0.022799376398324966,-9.984662756323814e-05,0.0,0.0,0.0,0.0,-0.00324817281216383,0.0025210720486938953,-0.003392604412510991,0.9987557530403137,0.0,0.0,0.0,-60.30476760864258,6.799862861633301,-0.44573596119880676,10915.283203125,0
1769.4619999999995,0.025834601372480392,-0.02540741302073002,-0.0023864861577749252,0.0,0.0,0.0,0.0,0.0020278384909033775,0.004898825194686651,0.0021569773089140654,1.0019317865371704,0.0,0.0,0.0,-60.469520568847656,6.643109321594238,0.09470858424901962,10945.1044921875,0
1779.357,0.02582976408302784,-0.0254660677164793,-0.0024105135817080736,0.0,0.0,0.0,0.0,0.0014966325834393501,-0.0004594181082211435,0.0005161426961421967,1.0001384019851685,0.0,0.0,0.0,-60.410888671875,6.63538932800293,0.0920725017786026,10934.4921875,0
1789.2210000000014,0.025824856013059616,-0.0255278330296278,-0.0024335661437362432,0.0,0.0,0.0,0.0,-0.0021506526973098516,0.0061770337633788586,0.0009932421380653977,0.9981856942176819,0.0,0.0,0.0,-60.35322189331055,6.625914573669434,0.0945831909775734,10924.0537109375,0
1799.1270000000004,0.0258201751857996,-0.025592561811208725,-0.002457152120769024,0.0,0.0,0.0,0.0,0.00029219119460321963,0.002365130465477705,0.001022935495711863,0.9977738261222839,0.0,0.0,0.0,-60.2959098815918,6.624077796936035,0.07999598979949951,10913.6787109375,0
1808.9939999999988,0.025685781612992287,-0.02619978040456772,-0.0031077051535248756,0.0,0.0,0.0,0.0,-0.005163780879229307,0.0020867143757641315,-0.001267308834940195,1.001090407371521,0.0,0.0,0.0,-60.46208953857422,6.553471565246582,0.17631042003631592,10943.7587890625,0
1818.8950000000004,0.02567995898425579,-0.026296010240912437,-0.003164318623021245,0.0,0.0,0.0,0.0,0.0026220388244837523,0.008813557215034962,-0.0011024534469470382,1.001219630241394,0.0,0.0,0.0,-60.40437316894531,6.554649829864502,0.1774081289768219,10933.3115234375,0
1828.7619999999988,0.025662461295723915,-0.026560518890619278,-0.0033910199999809265,0.0,0.0,0.0,0.0,0.002545286901295185,0.007428258191794157,-4.5897497329860926e-05,1.0001074075698853,0.0,0.0,0.0,-60.5446662902832,6.538993835449219,0.20096056163311005,10958.705078125,0
1838.6549999999988,0.025659019127488136,-0.026670347899198532,-0.0034549140837043524,0.0,0.0,0.0,0.0,1.9941402570111677e-05,0.0012106463545933366,0.00029558438109233975,0.9991186261177063,0.0,0.0,0.0,-60.486576080322266,6.5247955322265625,0.1866137683391571,10948.19140625,0
1848.5329999999994,0.0256554763764143,-0.026782888919115067,-0.0035187837202101946,0.0,0.0,0.0,0.0,0.0004721998702734709,0.0021934264805167913,-0.0017064661951735616,1.002341866493225,0.0,0.0,0.0,-60.4283332824707,6.517897605895996,0.1840808093547821,10937.6494140625,0
1858.438000000002,0.025651654228568077,-0.026897847652435303,-0.0035815713927149773,0.0,0.0,0.0,0.0,-0.0011746514355763793,-0.00020881649106740952,0.0026176536921411753,1.002073884010315,0.0,0.0,0.0,-60.37100601196289,6.512392997741699,0.17966733872890472,10927.2724609375,0
1868.3029999999999,0.025646423920989037,-0.0270143561065197,-0.003642235416918993,0.0,0.0,0.0,0.0,0.00222154357470572,0.0026171403005719185,0.0010618303203955293,0.9993427991867065,0.0,0.0,0.0,-60.312828063964844,6.5118608474731445,0.17850664258003235,10916.7421875,0
1878.1970000000001,0.025638826191425323,-0.027132557705044746,-0.003702071262523532,0.0,0.0,0.0,0.0,-0.000660305900964886,-0.006740126293152571,0.0007515333709307015,0.9993172287940979,0.0,0.0,0.0,-60.25510025024414,6.5019145011901855,0.1761871725320816,10906.2919921875,0
1888.0740000000005,0.025628892704844475,-0.027252892032265663,-0.003762134350836277,0.0,0.0,0.0,0.0,-5.2545699873007834e-05,-0.0023258784785866737,0.0013337830314412713,1.0009547472000122,0.0,0.0,0.0,-60.197601318359375,6.502254009246826,0.1929401308298111,10895.884765625,0
1897.9700000000012,0.025616256520152092,-0.0273742713034153,-0.003821718040853739,0.0,0.0,0.0,0.0,-0.0010354560799896717,-0.004878019914031029,-0.00018373786588199437,1.0005942583084106,0.0,0.0,0.0,-60.14063262939453,6.496129512786865,0.20572689175605774,10885.57421875,0
1907.844000000001,0.02554994821548462,-0.027262920513749123,-0.003723465371876955,0.0,0.0,0.0,0.0,-0.004700200632214546,-0.0035197539255023003,0.0011498938547447324,0.9991017580032349,0.0,0.0,0.0,-60.33274459838867,6.511834621429443,0.1322619765996933,10920.3466796875,0
1917.7439999999988,0.025526326149702072,-0.027369897812604904,-0.0037717900704592466,0.0,0.0,0.0,0.0,-0.0003117899759672582,-0.0053215050138533115,-0.0005471464828588068,0.9993777871131897,0.0,0.0,0.0,-60.27488708496094,6.511336803436279,0.14601340889930725,10909.8740234375,0
1927.6150000000016,0.02552817203104496,-0.0272785946726799,-0.0036760990042239428,0.0,0.0,0.0,0.0,-0.0009000780992209911,-0.00603090226650238,-0.0032741243485361338,1.0015616416931152,0.0,0.0,0.0,-60.46149444580078,6.538880825042725,0.09402481466531754,10943.650390625,0
1937.5090000000018,0.02550082840025425,-0.02737630158662796,-0.0037135451566427946,0.0,0.0,0.0,0.0,-0.001173733500763774,-0.004279676359146833,0.0002669273526407778,1.001900553703308,0.0,0.0,0.0,-60.40435791015625,6.533993244171143,0.10166078060865402,10933.30859375,0
1947.385000000002,0.02547142282128334,-0.02747556008398533,-0.003748952643945813,0.0,0.0,0.0,0.0,0.0009038032148964703,-0.0010636785300448537,-0.0022962638176977634,1.0001192092895508,0.0,0.0,0.0,-60.346187591552734,6.527187824249268,0.11339926719665527,10922.7802734375,0
1957.2880000000005,0.025441886857151985,-0.02757585607469082,-0.003783090505748987,0.0,0.0,0.0,0.0,-0.0007889588596299291,-0.0009308066801168025,-0.00048541967407800257,1.000713586807251,0.0,0.0,0.0,-60.28889465332031,6.517311096191406,0.11022550612688065,10912.4091796875,0
1967.155999999999,0.02545999363064766,-0.02745193801820278,-0.0036700714845210314,0.0,0.0,0.0,0.0,0.0027163235936313868,-0.0022223598789423704,0.001999512081965804,1.0018869638442993,0.0,0.0,0.0,-60.472415924072266,6.554559707641602,0.05091303214430809,10945.6279296875,0
1977.054,0.02569923922419548,-0.026229962706565857,-0.003956075292080641,0.0,0.0,0.0,0.0,0.0009113840642385185,0.0020459003280848265,-0.0012611430138349533,0.9998801946640015,0.0,0.0,0.0,-60.52079391479492,6.730519771575928,-0.1994682103395462,10954.384765625,0
1986.9259999999995,0.025681184604763985,-0.026256045326590538,-0.003959386143833399,0.0,0.0,0.0,0.0,-0.0006240996881388128,0.007012853864580393,-0.004065114073455334,0.9990825057029724,0.0,0.0,0.0,-60.46322250366211,6.721460342407227,-0.20420965552330017,10943.9638671875,0
1996.821,0.025638867169618607,-0.02563047595322132,-0.0033635105937719345,0.0,0.0,0.0,0.0,-0.0002957741089630872,0.0005408662254922092,-0.0006141774356365204,0.9998416304588318,0.0,0.0,0.0,-60.50548553466797,6.796507358551025,-0.4008170962333679,10951.6142578125,0
2006.696,0.025622140616178513,-0.02562112547457218,-0.003323711222037673,0.0,0.0,0.0,0.0,-0.0005563362501561642,-0.0016657765954732895,-0.003892175853252411,0.9991970658302307,0.0,0.0,0.0,-60.447750091552734,6.788804531097412,-0.39858272671699524,10941.1630859375,0
2016.5900000000001,0.02555953711271286,-0.025042211636900902,-0.0027339414227753878,0.0,0.0,0.0,0.0,-0.0012179757468402386,-0.0011644245823845267,0.0025748913176357746,1.0007871389389038,0.0,0.0,0.0,-60.487545013427734,6.8402509689331055,-0.5410427451133728,10948.3662109375,0
2026.4670000000006,0.025662900879979134,-0.02567075751721859,-0.003000337863340974,0.0,0.0,0.0,0.0,0.0004861761990468949,0.005518163554370403,-0.0021059722639620304,1.0008121728897095,0.0,0.0,0.0,-60.63258361816406,6.8354268074035645,-0.38654300570487976,10974.619140625,0
2036.3640000000014,0.02567717805504799,-0.02510014735162258,-0.002611773321405053,0.0,0.0,0.0,0.0,0.003183069871738553,0.005361183546483517,0.0037639057263731956,1.0006840229034424,0.0,0.0,0.0,-60.654659271240234,6.878375053405762,-0.48714151978492737,10978.61328125,0
2046.237000000001,0.02569282427430153,-0.025671595707535744,-0.002881394000723958,0.0,0.0,0.0,0.0,0.0005371695151552558,0.001283123972825706,-0.0058571468107402325,1.001478672027588,0.0,0.0,0.0,-60.78107833862305,6.842890739440918,-0.4125462472438812,11001.4951171875,0
2056.1320000000014,0.025696612894535065,-0.02510860748589039,-0.002525637624785304,0.0,0.0,0.0,0.0,-0.0022719763219356537,-0.007016959600150585,-0.0001787535729818046,1.0006029605865479,0.0,0.0,0.0,-60.803043365478516,6.872478008270264,-0.49923571944236755,11005.4716796875,0
2066.0080000000016,0.02570854313671589,-0.025676099583506584,-0.00279232207685709,0.0,0.0,0.0,0.0,0.004280377179384232,0.004942120984196663,-0.0017253272235393524,0.9994505643844604,0.0,0.0,0.0,-60.912811279296875,6.85444450378418,-0.422770231962204,11025.33984375,0
2075.902000000002,0.025702372193336487,-0.02565622888505459,-0.0027394613716751337,0.0,0.0,0.0,0.0,0.0034215610940009356,5.599920041277073e-05,0.003202116582542658,0.9995242953300476,0.0,0.0,0.0,-60.8543815612793,6.841897010803223,-0.43853676319122314,11014.7646484375,0
2085.7790000000023,0.025564266368746758,-0.026029037311673164,-0.002973048249259591,0.0,0.0,0.0,0.0,0.00041778915328904986,0.0006798651884309947,-8.795973553787917e-05,0.9985377192497253,0.0,0.0,0.0,-60.9683952331543,6.80851936340332,-0.3834078907966614,11035.400390625,0
2095.678,0.0255552027374506,-0.02602342702448368,-0.0029422331135720015,0.0,0.0,0.0,0.0,0.0003531553375069052,-0.006468724459409714,0.002394314156845212,0.999905526638031,0.0,0.0,0.0,-60.91019058227539,6.808285713195801,-0.3821195662021637,11024.865234375,0
2105.554,0.02554432675242424,-0.026018241420388222,-0.0029117215890437365,0.0,0.0,0.0,0.0,-0.0013351138914003968,-0.004349660128355026,0.002520224777981639,1.0017966032028198,0.0,0.0,0.0,-60.85197067260742,6.804899215698242,-0.3670758903026581,11014.3291015625,0
2115.446,0.0256457831710577,-0.02531498111784458,-0.002596927108243108,0.0,0.0,0.0,0.0,-0.001201085513457656,-0.0030350335873663425,0.0016837377334013581,1.0009779930114746,0.0,0.0,0.0,-60.87119674682617,6.894298076629639,-0.506658673286438,11017.80859375,0
2125.3290000000015,0.025574231520295143,-0.025797341018915176,-0.0029389180708676577,0.0,0.0,0.0,0.0,-0.005498614627867937,-0.002940986305475235,0.0032682728487998247,0.9993950128555298,0.0,0.0,0.0,-60.98275375366211,6.863674163818359,-0.39897483587265015,11038.0,0
2135.224000000002,0.02559562399983406,-0.02520144358277321,-0.002598474733531475,0.0,0.0,0.0,0.0,-0.002745895180851221,0.00046931300312280655,0.0034094129223376513,0.999547004699707,0.0,0.0,0.0,-60.98101806640625,6.919471740722656,-0.4963351786136627,11037.685546875,0
2145.0970000000016,0.025530649349093437,-0.02568877674639225,-0.002887704176828265,0.0,0.0,0.0,0.0,-0.0010222094133496284,0.003476844634860754,0.0002103583829011768,0.9977094531059265,0.0,0.0,0.0,-61.07709884643555,6.889045238494873,-0.41281723976135254,11055.0771484375,0
2154.9890000000014,0.02551850490272045,-0.02566603012382984,-0.0028638141229748726,0.0,0.0,0.0,0.0,-0.0017805841052904725,0.00022648018784821033,0.003999988082796335,0.9982694387435913,0.0,0.0,0.0,-61.018829345703125,6.883951187133789,-0.41606369614601135,11044.5302734375,0
2164.870999999999,0.025514457374811172,-0.02603098191320896,-0.0031009623780846596,0.0,0.0,0.0,0.0,-0.0028104553930461407,-0.0015140436589717865,-0.003670433769002557,0.999468982219696,0.0,0.0,0.0,-61.11311340332031,6.862955570220947,-0.33739131689071655,11061.5947265625,0
2174.7570000000014,0.02558927796781063,-0.025376098230481148,-0.0028694793581962585,0.0,0.0,0.0,0.0,0.0012186862295493484,0.004241069313138723,-0.0016378076979890466,1.0003875494003296,0.0,0.0,0.0,-61.112117767333984,6.933380126953125,-0.4491095244884491,11061.4150390625,0
2184.6399999999994,0.025586599484086037,-0.025828892365098,-0.003124858485534787,0.0,0.0,0.0,0.0,-0.00045628001680597663,0.0020592142827808857,-0.0009569869143888354,0.9985603094100952,0.0,0.0,0.0,-61.20171356201172,6.904062271118164,-0.3748632073402405,11077.630859375,0
2194.5240000000013,0.025598252192139626,-0.025220729410648346,-0.0028339833952486515,0.0,0.0,0.0,0.0,-0.003619216149672866,0.0024361389223486185,0.0041856057941913605,0.9990518689155579,0.0,0.0,0.0,-61.19308853149414,6.944026470184326,-0.4755478799343109,11076.0703125,0
2204.416000000001,0.025611815974116325,-0.025721946731209755,-0.0031083920039236546,0.0,0.0,0.0,0.0,-0.0012703100219368935,-0.001083427108824253,0.0004641874402295798,0.9985111951828003,0.0,0.0,0.0,-61.268741607666016,6.92669677734375,-0.3945408761501312,11089.763671875,0
2214.2940000000017,0.02563026361167431,-0.025126894935965538,-0.0028352756053209305,0.0,0.0,0.0,0.0,-0.002055645687505603,-0.0020974886137992144,0.0008208925719372928,1.0001356601715088,0.0,0.0,0.0,-61.25592041015625,6.969878196716309,-0.47560665011405945,11087.4423828125,0
2224.1860000000015,0.02562270499765873,-0.02508595399558544,-0.0028161511290818453,0.0,0.0,0.0,0.0,-0.002800684655085206,-0.0075415256433188915,0.0016698598628863692,1.0001755952835083,0.0,0.0,0.0,-61.19718551635742,6.968673229217529,-0.47105586528778076,11076.8115234375,0
2234.0699999999997,0.025532865896821022,-0.024598201736807823,-0.0024101382587105036,0.0,0.0,0.0,0.0,-0.0016246297163888812,0.0016438182210549712,0.0009194547892548144,1.0009342432022095,0.0,0.0,0.0,-61.184242248535156,6.992344379425049,-0.5524146556854248,11074.46875,0
2243.9550000000017,0.025736713781952858,-0.02531389892101288,-0.0027476330287754536,0.0,0.0,0.0,0.0,0.0004152445762883872,0.0014461898244917393,0.001328599639236927,0.9998137950897217,0.0,0.0,0.0,-61.24728775024414,6.985237121582031,-0.39965811371803284,11085.8798828125,0
2253.8379999999997,0.0257196556776762,-0.024814005941152573,-0.002431051339954138,0.0,0.0,0.0,0.0,0.0005633594118990004,-0.0017748036189004779,0.0008248985977843404,0.9972760677337646,0.0,0.0,0.0,-61.22734069824219,7.0130486488342285,-0.47766947746276855,11082.26953125,0
2263.725000000002,0.025782810524106026,-0.025471655651926994,-0.0027995039708912373,0.0,0.0,0.0,0.0,0.0043663387186825275,0.00665265554562211,0.0007577069336548448,0.9971180558204651,0.0,0.0,0.0,-61.30238723754883,6.9798712730407715,-0.35661107301712036,11095.8544921875,0
2273.6059999999998,0.02578860893845558,-0.025446541607379913,-0.002791195409372449,0.0,0.0,0.0,0.0,0.0019096441101282835,0.0035604937002062798,-0.0021095508709549904,0.9988635182380676,0.0,0.0,0.0,-61.243125915527344,6.9648590087890625,-0.36651411652565,11085.126953125,0
