timestamp,stateEstimate.x,stateEstimate.y,stateEstimate.z,controller.cmd_thrust,controller.cmd_roll,controller.cmd_pitch,controller.cmd_yaw,controller.r_roll,controller.r_pitch,controller.r_yaw,controller.accelz,controller.actuatorThrust,controller.roll,controller.pitch,controller.yaw,controller.rollRate,controller.pitchRate,controller.yawRate,controller.ctr_yaw
0.0,-0.008663424290716648,0.001510964590124786,-0.00023815696476958692,0.0,0.0,0.0,0.0,-0.0032776615116745234,-0.0041093709878623486,0.0005361918010748923,0.9992799758911133,0.0,0.0,0.0,9.726607322692871,1.630774974822998,6.2481584548950195,-1760.53515625,0
9.926000000001295,-0.008673962205648422,0.0015203868970274925,-0.00020485975255724043,0.0,0.0,0.0,0.0,0.0020234647672623396,-0.0022628966253250837,-0.0010112951276823878,0.9997943043708801,0.0,0.0,0.0,9.735233306884766,1.6452480554580688,6.264810562133789,-1762.0965576171875,0
19.82600000000093,-0.008709409274160862,0.0015059513971209526,-0.00019268003234174103,0.0,0.0,0.0,0.0,0.0034881618339568377,-0.0028550662100315094,-0.0015176815213635564,1.0004938840866089,0.0,0.0,0.0,9.725180625915527,1.6478948593139648,6.258120059967041,-1760.27685546875,0
29.73999999999978,-0.008703821338713169,0.0015120379393920302,-0.00015122690820135176,0.0,0.0,0.0,0.0,4.0672559407539666e-05,-0.0018366376170888543,-0.0014283184427767992,1.0003734827041626,0.0,0.0,0.0,9.730711936950684,1.6425656080245972,6.270725250244141,-1761.2781982421875,0
39.655000000000655,-0.008739209733903408,0.0014981972053647041,-0.00013572475290857255,0.0,0.0,0.0,0.0,-0.0009323446429334581,-0.0004190777544863522,0.002660400466993451,0.9991565942764282,0.0,0.0,0.0,9.72134017944336,1.6420626640319824,6.275485992431641,-1759.5819091796875,0
49.57500000000073,-0.008776123635470867,0.0014837683411315084,-0.00011976322275586426,0.0,0.0,0.0,0.0,-0.005316304508596659,-0.0029690947849303484,0.0014389927964657545,0.9995366334915161,0.0,0.0,0.0,9.71167278289795,1.6344318389892578,6.276125431060791,-1757.83203125,0
59.47199999999975,-0.00885629840195179,0.0014531501801684499,-8.786484249867499e-05,0.0,0.0,0.0,0.0,0.00041467821574769914,-0.001715398277156055,-0.0010334876133129,1.0005700588226318,0.0,0.0,0.0,9.692951202392578,1.638176679611206,6.271308898925781,-1754.443603515625,0
69.39199999999983,-0.00885629840195179,0.0014531501801684499,-8.786484249867499e-05,0.0,0.0,0.0,0.0,0.0012434064410626888,0.00036373233888298273,0.002925469074398279,1.0006662607192993,0.0,0.0,0.0,9.692951202392578,1.638176679611206,6.271308898925781,-1754.443603515625,0
79.28900000000067,-0.008939847350120544,0.001422639237716794,-5.467058508656919e-05,0.0,0.0,0.0,0.0,-0.0005872286856174469,0.0013863297645002604,-0.0012664569076150656,1.0006836652755737,0.0,0.0,0.0,9.671880722045898,1.635981559753418,6.2647833824157715,-1750.6295166015625,0
89.21399999999994,-0.008939847350120544,0.001422639237716794,-5.467058508656919e-05,0.0,0.0,0.0,0.0,-0.004387333523482084,-0.003009807551279664,0.002721368335187435,1.0016260147094727,0.0,0.0,0.0,9.671880722045898,1.635981559753418,6.2647833824157715,-1750.6295166015625,0
99.11200000000099,-0.009026161395013332,0.0013901758939027786,-1.760435407049954e-05,0.0,0.0,0.0,0.0,0.0026790383271872997,-0.0007697271648794413,0.000695768918376416,0.9997990131378174,0.0,0.0,0.0,9.654160499572754,1.6439464092254639,6.260217666625977,-1747.4222412109375,0
109.03800000000047,-0.009026161395013332,0.0013901758939027786,-1.760435407049954e-05,0.0,0.0,0.0,0.0,-0.0007158491062000394,0.0036769858561456203,0.0014475181233137846,1.0033981800079346,0.0,0.0,0.0,9.654160499572754,1.6439464092254639,6.260217666625977,-1747.4222412109375,0
118.93499999999949,-0.009075416252017021,0.0013722509611397982,4.624394932761788e-06,0.0,0.0,0.0,0.0,0.0009728545555844903,-0.0005440209060907364,-0.0016488879919052124,1.00213623046875,0.0,0.0,0.0,9.645232200622559,1.6348077058792114,6.2594122886657715,-1745.80615234375,0
128.86399999999958,-0.00881142821162939,0.0017651895759627223,-0.0007505554822273552,0.0,0.0,0.0,0.0,0.002490140963345766,-0.0017083983402699232,0.003039704170078039,1.0006269216537476,0.0,0.0,0.0,9.653558731079102,1.7134047746658325,6.330286026000977,-1747.3133544921875,0
138.75900000000001,-0.008844755589962006,0.0017684709746390581,-0.000754075066652149,0.0,0.0,0.0,0.0,-0.001073850435204804,0.000761877279728651,-0.004143979400396347,1.0006307363510132,0.0,0.0,0.0,9.64408016204834,1.7148851156234741,6.326587200164795,-1745.5977783203125,0
148.6790000000001,-0.008829090744256973,0.0018302827375009656,-0.0008696214645169675,0.0,0.0,0.0,0.0,0.0018571692053228617,-0.00239482126198709,-0.0015994847053661942,0.9997421503067017,0.0,0.0,0.0,9.670222282409668,1.7206673622131348,6.332021713256836,-1750.3294677734375,0
158.59000000000015,-0.00886205118149519,0.0018378224922344089,-0.0008765142410993576,0.0,0.0,0.0,0.0,-0.0016717237886041403,-0.0026204977184534073,0.00015495973639190197,0.9980946779251099,0.0,0.0,0.0,9.659625053405762,1.7232078313827515,6.328000068664551,-1748.411376953125,0
168.5069999999996,-0.0089031420648098,0.001820091623812914,-0.0008841501548886299,0.0,0.0,0.0,0.0,0.0020623705349862576,7.109159923857078e-05,-0.0020347675308585167,0.9975242614746094,0.0,0.0,0.0,9.662327766418457,1.7101751565933228,6.323202133178711,-1748.9005126953125,0
178.40400000000045,-0.008939646184444427,0.001826153020374477,-0.0008928348543122411,0.0,0.0,0.0,0.0,-0.0039259702898561954,-0.004552599508315325,-0.0014719029422849417,0.9980105757713318,0.0,0.0,0.0,9.65435791015625,1.713369369506836,6.319900035858154,-1747.4580078125,0
188.32400000000052,-0.008997035212814808,0.0018269876018166542,-0.0008570537902414799,0.0,0.0,0.0,0.0,-5.162888555787504e-05,0.0003591997374314815,0.002441646298393607,0.9988607168197632,0.0,0.0,0.0,9.670293807983398,1.713761329650879,6.304530143737793,-1750.34228515625,0
198.23300000000017,-0.009038068354129791,0.0018307450227439404,-0.0008662007749080658,0.0,0.0,0.0,0.0,-0.001002797274850309,0.00022275466471910477,-0.0010593653423711658,1.0001970529556274,0.0,0.0,0.0,9.659229278564453,1.7121626138687134,6.294295787811279,-1748.339599609375,0
208.14500000000044,-0.0090951481834054,0.0017897806828841567,-0.0008721939520910382,0.0,0.0,0.0,0.0,0.0015821518609300256,0.000916926481295377,-0.0007183144916780293,0.9990112781524658,0.0,0.0,0.0,9.678630828857422,1.6898508071899414,6.2746968269348145,-1751.8514404296875,0
218.0490000000009,-0.009139100089669228,0.0017891519237309694,-0.0008820146904326975,0.0,0.0,0.0,0.0,-0.0014121233252808452,-0.0029159660916775465,0.0025896879378706217,0.9970635771751404,0.0,0.0,0.0,9.66946792602539,1.6950303316116333,6.273509502410889,-1750.1929931640625,0
227.98099999999977,-0.00917727593332529,0.0018050208454951644,-0.000890042691025883,0.0,0.0,0.0,0.0,-0.00022941069619264454,-0.0018028098857030272,-0.0009546842193230987,0.999110758304596,0.0,0.0,0.0,9.679472923278809,1.6898454427719116,6.257636070251465,-1752.00390625,0
237.8780000000006,-0.00922317709773779,0.001801664475351572,-0.000902380037587136,0.0,0.0,0.0,0.0,-0.001986884279176593,-0.003267075400799513,8.021320536499843e-05,0.9995555877685547,0.0,0.0,0.0,9.670406341552734,1.6995919942855835,6.260944843292236,-1750.36279296875,0
247.8000000000011,-0.009270884096622467,0.001796907396055758,-0.000915741256903857,0.0,0.0,0.0,0.0,0.00012961954053025693,-0.0034556672908365726,0.0005878310184925795,0.9986218214035034,0.0,0.0,0.0,9.661014556884766,1.7046393156051636,6.256433963775635,-1748.6627197265625,0
257.7049999999999,-0.009319576434791088,0.0017914432100951672,-0.0009293449111282825,0.0,0.0,0.0,0.0,-0.0015578216407448053,0.0006806104211136699,-0.002660072175785899,1.0004414319992065,0.0,0.0,0.0,9.651268005371094,1.7044565677642822,6.253718376159668,-1746.898681640625,0
267.6190000000006,-0.009368868544697762,0.0017855394398793578,-0.0009434784878976643,0.0,0.0,0.0,0.0,0.00016409340605605394,7.172820915002376e-05,0.0007396909641101956,0.9997509121894836,0.0,0.0,0.0,9.641464233398438,1.7047441005706787,6.258123397827148,-1745.1241455078125,0
277.5169999999998,-0.008623355999588966,0.0016191917238757014,-0.00041935135959647596,0.0,0.0,0.0,0.0,-0.00028467897209338844,0.0015376602532342076,0.0004688547633122653,1.0007636547088623,0.0,0.0,0.0,9.657063484191895,1.651028037071228,6.421192646026611,-1747.94775390625,0
287.4359999999997,-0.008635015226900578,0.001604153192602098,-0.00041069751023314893,0.0,0.0,0.0,0.0,0.0005374476313591003,0.0005166977643966675,0.002876858925446868,0.9989948272705078,0.0,0.0,0.0,9.647679328918457,1.6478139162063599,6.409523010253906,-1746.2491455078125,0
297.35000000000036,-0.008556840941309929,0.0015665005194023252,-0.00038587028393521905,0.0,0.0,0.0,0.0,-0.0016637452645227313,0.0012779702665284276,-0.002272695768624544,0.9977826476097107,0.0,0.0,0.0,9.657569885253906,1.645207166671753,6.4098076820373535,-1748.039306640625,0
307.26500000000124,-0.008566238917410374,0.0015471240039914846,-0.0003772419295273721,0.0,0.0,0.0,0.0,-0.0005556322284974158,-4.510991493589245e-05,0.0013760029105469584,0.9968878626823425,0.0,0.0,0.0,9.648914337158203,1.6478313207626343,6.399538993835449,-1746.47265625,0
317.1710000000003,-0.008552739396691322,0.0015627755783498287,-0.0003515475837048143,0.0,0.0,0.0,0.0,-0.001585262012667954,-0.0010654411744326353,-0.002713229740038514,0.9982324838638306,0.0,0.0,0.0,9.663878440856934,1.6533175706863403,6.401283264160156,-1749.18115234375,0
327.08100000000013,-0.008564415387809277,0.0015398917021229863,-0.00034593945019878447,0.0,0.0,0.0,0.0,-0.003321775933727622,-0.0029109225142747164,-0.0019221812253817916,0.9996995329856873,0.0,0.0,0.0,9.654457092285156,1.6522562503814697,6.390079498291016,-1747.4759521484375,0
336.9850000000006,-0.0085546113550663,0.0015429831109941006,-0.00032376646413467824,0.0,0.0,0.0,0.0,-0.001438198727555573,-1.426635299139889e-05,0.0007267248583957553,1.000203013420105,0.0,0.0,0.0,9.667080879211426,1.6610569953918457,6.394637584686279,-1749.7607421875,0
346.90700000000106,-0.008567297831177711,0.0015165440272539854,-0.0003182699147146195,0.0,0.0,0.0,0.0,-0.0016575045883655548,-0.0040683443658053875,-0.004544075112789869,1.0003238916397095,0.0,0.0,0.0,9.657492637634277,1.6623189449310303,6.389811992645264,-1748.025390625,0
356.8099999999995,-0.00858685839921236,0.0015022781444713473,-0.0003039571165572852,0.0,0.0,0.0,0.0,-0.0005182017339393497,0.0014684210764244199,0.0003979351313319057,1.0003612041473389,0.0,0.0,0.0,9.677786827087402,1.6634562015533447,6.382453441619873,-1751.69873046875,0
366.728000000001,-0.008598946034908295,0.0014729477697983384,-0.00029697196441702545,0.0,0.0,0.0,0.0,0.0020743764471262693,0.0019013045821338892,-0.0027129671070724726,0.9988580942153931,0.0,0.0,0.0,9.66784954071045,1.664600133895874,6.375331401824951,-1749.89990234375,0
376.630000000001,-0.00859268382191658,0.0014879663940519094,-0.000251964433118701,0.0,0.0,0.0,0.0,-0.001114486251026392,0.004433417227119207,-0.00028733088402077556,0.9985489249229431,0.0,0.0,0.0,9.679841041564941,1.6705596446990967,6.373944282531738,-1752.0706787109375,0
386.5500000000011,-0.008605352602899075,0.0014581282157450914,-0.00024218694306910038,0.0,0.0,0.0,0.0,0.00019152283493895084,-0.001217541634105146,0.0001469698327127844,0.9996498823165894,0.0,0.0,0.0,9.669829368591309,1.6712899208068848,6.356924057006836,-1750.25830078125,0
396.4539999999997,-0.008634566329419613,0.0014545603189617395,-0.00021209049737080932,0.0,0.0,0.0,0.0,0.0010205981088802218,0.0024303942918777466,-0.0005056947702541947,1.0021510124206543,0.0,0.0,0.0,9.683534622192383,1.684498906135559,6.352514743804932,-1752.739013671875,0
406.3690000000006,-0.008648236282169819,0.0014246763894334435,-0.00020090449834242463,0.0,0.0,0.0,0.0,-0.0025632819160819054,0.0019475012086331844,-0.0009487371426075697,1.0000892877578735,0.0,0.0,0.0,9.673933029174805,1.6819623708724976,6.342480659484863,-1751.0010986328125,0
416.28300000000127,-0.008668668568134308,0.001423796289600432,-0.00016442849300801754,0.0,0.0,0.0,0.0,-0.0014335343148559332,-0.004633974749594927,-0.0009102702606469393,1.00114107131958,0.0,0.0,0.0,9.683414459228516,1.693132758140564,6.3402886390686035,-1752.71728515625,0
426.1900000000005,-0.008680176921188831,0.0013961263466626406,-0.00014932523481547832,0.0,0.0,0.0,0.0,-0.0008392841555178165,0.0008247923105955124,0.0007118324865587056,1.0007665157318115,0.0,0.0,0.0,9.672442436218262,1.695218563079834,6.332643032073975,-1750.7313232421875,0
436.1040000000012,-0.008691537193953991,0.0013678196119144559,-0.00013325328473001719,0.0,0.0,0.0,0.0,0.0005210110684856772,-0.002078646095469594,-0.0035092351026833057,1.0008790493011475,0.0,0.0,0.0,9.66331958770752,1.6964880228042603,6.330488681793213,-1749.080078125,0
446.01500000000124,-0.008704272098839283,0.0013397637521848083,-0.00011592736700549722,0.0,0.0,0.0,0.0,0.0019640496466308832,0.006329772993922234,-0.0029425928369164467,0.9982761144638062,0.0,0.0,0.0,9.652966499328613,1.6956660747528076,6.331908226013184,-1747.2061767578125,0
455.9279999999999,-0.008718675002455711,0.0013127439888194203,-9.833648800849915e-05,0.0,0.0,0.0,0.0,-0.0021387592423707247,-0.005025106016546488,0.0020963423885405064,1.0007693767547607,0.0,0.0,0.0,9.643094062805176,1.6901042461395264,6.315875053405762,-1745.419189453125,0
465.83799999999974,-0.008735709823668003,0.0012830619234591722,-7.913715671747923e-05,0.0,0.0,0.0,0.0,-0.0008199472795240581,-0.001729881390929222,0.0023030631709843874,0.9978838562965393,0.0,0.0,0.0,9.633106231689453,1.6884562969207764,6.315704822540283,-1743.611328125,0
475.7659999999996,-0.00874301977455616,0.0013250221963971853,1.958075154107064e-05,0.0,0.0,0.0,0.0,0.0009631229913793504,0.004571130499243736,-0.0026515224017202854,0.9993425607681274,0.0,0.0,0.0,9.64865493774414,1.715998888015747,6.318840503692627,-1746.42578125,0
485.6660000000011,-0.008505827747285366,0.0016159379156306386,-0.0006099660531617701,0.0,0.0,0.0,0.0,-0.0009778001112863421,-0.0008567571640014648,-0.003310827538371086,0.9999573230743408,0.0,0.0,0.0,9.664996147155762,1.7666823863983154,6.365691184997559,-1749.383544921875,0
495.5789999999997,-0.008479122072458267,0.0016137895872816443,-0.0006017896812409163,0.0,0.0,0.0,0.0,0.0035221311263740063,0.00038925703847780824,0.0005220843595452607,1.001008152961731,0.0,0.0,0.0,9.67453384399414,1.7652770280838013,6.3684492111206055,-1751.1099853515625,0
505.48099999999977,-0.008464658632874489,0.0016758021665737033,-0.0006134716095402837,0.0,0.0,0.0,0.0,-0.002044236520305276,0.0016442200867459178,-0.005202642176300287,0.9989219903945923,0.0,0.0,0.0,9.686500549316406,1.7715284824371338,6.3680644035339355,-1753.27587890625,0
515.398000000001,-0.00849379412829876,0.0017050979658961296,-0.0006134763243608177,0.0,0.0,0.0,0.0,0.0025105206295847893,-0.0089557571336627,0.0012343835551291704,0.99985671043396,0.0,0.0,0.0,9.69510269165039,1.7844223976135254,6.361663818359375,-1754.8330078125,0
525.3010000000013,-0.008495938964188099,0.001736984821036458,-0.0006119242170825601,0.0,0.0,0.0,0.0,4.2698669858509675e-05,-0.0008623790345154703,-0.0016561474185436964,0.9995014667510986,0.0,0.0,0.0,9.706866264343262,1.7784802913665771,6.375605583190918,-1756.962158203125,0
535.2209999999995,-0.008471784181892872,0.0017289401730522513,-0.0006127827218733728,0.0,0.0,0.0,0.0,0.0007899249321781099,-0.0016278799157589674,0.0011084683937951922,0.9980791807174683,0.0,0.0,0.0,9.71927547454834,1.7825231552124023,6.373403549194336,-1759.208251953125,0
545.1239999999998,-0.008459889329969883,0.0017203317256644368,-0.0006508257938548923,0.0,0.0,0.0,0.0,0.00011838409409392625,-0.0020673226099461317,0.0012642145156860352,0.9969534873962402,0.0,0.0,0.0,9.727363586425781,1.7812695503234863,6.370167255401611,-1760.672119140625,0
555.0439999999999,-0.0084583330899477,0.001722410088405013,-0.0006568337557837367,0.0,0.0,0.0,0.0,-0.00030915378010831773,-0.00282029970549047,0.0018608382670208812,0.9979567527770996,0.0,0.0,0.0,9.73518180847168,1.7801605463027954,6.371487140655518,-1762.08740234375,0
564.9470000000001,-0.0084864916279912,0.0017322300700470805,-0.0006357060046866536,0.0,0.0,0.0,0.0,-0.001990602118894458,-0.0017205470940098166,-0.0031669149175286293,0.9979254603385925,0.0,0.0,0.0,9.739911079406738,1.7842687368392944,6.374566078186035,-1762.9432373046875,0
574.8680000000004,-0.008474097587168217,0.001723571098409593,-0.0006418824195861816,0.0,0.0,0.0,0.0,0.0010834987042471766,-0.0010306437034159899,-0.0024436311796307564,1.0007864236831665,0.0,0.0,0.0,9.745697021484375,1.7896270751953125,6.373273849487305,-1763.990478515625,0
584.7810000000009,-0.008510778658092022,0.001694113714620471,-0.0006314225029200315,0.0,0.0,0.0,0.0,0.004021928645670414,-0.0027137112338095903,-0.004633924923837185,0.9991217851638794,0.0,0.0,0.0,9.755510330200195,1.7781665325164795,6.368812084197998,-1765.766845703125,0
594.6990000000005,-0.00848399754613638,0.0017016922356560826,-0.0006250309525057673,0.0,0.0,0.0,0.0,-0.0026961665134876966,0.0006605031667277217,0.0001742512540658936,0.9989047646522522,0.0,0.0,0.0,9.756816864013672,1.7726305723190308,6.365503311157227,-1766.0032958984375,0
604.5930000000008,-0.00851824227720499,0.001682266010902822,-0.0006146139930933714,0.0,0.0,0.0,0.0,-0.0008190633961930871,-0.002453950699418783,0.00019709227490238845,1.000681757926941,0.0,0.0,0.0,9.76378345489502,1.7779206037521362,6.354381084442139,-1767.26416015625,0
614.5280000000002,-0.008536743000149727,0.0017048496520146728,-0.0006141342455521226,0.0,0.0,0.0,0.0,0.0022294127847999334,-0.0008456982905045152,0.0003461525484453887,0.9996697902679443,0.0,0.0,0.0,9.762523651123047,1.773558497428894,6.350884437561035,-1767.0362548828125,0
624.4160000000011,-0.008558366447687149,0.0016931891441345215,-0.0006196697941049933,0.0,0.0,0.0,0.0,-0.004661840386688709,-0.0046495795249938965,-0.00010703269072109833,0.9966800212860107,0.0,0.0,0.0,9.772578239440918,1.7683442831039429,6.346419811248779,-1768.856201171875,0
634.3379999999997,-0.008508935570716858,0.0017002749955281615,-0.0006104025524109602,0.0,0.0,0.0,0.0,-0.001448052586056292,-0.0019175753695890307,0.0016120198415592313,0.9989281296730042,0.0,0.0,0.0,9.779553413391113,1.7729307413101196,6.344635486602783,-1770.11865234375,0
644.2399999999998,-0.00852942280471325,0.0016962685622274876,-0.0006181643111631274,0.0,0.0,0.0,0.0,-0.0027698534540832043,-0.0006934588309377432,-0.002216088119894266,1.0022958517074585,0.0,0.0,0.0,9.770622253417969,1.7743425369262695,6.350529670715332,-1768.502197265625,0
654.1760000000013,-0.008501274511218071,0.001712350407615304,-0.0006152421701699495,0.0,0.0,0.0,0.0,0.001585370278917253,-0.0031413822434842587,0.0033185717184096575,1.0025835037231445,0.0,0.0,0.0,9.774118423461914,1.781258463859558,6.350340366363525,-1769.1348876953125,0
664.0640000000003,-0.008506141602993011,0.0017063712002709508,-0.0005991958314552903,0.0,0.0,0.0,0.0,-0.0014500285033136606,0.0012991043040528893,0.0020656913984566927,0.9997619390487671,0.0,0.0,0.0,9.793187141418457,1.7685589790344238,6.352020263671875,-1772.5863037109375,0
673.982,-0.008530478924512863,0.001700119231827557,-0.0006002461886964738,0.0,0.0,0.0,0.0,-0.004477811045944691,-0.0006957750301808119,-0.0051339492201805115,0.9995517134666443,0.0,0.0,0.0,9.783116340637207,1.7685296535491943,6.34401273727417,-1770.7635498046875,0
683.8860000000004,-0.008480977267026901,0.0017492208862677217,-0.0005937317037023604,0.0,0.0,0.0,0.0,-0.00022448583331424743,0.00729900598526001,0.0001386757066939026,0.9992684125900269,0.0,0.0,0.0,9.799690246582031,1.7785905599594116,6.352042198181152,-1773.763427734375,0
693.8090000000011,-0.00850781798362732,0.0017422563396394253,-0.0005938579561188817,0.0,0.0,0.0,0.0,-0.0011658539297059178,-0.002630040515214205,-0.00016254745423793793,1.0000190734863281,0.0,0.0,0.0,9.790602684020996,1.77615487575531,6.3368120193481445,-1772.11865234375,0
703.7170000000006,-0.00849823746830225,0.0017133844085037708,-0.0005745944799855351,0.0,0.0,0.0,0.0,0.002224214840680361,0.0001580474927322939,0.0061929598450660706,1.000098466873169,0.0,0.0,0.0,9.806140899658203,1.7667073011398315,6.33152437210083,-1774.9310302734375,0
713.6270000000004,-0.008526853285729885,0.001703344751149416,-0.0005732029094360769,0.0,0.0,0.0,0.0,0.0010290921200066805,0.0007322423625737429,0.0006430626381188631,0.9996234774589539,0.0,0.0,0.0,9.797633171081543,1.7608815431594849,6.3229289054870605,-1773.39111328125,0
723.5330000000013,-0.00849900208413601,0.0016673402860760689,-0.0005701681366190314,0.0,0.0,0.0,0.0,-0.0006819669506512582,0.0005909843603149056,0.0016715812962502241,0.9977735280990601,0.0,0.0,0.0,9.811952590942383,1.7505414485931396,6.311732769012451,-1775.98291015625,0
733.4580000000005,-0.008528677746653557,0.0016538555501028895,-0.0005692402482964098,0.0,0.0,0.0,0.0,0.0013935772003605962,-0.002942659892141819,-0.00047356230788864195,0.997929573059082,0.0,0.0,0.0,9.802236557006836,1.7539424896240234,6.30126953125,-1774.2244873046875,0
743.3590000000004,-0.008492579683661461,0.0017071276670321822,-0.0005705362418666482,0.0,0.0,0.0,0.0,-0.0009336567600257695,0.0018241058569401503,-0.0008896525832824409,0.999962329864502,0.0,0.0,0.0,9.815145492553711,1.7583541870117188,6.301502704620361,-1776.5609130859375,0
753.2830000000013,-0.008523872122168541,0.0016924268566071987,-0.0005722013884223998,0.0,0.0,0.0,0.0,0.0005500516854226589,0.00013829591625835747,-0.0015407484024763107,0.9994248151779175,0.0,0.0,0.0,9.806144714355469,1.7584433555603027,6.290949821472168,-1774.931884765625,0
763.1750000000011,-0.008476600050926208,0.0017282667104154825,-0.0005782266380265355,0.0,0.0,0.0,0.0,-0.0017528784228488803,0.0008542586583644152,0.0033664933871477842,0.9984654188156128,0.0,0.0,0.0,9.816689491271973,1.759558081626892,6.287997245788574,-1776.8404541015625,0
773.0959999999995,-0.008507381193339825,0.001713576726615429,-0.0005808837013319135,0.0,0.0,0.0,0.0,0.0005110285710543394,-0.0013675622176378965,-0.0008072881610132754,1.0007133483886719,0.0,0.0,0.0,9.808024406433105,1.7637580633163452,6.290045738220215,-1775.2720947265625,0
782.9979999999996,-0.008427430875599384,0.0017472866456955671,-0.0006351122865453362,0.0,0.0,0.0,0.0,-0.0004416468436829746,-0.0013730512000620365,0.0025104701053351164,1.000555396080017,0.0,0.0,0.0,9.819931030273438,1.7624502182006836,6.299122333526611,-1777.427001953125,0
792.9340000000011,-0.008456774055957794,0.0017308879178017378,-0.0006414406234398484,0.0,0.0,0.0,0.0,-0.0016760810976848006,0.0025616511702537537,0.0008607017807662487,0.999167263507843,0.0,0.0,0.0,9.81180477142334,1.760687232017517,6.294869422912598,-1775.956298828125,0
802.8270000000011,-0.008466529659926891,0.0016974364407360554,-0.0006129590328782797,0.0,0.0,0.0,0.0,0.001086559146642685,0.0004120894300285727,-0.0008381748339161277,1.0007768869400024,0.0,0.0,0.0,9.82777214050293,1.7565900087356567,6.283036231994629,-1778.8463134765625,0
812.7399999999998,-0.00849978532642126,0.001676982268691063,-0.000616526638623327,0.0,0.0,0.0,0.0,-0.0006279927329160273,-0.0021804876159876585,-0.000586342706810683,0.9991049766540527,0.0,0.0,0.0,9.816052436828613,1.7557696104049683,6.275853633880615,-1776.72509765625,0
822.648000000001,-0.008408351801335812,0.0016541752265766263,-0.000577489729039371,0.0,0.0,0.0,0.0,0.002053195843473077,0.0031620280351489782,0.0006350537878461182,0.9999520182609558,0.0,0.0,0.0,9.829102516174316,1.7546401023864746,6.2924628257751465,-1779.0870361328125,0
832.5740000000005,-0.008440421894192696,0.001634435961022973,-0.0005776769830845296,0.0,0.0,0.0,0.0,-0.0012166904052719474,0.005005889106541872,0.0009674894972704351,1.0002260208129883,0.0,0.0,0.0,9.819841384887695,1.755344271659851,6.2678351402282715,-1777.410888671875,0
842.4680000000008,-0.00849235337227583,0.0016380472807213664,-0.0005127487820573151,0.0,0.0,0.0,0.0,0.0037444245535880327,0.0027872901409864426,0.001159681472927332,0.9999393224716187,0.0,0.0,0.0,9.834238052368164,1.7587841749191284,6.250253677368164,-1780.0164794921875,0
852.3860000000004,-0.008527924306690693,0.0016181949758902192,-0.0005076809320598841,0.0,0.0,0.0,0.0,0.0017776830354705453,-0.0039022855926305056,0.003885779296979308,0.9989741444587708,0.0,0.0,0.0,9.825090408325195,1.746570110321045,6.23468017578125,-1778.3609619140625,0
862.2900000000009,-0.008481413125991821,0.001561649958603084,-0.00045553711242973804,0.0,0.0,0.0,0.0,-0.0004131272144149989,0.0008954457589425147,-0.0009649388957768679,0.999525785446167,0.0,0.0,0.0,9.842473983764648,1.7337483167648315,6.246622562408447,-1781.50732421875,0
872.2119999999995,-0.008517644368112087,0.0015395720256492496,-0.00044747465290129185,0.0,0.0,0.0,0.0,0.0031385666225105524,0.003857978153973818,0.00046910616219975054,1.0010032653808594,0.0,0.0,0.0,9.832599639892578,1.737863302230835,6.235699653625488,-1779.72021484375,0
882.112000000001,-0.008509868755936623,0.001640235772356391,-0.0005044852150604129,0.0,0.0,0.0,0.0,-0.003334806067869067,-0.002919577993452549,0.00033004858414642513,1.0033154487609863,0.0,0.0,0.0,9.846138000488281,1.7473856210708618,6.229693412780762,-1782.1705322265625,0
892.0300000000007,-0.008549169637262821,0.0016233933856710792,-0.0004994372720830142,0.0,0.0,0.0,0.0,-0.0008642232860438526,-0.0030269259586930275,0.00013362108438741416,1.0012242794036865,0.0,0.0,0.0,9.835761070251465,1.7489628791809082,6.221532821655273,-1780.292236328125,0
901.9340000000011,-0.008519532158970833,0.0016698794206604362,-0.0005064651486463845,0.0,0.0,0.0,0.0,-0.002252488862723112,-0.00030823342967778444,-0.0015177109744399786,1.0009534358978271,0.0,0.0,0.0,9.83545207977295,1.7551424503326416,6.22658109664917,-1780.236328125,0
911.862000000001,-0.008562872186303139,0.001655209343880415,-0.0004982372629456222,0.0,0.0,0.0,0.0,-0.0006354574579745531,-0.00018507805361878127,0.00017030521121341735,1.0020400285720825,0.0,0.0,0.0,9.825560569763184,1.7568042278289795,6.22654390335083,-1778.446044921875,0
921.7579999999998,-0.00851009227335453,0.0016740653663873672,-0.0005319627816788852,0.0,0.0,0.0,0.0,-0.0006452834932133555,-0.00013703678268939257,-0.00023421527293976396,1.0021954774856567,0.0,0.0,0.0,9.828187942504883,1.7517895698547363,6.214041233062744,-1778.9215087890625,0
931.6869999999999,-0.008553244173526764,0.0016606914578005672,-0.0005233033443801105,0.0,0.0,0.0,0.0,0.001599433133378625,-0.0007974031614139676,-0.0005353938322514296,0.999853253364563,0.0,0.0,0.0,9.819194793701172,1.7604892253875732,6.215420246124268,-1777.2938232421875,0
941.5920000000006,-0.008503000251948833,0.0016824236372485757,-0.0005134132225066423,0.0,0.0,0.0,0.0,-0.0019276714883744717,0.005333444103598595,-0.00020519905956462026,1.0022547245025635,0.0,0.0,0.0,9.834090232849121,1.755158543586731,6.2156219482421875,-1779.9898681640625,0
951.4989999999998,-0.00854418147355318,0.0016703314613550901,-0.0005017180810682476,0.0,0.0,0.0,0.0,-0.0010387671645730734,-0.0038808989338576794,0.001742725376971066,0.9998050332069397,0.0,0.0,0.0,9.824490547180176,1.7618464231491089,6.207233905792236,-1778.2523193359375,0
961.402,-0.008573581464588642,0.0016452205600216985,-0.0005347637925297022,0.0,0.0,0.0,0.0,-0.0008362455992028117,-0.0012174284784123302,-0.0006857654661871493,0.999113917350769,0.0,0.0,0.0,9.827831268310547,1.7617268562316895,6.200416564941406,-1778.8570556640625,0
971.3250000000007,-0.008618760854005814,0.0016312811058014631,-0.0005247311200946569,0.0,0.0,0.0,0.0,-0.0007521813386119902,0.0009623975493013859,-0.0029268169309943914,0.9991726875305176,0.0,0.0,0.0,9.818765640258789,1.7600926160812378,6.1981964111328125,-1777.2161865234375,0
981.2260000000006,-0.00853376742452383,0.001664804876782,-0.0005245102220214903,0.0,0.0,0.0,0.0,0.002542063593864441,0.0008027799776755273,0.0023042657412588596,0.9988295435905457,0.0,0.0,0.0,9.831334114074707,1.7638754844665527,6.202678203582764,-1779.4910888671875,0
991.1440000000002,-0.008579936809837818,0.0016519486671313643,-0.0005163413588888943,0.0,0.0,0.0,0.0,0.0010084060486406088,-0.00755113922059536,-5.188923023524694e-05,0.9980670809745789,0.0,0.0,0.0,9.82123851776123,1.7572622299194336,6.196511268615723,-1777.6636962890625,0
1001.0500000000011,-0.008531586267054081,0.001696076593361795,-0.0005418690852820873,0.0,0.0,0.0,0.0,0.0027165738865733147,0.0017150264466181397,-0.0025724840816110373,1.000487208366394,0.0,0.0,0.0,9.831027030944824,1.7631652355194092,6.205090045928955,-1779.4354248046875,0
1010.9740000000002,-0.008578786626458168,0.0016849641688168049,-0.0005375599139370024,0.0,0.0,0.0,0.0,-0.0021858136169612408,-0.0017325892113149166,-0.0004408156091812998,1.0008419752120972,0.0,0.0,0.0,9.82058334350586,1.7609807252883911,6.196344375610352,-1777.545166015625,0
1020.8770000000004,-0.008491083048284054,0.001695483224466443,-0.0005921569536440074,0.0,0.0,0.0,0.0,-0.0011718333698809147,-0.0021934909746050835,-0.0015391800552606583,0.9995136857032776,0.0,0.0,0.0,9.834756851196289,1.7656620740890503,6.212663650512695,-1780.110595703125,0
1030.7920000000013,-0.008537966758012772,0.001682797446846962,-0.0005906682345084846,0.0,0.0,0.0,0.0,0.0007059905910864472,-0.001613464904949069,-0.0028209462761878967,0.9990026354789734,0.0,0.0,0.0,9.82565975189209,1.77000093460083,6.2103495597839355,-1778.4639892578125,0
1040.6930000000011,-0.008400165475904942,0.001658077584579587,-0.0005814333562739193,0.0,0.0,0.0,0.0,-0.0005674383719451725,0.00010424587526358664,-0.001169999479316175,1.0007123947143555,0.0,0.0,0.0,9.842012405395508,1.7602640390396118,6.227932453155518,-1781.423828125,0
1050.6239999999998,-0.008442094549536705,0.0016443487256765366,-0.0005796094192191958,0.0,0.0,0.0,0.0,9.210516873281449e-05,-0.0032822571229189634,0.0032663585152477026,1.0000942945480347,0.0,0.0,0.0,9.831944465637207,1.7655870914459229,6.221669673919678,-1779.6015625,0
1060.5159999999996,-0.008467264473438263,0.0016565725672990084,-0.00056665507145226,0.0,0.0,0.0,0.0,-0.003293269081041217,-0.0022582816891372204,0.002340765669941902,1.0000354051589966,0.0,0.0,0.0,9.8453950881958,1.7649585008621216,6.220930576324463,-1782.0360107421875,0
1070.4410000000007,-0.00851118378341198,0.0016424974892288446,-0.0005632888642139733,0.0,0.0,0.0,0.0,0.0031486519146710634,0.0013311305083334446,-0.004031478893011808,1.001287579536438,0.0,0.0,0.0,9.836236953735352,1.7671705484390259,6.210654258728027,-1780.37841796875,0
1080.3500000000004,-0.008475801907479763,0.0016898871399462223,-0.0005818222998641431,0.0,0.0,0.0,0.0,0.0020589428022503853,0.0022425614297389984,-0.00011356471077306196,0.9996054172515869,0.0,0.0,0.0,9.844018936157227,1.7729249000549316,6.216831684112549,-1781.7869873046875,0
1090.2600000000002,-0.008522015064954758,0.0016754113603383303,-0.0005779434577561915,0.0,0.0,0.0,0.0,0.001530728186480701,-0.0035944231785833836,0.003070083912461996,0.9992769956588745,0.0,0.0,0.0,9.833640098571777,1.7699214220046997,6.213491439819336,-1779.908447265625,0
1100.17,-0.008502082899212837,0.0016719428822398186,-0.0005650212988257408,0.0,0.0,0.0,0.0,-0.002583977999165654,-0.0027173617854714394,0.0013114491011947393,0.9994545578956604,0.0,0.0,0.0,9.84562873840332,1.7683662176132202,6.223618984222412,-1782.0782470703125,0
1110.094000000001,-0.008570096455514431,0.0016386056086048484,-0.0005357643822208047,0.0,0.0,0.0,0.0,0.0005522472783923149,0.004233421757817268,-0.003218873869627714,0.9993801712989807,0.0,0.0,0.0,9.846940994262695,1.7674853801727295,6.219293594360352,-1782.31591796875,0
1119.9860000000008,-0.008516213856637478,0.0016072702128440142,-0.0005113749648444355,0.0,0.0,0.0,0.0,0.0026082112453877926,-0.0023670769296586514,-0.003160577965900302,0.998593807220459,0.0,0.0,0.0,9.846090316772461,1.7587393522262573,6.216677188873291,-1782.161865234375,0
1129.9089999999997,-0.008527230471372604,0.0016348586650565267,-0.0005356904584914446,0.0,0.0,0.0,0.0,-0.0039407117292284966,0.0006141785415820777,0.002068200847133994,0.9993631839752197,0.0,0.0,0.0,9.840991020202637,1.7695949077606201,6.219664573669434,-1781.23876953125,0
1139.8099999999995,-0.008512082509696484,0.001614000299014151,-0.0005169106880202889,0.0,0.0,0.0,0.0,0.0012870958307757974,-0.0004812677507288754,0.0024653649888932705,0.999995231628418,0.0,0.0,0.0,9.837499618530273,1.764732003211975,6.233351230621338,-1780.60693359375,0
1149.7309999999998,-0.008556488901376724,0.0016219120007008314,-0.0005037296214140952,0.0,0.0,0.0,0.0,0.0007277695112861693,-0.0008302017813548446,0.0010882322676479816,0.9995760917663574,0.0,0.0,0.0,9.839542388916016,1.7641407251358032,6.230480670928955,-1780.9766845703125,0
1159.6440000000002,-0.00853386614471674,0.001627277466468513,-0.00047815972357057035,0.0,0.0,0.0,0.0,-5.342691656551324e-05,-0.002608094597235322,0.0031098348554223776,0.9984110593795776,0.0,0.0,0.0,9.843093872070312,1.7559150457382202,6.235453128814697,-1781.61962890625,0
1169.5570000000007,-0.008576123975217342,0.0016211912734434009,-0.0004708272754214704,0.0,0.0,0.0,0.0,-0.0005481990519911051,-0.003348126308992505,0.002904736204072833,0.99826979637146,0.0,0.0,0.0,9.842283248901367,1.7541542053222656,6.238745212554932,-1781.472900390625,0
1179.4610000000011,-0.00854531954973936,0.0016190723981708288,-0.00044487175182439387,0.0,0.0,0.0,0.0,0.0017167942132800817,0.0013014827854931355,0.0016135029727593064,0.9986242055892944,0.0,0.0,0.0,9.845457077026367,1.747281789779663,6.242058277130127,-1782.04736328125,0
1189.375,-0.0085221529006958,0.001695411978289485,-0.0004956081975251436,0.0,0.0,0.0,0.0,-0.0015537176514044404,-0.0008182281744666398,0.0013215222861617804,0.9989510774612427,0.0,0.0,0.0,9.844935417175293,1.7619190216064453,6.243772506713867,-1781.9527587890625,0
1199.2790000000005,-0.008504780009388924,0.0016752248629927635,-0.00048711791168898344,0.0,0.0,0.0,0.0,-0.0011406239354982972,0.0018511222442612052,-0.0031804870814085007,0.998224675655365,0.0,0.0,0.0,9.846649169921875,1.7602784633636475,6.2421488761901855,-1782.2630615234375,0
1209.2060000000001,-0.008517277427017689,0.0016810779925435781,-0.0005183335160836577,0.0,0.0,0.0,0.0,-0.0008697118610143661,-0.003543929196894169,-0.0026943928096443415,0.9988027811050415,0.0,0.0,0.0,9.846457481384277,1.7611137628555298,6.238468170166016,-1782.2283935546875,0
1219.0990000000002,-0.00849989429116249,0.0016716236714273691,-0.0005079001421108842,0.0,0.0,0.0,0.0,-0.0035888368729501963,-0.004667684435844421,-0.0010734270326793194,1.0003981590270996,0.0,0.0,0.0,9.846261024475098,1.7621749639511108,6.237040996551514,-1782.1927490234375,0
1229.0210000000006,-0.008523560129106045,0.001670211087912321,-0.0005312372813932598,0.0,0.0,0.0,0.0,0.0008162559242919087,0.0019490959821268916,-0.0042111496441066265,1.0012471675872803,0.0,0.0,0.0,9.835553169250488,1.7616101503372192,6.242574214935303,-1780.254638671875,0
1238.9220000000005,-0.00850524753332138,0.0016596447676420212,-0.0005225880304351449,0.0,0.0,0.0,0.0,0.0016219908138737082,-0.0016677853418514132,0.0015423133736476302,1.0007023811340332,0.0,0.0,0.0,9.83945369720459,1.7649911642074585,6.2425665855407715,-1780.960693359375,0
1248.857,-0.008467285893857479,0.001727086491882801,-0.0006039353320375085,0.0,0.0,0.0,0.0,-0.0001638436660869047,0.0027154372073709965,-0.0025954993907362223,1.000885009765625,0.0,0.0,0.0,9.841662406921387,1.777675747871399,6.25150203704834,-1781.3604736328125,0
1258.746000000001,-0.008462660945951939,0.0017105722799897194,-0.0006085221539251506,0.0,0.0,0.0,0.0,0.003456373931840062,-0.0016210308531299233,-0.0013340068981051445,1.00083327293396,0.0,0.0,0.0,9.842856407165527,1.7691185474395752,6.2446088790893555,-1781.576416015625,0
1268.6640000000007,-0.008507640101015568,0.0016948780976235867,-0.0006104696076363325,0.0,0.0,0.0,0.0,-0.0038018187042325735,-0.0021757695358246565,0.002492825500667095,1.0012623071670532,0.0,0.0,0.0,9.8328218460083,1.7669562101364136,6.237961292266846,-1779.76025390625,0
1278.567000000001,-0.008472942747175694,0.0016572180902585387,-0.0006052203825674951,0.0,0.0,0.0,0.0,0.0009808021131902933,-0.0009957518195733428,0.0003122962370980531,0.9991287589073181,0.0,0.0,0.0,9.82966136932373,1.7689083814620972,6.250216960906982,-1779.1883544921875,0
1288.4930000000004,-0.00850613508373499,0.0016632111510261893,-0.000609849754255265,0.0,0.0,0.0,0.0,0.0002410530869383365,0.0012200821656733751,0.0013379027368500829,1.0010583400726318,0.0,0.0,0.0,9.829907417297363,1.7637895345687866,6.250585556030273,-1779.23291015625,0
1298.3950000000004,-0.008480081334710121,0.0016374328406527638,-0.0006014830432832241,0.0,0.0,0.0,0.0,-0.002273396821692586,0.0011364964302629232,0.00424923887476325,0.9986634850502014,0.0,0.0,0.0,9.827943801879883,1.7577613592147827,6.245882511138916,-1778.8773193359375,0
1308.3199999999997,-0.008480323478579521,0.0016966286348178983,-0.0006297536892816424,0.0,0.0,0.0,0.0,0.0020818952471017838,0.0019929232075810432,-0.0011439986992627382,1.0011788606643677,0.0,0.0,0.0,9.826740264892578,1.7707984447479248,6.246593952178955,-1778.65966796875,0
1318.2200000000012,-0.008466902188956738,0.001699260901659727,-0.0006187586695887148,0.0,0.0,0.0,0.0,0.0015594752039760351,0.008975896053016186,-0.0011295778676867485,1.0010651350021362,0.0,0.0,0.0,9.828045845031738,1.770447015762329,6.242463111877441,-1778.895751953125,0
1328.1380000000008,-0.008515226654708385,0.0016800713492557406,-0.0006165119702927768,0.0,0.0,0.0,0.0,-0.001417139545083046,0.004709760658442974,-0.0033628283999860287,0.9989240765571594,0.0,0.0,0.0,9.817920684814453,1.7655580043792725,6.222555637359619,-1777.0631103515625,0
1338.0380000000005,-0.008550606667995453,0.0016818082658573985,-0.0006152251153253019,0.0,0.0,0.0,0.0,-0.0002679433091543615,-0.0007405306096188724,0.0004008152463939041,0.9991984367370605,0.0,0.0,0.0,9.8152494430542,1.7707068920135498,6.206473350524902,-1776.5797119140625,0
1347.9500000000007,-0.008586224168539047,0.001682980451732874,-0.0006272224709391594,0.0,0.0,0.0,0.0,0.002254868857562542,0.004558231681585312,-0.0009089297382161021,1.0010390281677246,0.0,0.0,0.0,9.814793586730957,1.7724257707595825,6.199143409729004,-1776.4971923828125,0
1357.8580000000002,-0.008533687330782413,0.0016728268237784505,-0.0006066538626328111,0.0,0.0,0.0,0.0,-0.0010109232971444726,-0.0026490509044378996,-0.00530649209395051,1.0005522966384888,0.0,0.0,0.0,9.816431999206543,1.7627637386322021,6.201086521148682,-1776.793701171875,0
1367.7740000000013,-0.008600563742220402,0.0016523103695362806,-0.0005799685604870319,0.0,0.0,0.0,0.0,0.0009709673468023539,0.005811484530568123,0.0012811222113668919,0.9982045292854309,0.0,0.0,0.0,9.812546730041504,1.7584691047668457,6.190144062042236,-1776.0904541015625,0
1377.6859999999997,-0.008537020534276962,0.001645000302232802,-0.0005462424014694989,0.0,0.0,0.0,0.0,0.0007498293998651206,0.0033380414824932814,-0.004739274736493826,0.9993420839309692,0.0,0.0,0.0,9.810358047485352,1.7536427974700928,6.1890869140625,-1775.6943359375,0
1387.5959999999995,-0.008603147231042385,0.001602870412170887,-0.0005282508791424334,0.0,0.0,0.0,0.0,0.00038082344690337777,-0.0018580505857244134,0.0005995192914269865,0.9992665648460388,0.0,0.0,0.0,9.809803009033203,1.7441667318344116,6.168402194976807,-1775.5938720703125,0
1397.5040000000008,-0.008555321954190731,0.001631330349482596,-0.0004837120941374451,0.0,0.0,0.0,0.0,0.0013484106166288257,-0.0008009063312783837,-0.00408171396702528,1.000382423400879,0.0,0.0,0.0,9.807065963745117,1.7529306411743164,6.1820387840271,-1775.0985107421875,0
1407.4269999999997,-0.008593483828008175,0.0016405625501647592,-0.00048585463082417846,0.0,0.0,0.0,0.0,0.0012915956322103739,-0.0039299530908465385,0.00042053614743053913,0.9990906715393066,0.0,0.0,0.0,9.809270858764648,1.750593662261963,6.183200836181641,-1775.49755859375,0
1417.3330000000005,-0.008546318858861923,0.0016460239421576262,-0.000448633887572214,0.0,0.0,0.0,0.0,0.002690787659958005,0.0037300451658666134,-0.00148695707321167,0.9998519420623779,0.0,0.0,0.0,9.809714317321777,1.7398391962051392,6.192434787750244,-1775.577880859375,0
1427.2380000000012,-0.00859759096056223,0.0016152806347236037,-0.0004471245629247278,0.0,0.0,0.0,0.0,-0.0024019614793360233,-0.0016569704748690128,-0.002356056123971939,0.9984254240989685,0.0,0.0,0.0,9.811638832092285,1.7307653427124023,6.184553623199463,-1775.92626953125,0
1437.1490000000013,-0.008580475114285946,0.0016120861982926726,-0.00042115867836400867,0.0,0.0,0.0,0.0,-0.002826427575200796,-0.00716253649443388,-0.0005598238785751164,0.99907386302948,0.0,0.0,0.0,9.812484741210938,1.7339097261428833,6.188023567199707,-1776.0792236328125,0
1447.0699999999997,-0.008599183522164822,0.0016400370514020324,-0.00043995739542879164,0.0,0.0,0.0,0.0,-7.540266233263537e-05,0.0009574261493980885,-0.0012004608288407326,1.0004472732543945,0.0,0.0,0.0,9.81106948852539,1.7435370683670044,6.197360038757324,-1775.8232421875,0
1456.9740000000002,-0.008595972321927547,0.001654330757446587,-0.0004112918977625668,0.0,0.0,0.0,0.0,-0.0009662813972681761,-0.0017187917837873101,-0.0015435987152159214,1.0019350051879883,0.0,0.0,0.0,9.800518989562988,1.7416144609451294,6.195295810699463,-1773.9134521484375,0
1466.8909999999996,-0.008617517538368702,0.001685715513303876,-0.000425668025854975,0.0,0.0,0.0,0.0,0.0022300679702311754,0.0033637259621173143,-0.0015117292059585452,1.0001062154769897,0.0,0.0,0.0,9.802959442138672,1.7487965822219849,6.191764831542969,-1774.355224609375,0
1476.808000000001,-0.00855399202555418,0.0016597752692177892,-0.0003938852751161903,0.0,0.0,0.0,0.0,-0.001521618920378387,-0.00458541652187705,-0.0048956614919006824,0.9980416297912598,0.0,0.0,0.0,9.803629875183105,1.73984694480896,6.1951775550842285,-1774.4766845703125,0
1486.719000000001,-0.00854917336255312,0.001697312924079597,-0.00043886687490157783,0.0,0.0,0.0,0.0,-0.0012887218035757542,0.000769769714679569,-0.003534074407070875,1.0007737874984741,0.0,0.0,0.0,9.80451488494873,1.7399545907974243,6.200765132904053,-1774.6368408203125,0
1496.6270000000004,-0.008531688712537289,0.0016594113549217582,-0.00043640125659294426,0.0,0.0,0.0,0.0,-0.0024519211146980524,0.006305999122560024,-0.0016797070857137442,1.0010018348693848,0.0,0.0,0.0,9.808650970458984,1.7335693836212158,6.197514533996582,-1775.3853759765625,0
1506.5519999999997,-0.008521954528987408,0.0016909883124753833,-0.000493606727104634,0.0,0.0,0.0,0.0,0.00024071388179436326,0.004046710208058357,0.0005615852423943579,1.0016133785247803,0.0,0.0,0.0,9.812891960144043,1.7383451461791992,6.195481300354004,-1776.1529541015625,0
1516.4500000000007,-0.008507884107530117,0.0016698020044714212,-0.0004885512171313167,0.0,0.0,0.0,0.0,-0.0008886922150850296,-0.0009679356007836759,0.002290500095114112,0.9993502497673035,0.0,0.0,0.0,9.817140579223633,1.7314691543579102,6.184762477874756,-1776.921875,0
1526.3700000000008,-0.00852342788130045,0.0016796357231214643,-0.0005197082064114511,0.0,0.0,0.0,0.0,0.00019560979853849858,-0.0016083535738289356,-0.0006744796992279589,0.9996215105056763,0.0,0.0,0.0,9.81354808807373,1.7327969074249268,6.180990695953369,-1776.2718505859375,0
1536.2749999999996,-0.008520340546965599,0.001666060066781938,-0.0005167177296243608,0.0,0.0,0.0,0.0,-0.001025027479045093,0.00034475058782845736,-0.002589018549770117,1.001413345336914,0.0,0.0,0.0,9.816808700561523,1.7305773496627808,6.181473255157471,-1776.862060546875,0
1546.201000000001,-0.008514692075550556,0.0017287872033193707,-0.000556735263671726,0.0,0.0,0.0,0.0,-0.0013697640970349312,-0.0003634002641774714,0.003986334428191185,0.9990300536155701,0.0,0.0,0.0,9.819501876831055,1.7436103820800781,6.176789283752441,-1777.3492431640625,0
1556.0910000000003,-0.008513116277754307,0.001693912548944354,-0.0005633814143948257,0.0,0.0,0.0,0.0,0.0010273929219692945,0.0010602474212646484,-0.0017141891876235604,0.9984956383705139,0.0,0.0,0.0,9.82220458984375,1.737819790840149,6.171703338623047,-1777.838623046875,0
1566.0190000000002,-0.008497717790305614,0.0017440132796764374,-0.0006286605494096875,0.0,0.0,0.0,0.0,-0.0032098221126943827,0.00418673362582922,-0.0002767729456536472,1.0018798112869263,0.0,0.0,0.0,9.821853637695312,1.743037462234497,6.1746416091918945,-1777.775146484375,0
1575.9230000000007,-0.008473949506878853,0.0017282156040892005,-0.0006268679280765355,0.0,0.0,0.0,0.0,-0.0010181276593357325,-0.0008787146070972085,0.0011140924179926515,0.9994997382164001,0.0,0.0,0.0,9.824295043945312,1.7414586544036865,6.168871879577637,-1778.217041015625,0
1585.8400000000001,-0.008483878336846828,0.0017567340983077884,-0.0006711530731990933,0.0,0.0,0.0,0.0,-0.0007989982841536403,-0.003921904135495424,0.00020211328228469938,0.9996907114982605,0.0,0.0,0.0,9.824417114257812,1.7544314861297607,6.17347526550293,-1778.2391357421875,0
1595.7450000000008,-0.008451273664832115,0.0017338815378025174,-0.0006699757068417966,0.0,0.0,0.0,0.0,0.0005997535772621632,0.003289806190878153,-0.0009228951530531049,0.9977322816848755,0.0,0.0,0.0,9.827154159545898,1.752657413482666,6.184282302856445,-1778.734375,0
1605.6599999999999,-0.00847375113517046,0.0017598049016669393,-0.0007033052970655262,0.0,0.0,0.0,0.0,0.00012701493687927723,0.0002525074814911932,-0.003772586118429899,0.9969511032104492,0.0,0.0,0.0,9.826248168945312,1.7595993280410767,6.184439182281494,-1778.570556640625,0
1615.5740000000005,-0.008442302234470844,0.001740213017910719,-0.0007031143759377301,0.0,0.0,0.0,0.0,-0.0017912694020196795,0.0012170812115073204,-0.0027141657192260027,0.9976991415023804,0.0,0.0,0.0,9.828017234802246,1.7526781558990479,6.175314903259277,-1778.890625,0
1625.4840000000004,-0.008496083319187164,0.0017625285545364022,-0.000701577344443649,0.0,0.0,0.0,0.0,0.0005374040338210762,-0.0026233159005641937,-0.0038942827377468348,0.9986131191253662,0.0,0.0,0.0,9.828170776367188,1.7561068534851074,6.164100646972656,-1778.9183349609375,0
1635.384,-0.008477086201310158,0.0017657066928222775,-0.0006961327162571251,0.0,0.0,0.0,0.0,-0.00036479951813817024,-0.0029769279062747955,0.0019365731859579682,0.996900737285614,0.0,0.0,0.0,9.825000762939453,1.7565592527389526,6.171811580657959,-1778.3446044921875,0
1645.300000000001,-0.008563610725104809,0.0017216929700225592,-0.0006810929044149816,0.0,0.0,0.0,0.0,-0.001455113640986383,-0.0022769460920244455,0.0028990027494728565,0.9982680678367615,0.0,0.0,0.0,9.823387145996094,1.7458100318908691,6.158468246459961,-1778.0526123046875,0
1655.2060000000001,-0.008497512899339199,0.0017073440831154585,-0.0006703896215185523,0.0,0.0,0.0,0.0,-0.0015095231356099248,-0.0003505845961626619,0.0013160373782739043,0.9988388419151306,0.0,0.0,0.0,9.82733154296875,1.7489787340164185,6.171980857849121,-1778.7666015625,0
1665.1409999999996,-0.00856612715870142,0.0016883371863514185,-0.0006731569301337004,0.0,0.0,0.0,0.0,-0.00013789377408102155,-0.00048083291039802134,0.0008229709346778691,0.9987726211547852,0.0,0.0,0.0,9.833413124084473,1.7494884729385376,6.176148891448975,-1779.867431640625,0
1675.0349999999999,-0.00850676093250513,0.0016909735277295113,-0.0006523841293528676,0.0,0.0,0.0,0.0,-0.0016404724447056651,-0.0016229639295488596,-0.00019751688523683697,0.9985170960426331,0.0,0.0,0.0,9.832073211669922,1.746248483657837,6.184024810791016,-1779.624755859375,0
1684.964,-0.008603713475167751,0.0016705236630514264,-0.0006143932696431875,0.0,0.0,0.0,0.0,0.0004740706644952297,0.0005493630305863917,-0.004257389809936285,0.9991860389709473,0.0,0.0,0.0,9.833070755004883,1.7480134963989258,6.175796985626221,-1779.8052978515625,0
1694.848,-0.008513150736689568,0.0016419128514826298,-0.0005906503065489233,0.0,0.0,0.0,0.0,0.0008446485153399408,-0.0023158076219260693,-0.001217623008415103,0.999653160572052,0.0,0.0,0.0,9.829350471496582,1.7401596307754517,6.191198825836182,-1779.1318359375,0
1704.7710000000006,-0.008598648943006992,0.0016085366951301694,-0.0005746323731727898,0.0,0.0,0.0,0.0,0.0003137935418635607,-0.004138307645916939,0.0019406487699598074,1.0008407831192017,0.0,0.0,0.0,9.828269004821777,1.7347160577774048,6.181804180145264,-1778.936279296875,0
1714.6769999999997,-0.008542648516595364,0.0016290325438603759,-0.0005411027814261615,0.0,0.0,0.0,0.0,-0.00018541296594776213,0.00042891327757388353,-0.003449099836871028,1.002450942993164,0.0,0.0,0.0,9.829277038574219,1.7308772802352905,6.1992692947387695,-1779.11865234375,0
1724.5920000000006,-0.008602127432823181,0.001647020224481821,-0.0005367719568312168,0.0,0.0,0.0,0.0,-0.0025291689671576023,0.00029633197118528187,-0.0018409127369523048,0.9998733997344971,0.0,0.0,0.0,9.826681137084961,1.7366329431533813,6.1905131340026855,-1778.6488037109375,0
1734.4930000000004,-0.008545216172933578,0.0016355175757780671,-0.0005083574797026813,0.0,0.0,0.0,0.0,0.0003887150378432125,-0.00207217107526958,-0.0015174488071352243,0.9986699223518372,0.0,0.0,0.0,9.8273344039917,1.730485439300537,6.20307731628418,-1778.76708984375,0
1744.42,-0.00860960315912962,0.0016244607977569103,-0.0005061825504526496,0.0,0.0,0.0,0.0,0.0004892140277661383,0.0019616165664047003,-0.001251124544069171,1.0005028247833252,0.0,0.0,0.0,9.81696891784668,1.7318111658096313,6.200801372528076,-1776.8909912109375,0
1754.3189999999995,-0.008552811108529568,0.0016327615594491363,-0.00048458194942213595,0.0,0.0,0.0,0.0,0.002135427901521325,-0.004593647550791502,0.00047864927910268307,1.0008561611175537,0.0,0.0,0.0,9.820192337036133,1.7316334247589111,6.207444190979004,-1777.4742431640625,0
1764.237000000001,-0.008572191931307316,0.001666714553721249,-0.0005287192761898041,0.0,0.0,0.0,0.0,-0.0053335875272750854,0.0015237192856147885,0.0038618638645857573,0.999187707901001,0.0,0.0,0.0,9.824336051940918,1.7332737445831299,6.222677707672119,-1778.2244873046875,0
1774.1380000000008,-0.008586385287344456,0.0017089839093387127,-0.0004984631086699665,0.0,0.0,0.0,0.0,0.0008115985547192395,-0.0007076945039443672,-0.0014973027864471078,0.9980283975601196,0.0,0.0,0.0,9.823692321777344,1.7532042264938354,6.225775718688965,-1778.1077880859375,0
1784.071,-0.00859032105654478,0.0017712580738589168,-0.0005548374610953033,0.0,0.0,0.0,0.0,0.0004321296000853181,0.0008438856457360089,-0.001922819297760725,0.9985424280166626,0.0,0.0,0.0,9.825740814208984,1.7603131532669067,6.227792739868164,-1778.4786376953125,0
1793.9660000000003,-0.008505555801093578,0.0017204670002683997,-0.0005370572325773537,0.0,0.0,0.0,0.0,-0.002522202907130122,1.080744550563395e-05,-0.0027287870179861784,0.9973127841949463,0.0,0.0,0.0,9.82716178894043,1.7478828430175781,6.240835666656494,-1778.73583984375,0
1803.884,-0.008538623340427876,0.0017168365884572268,-0.0005805022665299475,0.0,0.0,0.0,0.0,-0.0022451470140367746,-0.0013708636397495866,-0.0009245379478670657,0.9988803863525391,0.0,0.0,0.0,9.829994201660156,1.7479439973831177,6.239258766174316,-1779.24853515625,0
1813.8029999999999,-0.008518110029399395,0.0016954591264948249,-0.0005703935748897493,0.0,0.0,0.0,0.0,0.0018286695703864098,0.001569718006066978,0.0026125237345695496,0.9989910125732422,0.0,0.0,0.0,9.829412460327148,1.7470173835754395,6.242091655731201,-1779.1431884765625,0
1823.7090000000007,-0.008597276173532009,0.0016823356272652745,-0.000553277728613466,0.0,0.0,0.0,0.0,-8.085375156952068e-05,0.004470145329833031,0.0018332006875425577,1.0001848936080933,0.0,0.0,0.0,9.818717002868652,1.7431385517120361,6.233103275299072,-1777.2073974609375,0
1833.6090000000004,-0.00852177944034338,0.0016505843959748745,-0.0005302636418491602,0.0,0.0,0.0,0.0,-0.0012466521002352238,-0.0019393948605284095,0.0006621660431846976,1.0001180171966553,0.0,0.0,0.0,9.81656265258789,1.735044002532959,6.237210750579834,-1776.8175048828125,0
1843.5290000000005,-0.008552535437047482,0.0016663483111187816,-0.0005650550010614097,0.0,0.0,0.0,0.0,9.446958574699238e-05,-0.0009982690680772066,-0.005607237573713064,1.0000189542770386,0.0,0.0,0.0,9.823559761047363,1.7397855520248413,6.236584663391113,-1778.083984375,0
1853.4310000000005,-0.00852012075483799,0.00166053615976125,-0.0005486807785928249,0.0,0.0,0.0,0.0,0.0024103682953864336,0.0012614004081115127,0.0011919146636500955,1.0005180835723877,0.0,0.0,0.0,9.824787139892578,1.738430142402649,6.2523932456970215,-1778.30615234375,0
1863.3540000000012,-0.008559527806937695,0.0016754526877775788,-0.0005761299980804324,0.0,0.0,0.0,0.0,0.0010371457319706678,0.0019576754420995712,-0.004597065970301628,0.9997124671936035,0.0,0.0,0.0,9.829785346984863,1.7377301454544067,6.246277809143066,-1779.2108154296875,0
1873.2569999999996,-0.008607141673564911,0.0017111984780058265,-0.000571088632568717,0.0,0.0,0.0,0.0,0.003556632436811924,0.0027072057127952576,0.002352047711610794,1.0000364780426025,0.0,0.0,0.0,9.829492568969727,1.7420319318771362,6.236368179321289,-1779.15771484375,0
1883.1710000000003,-0.008631831966340542,0.0017686926294118166,-0.0006097583682276309,0.0,0.0,0.0,0.0,-0.0012331361649557948,0.0006089788512326777,0.0025384866166859865,0.9994825720787048,0.0,0.0,0.0,9.829150199890137,1.7407512664794922,6.231921195983887,-1779.0955810546875,0
1893.0810000000001,-0.00860497634857893,0.0017589782364666462,-0.0005994447856210172,0.0,0.0,0.0,0.0,-0.0027707417029887438,0.0007215632940642536,0.001528166583739221,1.0002425909042358,0.0,0.0,0.0,9.83060359954834,1.7341734170913696,6.229704856872559,-1779.35888671875,0
1903.0030000000006,-0.008657727390527725,0.0017512384802103043,-0.0006276958156377077,0.0,0.0,0.0,0.0,-0.00035759873571805656,0.0013899948680773377,-0.0009655463509261608,1.0013271570205688,0.0,0.0,0.0,9.82870101928711,1.726763129234314,6.219085216522217,-1779.0142822265625,0
1912.9030000000002,-0.008601253852248192,0.0017340716440230608,-0.0006104625063017011,0.0,0.0,0.0,0.0,0.00019500803318805993,0.00414385087788105,0.0003901736345142126,1.0009676218032837,0.0,0.0,0.0,9.830146789550781,1.720382809638977,6.227549076080322,-1779.276123046875,0
1922.8270000000011,-0.00868958793580532,0.0017195399850606918,-0.0005891603068448603,0.0,0.0,0.0,0.0,0.0024231597781181335,0.000973845599219203,-0.0011606968473643064,0.9981848001480103,0.0,0.0,0.0,9.83415412902832,1.7155749797821045,6.2126264572143555,-1780.0013427734375,0
1932.7240000000002,-0.008540182374417782,0.0016756127588450909,-0.0005463898996822536,0.0,0.0,0.0,0.0,0.001345043652690947,-0.0013992920285090804,2.523082002880983e-05,0.9995657801628113,0.0,0.0,0.0,9.835612297058105,1.7006406784057617,6.2220988273620605,-1780.2655029296875,0
1942.6630000000005,-0.008626286871731281,0.00163318554405123,-0.0005302284262143075,0.0,0.0,0.0,0.0,-0.0013477749889716506,0.0029915019404143095,0.0003758931125048548,0.99834805727005,0.0,0.0,0.0,9.836994171142578,1.6938618421554565,6.210319519042969,-1780.515625,0
1952.5550000000003,-0.008547655306756496,0.0016278399853035808,-0.0004889173433184624,0.0,0.0,0.0,0.0,-0.0003540889883879572,-0.0002286548406118527,-0.001261112978681922,0.99705970287323,0.0,0.0,0.0,9.836318016052246,1.685306191444397,6.215620994567871,-1780.39306640625,0
1962.4719999999998,-0.008569690398871899,0.001668409677222371,-0.0005263098864816129,0.0,0.0,0.0,0.0,-0.001170715200714767,0.005277729127556086,0.0012003435986116529,0.9998707175254822,0.0,0.0,0.0,9.839573860168457,1.696380615234375,6.213859558105469,-1780.982421875,0
1972.3739999999998,-0.008497590199112892,0.0016101149376481771,-0.0005139305139891803,0.0,0.0,0.0,0.0,-0.002528959419578314,-0.002770565217360854,0.0014780418714508414,0.9986211657524109,0.0,0.0,0.0,9.840038299560547,1.6856813430786133,6.214652061462402,-1781.0665283203125,0
1982.3019999999997,-0.008525395765900612,0.00164859090000391,-0.0005474578938446939,0.0,0.0,0.0,0.0,-0.0005161865265108645,0.0015192778082564473,0.002365832682698965,0.9983798861503601,0.0,0.0,0.0,9.840486526489258,1.6946909427642822,6.214570999145508,-1781.147705078125,0
1992.2020000000011,-0.00847909040749073,0.0015983151970431209,-0.000544756359886378,0.0,0.0,0.0,0.0,-0.0012311638565734029,0.0013416248839348555,0.0008320512715727091,0.9992824792861938,0.0,0.0,0.0,9.843940734863281,1.677836298942566,6.220952987670898,-1781.7728271484375,0
2002.1020000000008,-0.008516733534634113,0.0016306617762893438,-0.00056949577992782,0.0,0.0,0.0,0.0,0.0005792302545160055,0.0008884641574695706,-0.0014410341391339898,0.9978121519088745,0.0,0.0,0.0,9.839210510253906,1.6854891777038574,6.223698139190674,-1780.9166259765625,0
2012.018,-0.008463052101433277,0.0016264533624053001,-0.000547025993000716,0.0,0.0,0.0,0.0,0.00022072588035371155,-0.0023041479289531708,0.0016303875017911196,0.9973726272583008,0.0,0.0,0.0,9.836557388305664,1.6801013946533203,6.217774391174316,-1780.436279296875,0
2021.9359999999997,-0.008503262884914875,0.0016521752113476396,-0.000573030614759773,0.0,0.0,0.0,0.0,0.0010331377852708101,-0.0032456170301884413,0.0034457799047231674,0.9971333146095276,0.0,0.0,0.0,9.833246231079102,1.683465838432312,6.2195940017700195,-1779.837158203125,0
2031.8330000000005,-0.008451872505247593,0.0016352555248886347,-0.0005593519890680909,0.0,0.0,0.0,0.0,0.005607204511761665,-0.0012324359267950058,-0.000975751259829849,0.9975641965866089,0.0,0.0,0.0,9.833233833312988,1.67827570438385,6.230718612670898,-1779.8348388671875,0
2041.759,-0.00854148343205452,0.0016311043873429298,-0.0005430797464214265,0.0,0.0,0.0,0.0,0.002685419050976634,0.0017439729999750853,0.0014563221484422684,0.9978825449943542,0.0,0.0,0.0,9.82711124420166,1.6720247268676758,6.231400012969971,-1778.7265625,0
2051.6580000000013,-0.008529938757419586,0.0016410908428952098,-0.0005295659066177905,0.0,0.0,0.0,0.0,-0.00014141683641355485,0.004267209675163031,-0.00018924761388916522,0.9991302490234375,0.0,0.0,0.0,9.827264785766602,1.6693137884140015,6.237380027770996,-1778.7545166015625,0
2061.5779999999995,-0.008600049652159214,0.0016554211033508182,-0.0005314942100085318,0.0,0.0,0.0,0.0,-0.000492510327603668,-0.004471614025533199,-0.0011141581926494837,0.9977403283119202,0.0,0.0,0.0,9.826581001281738,1.6758564710617065,6.226824760437012,-1778.630615234375,0
2071.4840000000004,-0.008503006771206856,0.0015957775758579373,-0.0005212106625549495,0.0,0.0,0.0,0.0,-0.0005624641198664904,0.0016752764349803329,-0.0015126883517950773,0.9998449087142944,0.0,0.0,0.0,9.828932762145996,1.6616536378860474,6.250594139099121,-1779.0565185546875,0
2081.3909999999996,-0.008586304262280464,0.001570668420754373,-0.000519793713465333,0.0,0.0,0.0,0.0,-0.0023420844227075577,0.0026817882899194956,-0.0022708498872816563,1.0005439519882202,0.0,0.0,0.0,9.829532623291016,1.6589350700378418,6.240201473236084,-1779.1649169921875,0
2091.3099999999995,-0.008553716354072094,0.0015959428856149316,-0.0004934276803396642,0.0,0.0,0.0,0.0,-0.0016600105445832014,0.0023813224397599697,-0.0014007397694513202,0.998386561870575,0.0,0.0,0.0,9.828903198242188,1.6642355918884277,6.244714736938477,-1779.0509033203125,0
2101.228000000001,-0.008604535833001137,0.001624995144084096,-0.0005076089291833341,0.0,0.0,0.0,0.0,0.00023992669594008476,0.0014225987251847982,-0.003134294645860791,0.9966074228286743,0.0,0.0,0.0,9.829622268676758,1.6720194816589355,6.2469482421875,-1779.1812744140625,0
2111.129000000001,-0.0085374116897583,0.0016233082860708237,-0.00048287343815900385,0.0,0.0,0.0,0.0,0.0035457860212773085,0.004611339420080185,-0.0005155098624527454,0.9997721314430237,0.0,0.0,0.0,9.83041000366211,1.666048288345337,6.252933502197266,-1779.3236083984375,0
2121.0370000000003,-0.00855912547558546,0.0016586855053901672,-0.000533699116203934,0.0,0.0,0.0,0.0,0.0009030259097926319,-0.0013231525663286448,-0.001166374422609806,0.9965096116065979,0.0,0.0,0.0,9.831113815307617,1.6630557775497437,6.246923446655273,-1779.451171875,0
2130.9539999999997,-0.008539216592907906,0.0016793380491435528,-0.000516830594278872,0.0,0.0,0.0,0.0,-0.0002705104125197977,0.0013126342091709375,-0.0029031625017523766,0.9984561204910278,0.0,0.0,0.0,9.82797908782959,1.6613330841064453,6.2437214851379395,-1778.8837890625,0
2140.8639999999996,-0.008577534928917885,0.001696946332231164,-0.0005559963756240904,0.0,0.0,0.0,0.0,0.0023105591535568237,0.0016823692712932825,0.0020827590487897396,0.9997769594192505,0.0,0.0,0.0,9.82579231262207,1.6663455963134766,6.242241859436035,-1778.4879150390625,0
