timestamp,stateEstimate.x,stateEstimate.y,stateEstimate.z,controller.cmd_thrust,controller.cmd_roll,controller.cmd_pitch,controller.cmd_yaw,controller.r_roll,controller.r_pitch,controller.r_yaw,controller.accelz,controller.actuatorThrust,controller.roll,controller.pitch,controller.yaw,controller.rollRate,controller.pitchRate,controller.yawRate,controller.ctr_yaw
0.0,-0.013382427394390106,0.00869761686772108,-0.0014874387998133898,0.0,0.0,0.0,0.0,0.001619633985683322,0.0022596879862248898,-0.002518540946766734,1.0027016401290894,0.0,0.0,0.0,11.10905933380127,2.2484261989593506,5.747893333435059,-2010.76171875,0
9.904000000000451,-0.01345896627753973,0.008705326355993748,-0.0015293319011107087,0.0,0.0,0.0,0.0,-0.005259298719465733,-0.0025719425175338984,-0.001705026370473206,1.0003275871276855,0.0,0.0,0.0,11.09769344329834,2.2431318759918213,5.739775657653809,-2008.7047119140625,0
19.824000000000524,-0.013530022464692593,0.008711697533726692,-0.0015650502173230052,0.0,0.0,0.0,0.0,-0.0007335353293456137,-0.00020136364037171006,-0.0007677911780774593,0.9986509084701538,0.0,0.0,0.0,11.08625602722168,2.2515311241149902,5.7308149337768555,-2006.634521484375,0
29.728000000000975,-0.013601292856037617,0.008717836812138557,-0.0016004452481865883,0.0,0.0,0.0,0.0,-0.0006795042427256703,0.0034809827338904142,-0.0013640641700476408,1.001731514930725,0.0,0.0,0.0,11.074541091918945,2.2493319511413574,5.723570346832275,-2004.5140380859375,0
39.64900000000125,-0.01367318257689476,0.008723684586584568,-0.001635891618207097,0.0,0.0,0.0,0.0,0.0008966854074969888,-9.729358134791255e-05,0.0017170109786093235,0.9989534616470337,0.0,0.0,0.0,11.062997817993164,2.245204448699951,5.707309722900391,-2002.4244384765625,0
49.55199999999968,-0.012135926634073257,0.008299033157527447,-0.000658287841361016,0.0,0.0,0.0,0.0,-0.0019017289159819484,-0.0037057125009596348,-0.002107481239363551,0.9983983635902405,0.0,0.0,0.0,11.068787574768066,2.122737169265747,5.9240875244140625,-2003.4725341796875,0
59.475000000000364,-0.012143169529736042,0.008287285454571247,-0.0006565619842149317,0.0,0.0,0.0,0.0,0.0018517998978495598,0.00396411307156086,0.003702733898535371,0.9991975426673889,0.0,0.0,0.0,11.05759334564209,2.1261990070343018,5.9222493171691895,-2001.4464111328125,0
69.375,-0.012143023312091827,0.008315147832036018,-0.0006344409193843603,0.0,0.0,0.0,0.0,0.0001998159132199362,-0.0033400224056094885,-0.002598466584458947,0.9978495240211487,0.0,0.0,0.0,11.063011169433594,2.1209304332733154,5.905491352081299,-2002.427001953125,0
79.29200000000128,-0.012150864116847515,0.008304576389491558,-0.0006335139623843133,0.0,0.0,0.0,0.0,8.236068970290944e-05,0.0006212325533851981,0.0012986392248421907,0.9987626671791077,0.0,0.0,0.0,11.050440788269043,2.1172096729278564,5.8988871574401855,-2000.1517333984375,0
89.20100000000093,-0.012170877307653427,0.008312779478728771,-0.0006254686741158366,0.0,0.0,0.0,0.0,-0.002032526535913348,-0.005259579047560692,0.002688850974664092,0.9997239112854004,0.0,0.0,0.0,11.055876731872559,2.120546579360962,5.888156414031982,-2001.1356201171875,0
99.11399999999958,-0.01218055747449398,0.008302059024572372,-0.0006260845111683011,0.0,0.0,0.0,0.0,-0.0019417672883719206,-0.002056678058579564,0.00444524921476841,0.9998056292533875,0.0,0.0,0.0,11.04609203338623,2.1177330017089844,5.8869733810424805,-1999.3646240234375,0
109.01599999999962,-0.012178167700767517,0.008295911364257336,-0.0006175149464979768,0.0,0.0,0.0,0.0,0.002547742333263159,0.0003911289677489549,-0.000937177799642086,1.0002607107162476,0.0,0.0,0.0,11.053569793701172,2.124826669692993,5.8969950675964355,-2000.7181396484375,0
118.95000000000073,-0.012189558707177639,0.008284468203783035,-0.00061740109231323,0.0,0.0,0.0,0.0,-0.002259480766952038,0.002343564061447978,-7.850721158320084e-05,0.9986805319786072,0.0,0.0,0.0,11.042647361755371,2.120098352432251,5.892748832702637,-1998.7410888671875,0
128.85000000000036,-0.01218691561371088,0.008283058181405067,-0.000602246611379087,0.0,0.0,0.0,0.0,-0.0015612056013196707,-0.0030858218669891357,0.0021065049804747105,0.9972240924835205,0.0,0.0,0.0,11.050604820251465,2.121201992034912,5.8834428787231445,-2000.181396484375,0
138.76900000000023,-0.012199770659208298,0.008270573802292347,-0.0006028122152201831,0.0,0.0,0.0,0.0,8.714452269487083e-05,0.002305794507265091,-0.0035723731853067875,1.000000238418579,0.0,0.0,0.0,11.040336608886719,2.119281530380249,5.87879753112793,-1998.3228759765625,0
148.66500000000087,-0.01218192558735609,0.00824760366231203,-0.000587953720241785,0.0,0.0,0.0,0.0,0.002423602156341076,0.005615833681076765,-0.0017563082510605454,0.998359203338623,0.0,0.0,0.0,11.046137809753418,2.11087965965271,5.8896565437316895,-1999.373046875,0
158.58600000000115,-0.012194518931210041,0.008233265951275826,-0.0005894951173104346,0.0,0.0,0.0,0.0,-0.0021263561211526394,-0.0020379871129989624,0.00044761053868569434,1.0020767450332642,0.0,0.0,0.0,11.03516960144043,2.1046693325042725,5.872734069824219,-1997.3876953125,0
168.48500000000058,-0.012207018211483955,0.008218806236982346,-0.0005908149178139865,0.0,0.0,0.0,0.0,-0.001300622709095478,0.0017139199189841747,-0.002427254104986787,1.0003830194473267,0.0,0.0,0.0,11.024065971374512,2.100815773010254,5.862246513366699,-1995.3779296875,0
178.40999999999985,-0.012219948694109917,0.00820400845259428,-0.0005910270265303552,0.0,0.0,0.0,0.0,0.001527331187389791,0.0007109556463547051,-0.0015871267532929778,0.9997386336326599,0.0,0.0,0.0,11.01328182220459,2.0942206382751465,5.8594970703125,-1993.4259033203125,0
188.3080000000009,-0.01223321445286274,0.008188193663954735,-0.0005907651502639055,0.0,0.0,0.0,0.0,0.0021964602638036013,-0.002127957995980978,0.002645193599164486,1.0001636743545532,0.0,0.0,0.0,11.002510070800781,2.0916194915771484,5.855149269104004,-1991.4761962890625,0
198.23400000000038,-0.0122454185038805,0.00817165244370699,-0.0005905571160838008,0.0,0.0,0.0,0.0,-0.000245110277319327,0.0006908730720169842,-0.002236865693703294,1.000017762184143,0.0,0.0,0.0,10.992350578308105,2.087806224822998,5.8504157066345215,-1989.63720703125,0
208.13000000000102,-0.012256870046257973,0.008154642768204212,-0.000589934119489044,0.0,0.0,0.0,0.0,-0.0010815848363563418,-0.004623606335371733,0.003980710636824369,0.9986070990562439,0.0,0.0,0.0,10.980977058410645,2.0843796730041504,5.841781139373779,-1987.5787353515625,0
218.0560000000005,-0.012269650585949421,0.008136136457324028,-0.0005893830675631762,0.0,0.0,0.0,0.0,-0.0007018540636636317,0.000514386803843081,0.0022281883284449577,0.9984811544418335,0.0,0.0,0.0,10.970928192138672,2.08974552154541,5.847256660461426,-1985.7598876953125,0
227.95300000000134,-0.012283975258469582,0.008115620352327824,-0.0005898796953260899,0.0,0.0,0.0,0.0,0.0029152242932468653,-0.004789371974766254,-0.004710438661277294,1.0014874935150146,0.0,0.0,0.0,10.960864067077637,2.093531847000122,5.845917224884033,-1983.9381103515625,0
237.8760000000002,-0.012299039401113987,0.00809396617114544,-0.0005907039740122855,0.0,0.0,0.0,0.0,-0.0005607253988273442,0.00023610159405507147,0.0027832419145852327,1.0012718439102173,0.0,0.0,0.0,10.949442863464355,2.0851855278015137,5.8500823974609375,-1981.870849609375,0
247.78200000000106,-0.012232623063027859,0.008237143978476524,-0.0007504683453589678,0.0,0.0,0.0,0.0,5.345563840819523e-05,0.0039294082671403885,-0.0030238258186727762,0.9989946484565735,0.0,0.0,0.0,10.97720718383789,2.116827964782715,5.863617897033691,-1986.896484375,0
257.6949999999997,-0.012245064601302147,0.008223571814596653,-0.0007537092315033078,0.0,0.0,0.0,0.0,-0.0010897658066824079,-0.001263317884877324,0.0033167325891554356,0.9987533688545227,0.0,0.0,0.0,10.964947700500488,2.1154496669769287,5.84619140625,-1984.6773681640625,0
267.60200000000077,-0.012229221872985363,0.008293957449495792,-0.0007839244790375233,0.0,0.0,0.0,0.0,0.003049304708838463,0.004368006717413664,-0.0005067051388323307,0.9994891881942749,0.0,0.0,0.0,10.98544692993164,2.1365931034088135,5.856908798217773,-1988.3878173828125,0
277.51800000000003,-0.012242295779287815,0.00828467309474945,-0.0007891282439231873,0.0,0.0,0.0,0.0,-0.000629873014986515,-0.003297587623819709,0.00020485733693931252,1.0000966787338257,0.0,0.0,0.0,10.97519588470459,2.1263487339019775,5.8369951248168945,-1986.5323486328125,0
287.4210000000003,-0.012239687144756317,0.008326924405992031,-0.0007972402963787317,0.0,0.0,0.0,0.0,-0.002452753484249115,-0.001279444550164044,-0.0003969490935560316,0.9985069632530212,0.0,0.0,0.0,10.993818283081055,2.1380279064178467,5.851088523864746,-1989.90283203125,0
297.35000000000036,-0.01225253101438284,0.008319488726556301,-0.0008032125770114362,0.0,0.0,0.0,0.0,0.0008692200644873083,0.0009256820194423199,-0.0017001383239403367,0.9964935779571533,0.0,0.0,0.0,10.982257843017578,2.1331732273101807,5.845746040344238,-1987.8104248046875,0
307.246000000001,-0.012253041379153728,0.008344169706106186,-0.0008135258685797453,0.0,0.0,0.0,0.0,-0.0019819207955151796,-0.0032779236789792776,0.001799313467927277,0.9973752498626709,0.0,0.0,0.0,10.998841285705566,2.1452884674072266,5.848972797393799,-1990.8121337890625,0
317.1730000000007,-0.01226523332297802,0.00833710003644228,-0.0008242448093369603,0.0,0.0,0.0,0.0,0.0013522581430152059,0.00335583183914423,0.0006317503284662962,1.0004624128341675,0.0,0.0,0.0,10.989365577697754,2.144160747528076,5.845395088195801,-1989.0970458984375,0
327.0730000000003,-0.01227807067334652,0.00832864735275507,-0.0008366068359464407,0.0,0.0,0.0,0.0,-0.0019074213923886418,-0.002273792400956154,-0.0030238705221563578,1.0008753538131714,0.0,0.0,0.0,10.979450225830078,2.1355912685394287,5.836757659912109,-1987.30224609375,0
336.991,-0.012291816994547844,0.008318975567817688,-0.0008486962178722024,0.0,0.0,0.0,0.0,0.0011041068937629461,-0.0033757006749510765,-0.0004838836321141571,0.9995886087417603,0.0,0.0,0.0,10.967427253723145,2.1337435245513916,5.830524444580078,-1985.126220703125,0
346.8919999999998,-0.012283166870474815,0.008340648375451565,-0.0008760257042013109,0.0,0.0,0.0,0.0,0.0005217520520091057,-0.0002677293377928436,-0.0065115573816001415,0.9984915256500244,0.0,0.0,0.0,10.995187759399414,2.142906427383423,5.837613105773926,-1990.15087890625,0
356.8100000000013,-0.012296023778617382,0.008332017809152603,-0.0008899994427338243,0.0,0.0,0.0,0.0,-0.00029482325771823525,-0.00033479052945040166,0.0011356897884979844,0.9994734525680542,0.0,0.0,0.0,10.982870101928711,2.141740083694458,5.8300676345825195,-1987.9212646484375,0
366.72600000000057,-0.012310351245105267,0.008324549533426762,-0.000904798274859786,0.0,0.0,0.0,0.0,0.0015610936097800732,0.0007363590993918478,-0.00024301456869579852,1.002895474433899,0.0,0.0,0.0,10.972268104553223,2.1421070098876953,5.822427272796631,-1986.00244140625,0
376.64400000000023,-0.012325766496360302,0.008317751809954643,-0.0009189093834720552,0.0,0.0,0.0,0.0,0.0004516714543569833,-0.0010588959557935596,0.0023139314725995064,1.0011701583862305,0.0,0.0,0.0,10.961873054504395,2.1402578353881836,5.811672687530518,-1984.120849609375,0
386.5420000000013,-0.012037928216159344,0.00827769935131073,-0.0007096034241840243,0.0,0.0,0.0,0.0,0.0010705552995204926,-0.002710083732381463,7.420340261887759e-05,0.9985665082931519,0.0,0.0,0.0,10.97733211517334,2.115788221359253,5.869275093078613,-1986.9190673828125,0
396.46399999999994,-0.012040439993143082,0.008269151672720909,-0.0007117800996638834,0.0,0.0,0.0,0.0,0.0009452225058339536,0.00505088223144412,0.0024078115820884705,0.9994153380393982,0.0,0.0,0.0,10.966217041015625,2.1116223335266113,5.871423244476318,-1984.9072265625,0
406.3590000000004,-0.012110769748687744,0.008333548903465271,-0.000698222778737545,0.0,0.0,0.0,0.0,0.0005835065967403352,-0.002701152814552188,-0.0027827818412333727,0.9989199042320251,0.0,0.0,0.0,10.977839469909668,2.1243817806243896,5.843337535858154,-1987.0108642578125,0
416.28200000000106,-0.012120231986045837,0.008325861766934395,-0.000700697535648942,0.0,0.0,0.0,0.0,0.0018619621405377984,0.004942139144986868,0.0006058975122869015,0.9987613558769226,0.0,0.0,0.0,10.96560001373291,2.1198465824127197,5.838991641998291,-1984.79541015625,0
426.1810000000005,-0.012133111245930195,0.00835173949599266,-0.0006862243753857911,0.0,0.0,0.0,0.0,2.3802016585250385e-05,-0.0024054055102169514,0.0012903492897748947,1.0009230375289917,0.0,0.0,0.0,10.98092269897461,2.120661973953247,5.822622299194336,-1987.5687255859375,0
436.10000000000036,-0.012147093191742897,0.008342461660504341,-0.0006883792812004685,0.0,0.0,0.0,0.0,0.0006460669683292508,0.0006253054598346353,-0.0014018673682585359,1.0006937980651855,0.0,0.0,0.0,10.970603942871094,2.112988233566284,5.808689117431641,-1985.701171875,0
446.0040000000008,-0.012155929580330849,0.008333812467753887,-0.0006847523036412895,0.0,0.0,0.0,0.0,0.00017753688734956086,0.0012733613839372993,-0.001017518574371934,1.001096248626709,0.0,0.0,0.0,10.9895658493042,2.1103508472442627,5.807119369506836,-1989.13330078125,0
455.9230000000007,-0.012171817012131214,0.00832420215010643,-0.0006846784381195903,0.0,0.0,0.0,0.0,-0.0016336197732016444,0.0009925456251949072,0.0004857475287280977,1.001446008682251,0.0,0.0,0.0,10.978291511535645,2.1119015216827393,5.797728538513184,-1987.0926513671875,0
465.83400000000074,-0.012173273600637913,0.008326266892254353,-0.0006667184643447399,0.0,0.0,0.0,0.0,-0.003808730049058795,3.711081080837175e-05,0.0026543843559920788,0.9996098875999451,0.0,0.0,0.0,10.989068031311035,2.108675718307495,5.793135643005371,-1989.043212890625,0
475.75,-0.012191010639071465,0.008315494284033775,-0.0006630451534874737,0.0,0.0,0.0,0.0,-0.0026823142543435097,-0.0019619399681687355,-0.0019977372139692307,1.0002585649490356,0.0,0.0,0.0,10.978092193603516,2.1172292232513428,5.790158748626709,-1987.0565185546875,0
485.65200000000004,-0.01220193225890398,0.00831057969480753,-0.0006432520458474755,0.0,0.0,0.0,0.0,-0.000344596104696393,0.0012532398104667664,-0.002530154539272189,0.9997163414955139,0.0,0.0,0.0,10.994418144226074,2.1203982830047607,5.794102191925049,-1990.0115966796875,0
495.5709999999999,-0.012221877463161945,0.008298764005303383,-0.0006380874547176063,0.0,0.0,0.0,0.0,-0.0011287679662927985,-0.0002562380686867982,0.005077212117612362,0.9992386102676392,0.0,0.0,0.0,10.982500076293945,2.118360996246338,5.776402950286865,-1987.8544921875,0
505.47999999999956,-0.012217293493449688,0.008297337219119072,-0.0005996024119667709,0.0,0.0,0.0,0.0,0.005243415478616953,0.0031377628911286592,-0.0020871569868177176,0.9991446733474731,0.0,0.0,0.0,10.993077278137207,2.119971513748169,5.783303260803223,-1989.7689208984375,0
515.3950000000004,-0.01223569456487894,0.008285787887871265,-0.000592377211432904,0.0,0.0,0.0,0.0,-0.0014190953224897385,0.0031072485726326704,0.00030225864611566067,1.0011123418807983,0.0,0.0,0.0,10.981339454650879,2.1101784706115723,5.765712261199951,-1987.644287109375,0
525.2990000000009,-0.012253492139279842,0.00827461201697588,-0.0005851658061146736,0.0,0.0,0.0,0.0,-0.0019202032126486301,-0.0006173221045173705,0.0012290035374462605,0.9999011158943176,0.0,0.0,0.0,10.970693588256836,2.112990140914917,5.743322849273682,-1985.717529296875,0
535.2209999999995,-0.012271285988390446,0.008263780735433102,-0.0005774036981165409,0.0,0.0,0.0,0.0,0.0016363889444619417,-0.005566940177232027,-0.0008357296464964747,1.0009312629699707,0.0,0.0,0.0,10.96036148071289,2.1128013134002686,5.7382917404174805,-1983.847412109375,0
545.1190000000006,-0.012265929020941257,0.008265477605164051,-0.0005212218966335058,0.0,0.0,0.0,0.0,0.00029242568416520953,0.0026972168125212193,-0.0038146586157381535,0.9993109703063965,0.0,0.0,0.0,10.979304313659668,2.115739107131958,5.761063098907471,-1987.2760009765625,0
555.0420000000013,-0.012283272109925747,0.00825573317706585,-0.000508861499838531,0.0,0.0,0.0,0.0,-0.00015043899475131184,-0.001968360273167491,0.0029061008244752884,0.9992091655731201,0.0,0.0,0.0,10.967025756835938,2.1162281036376953,5.750315189361572,-1985.053466796875,0
564.9410000000007,-0.012242765165865421,0.008214359171688557,-0.00044074447941966355,0.0,0.0,0.0,0.0,0.0008909226744435728,0.005692851729691029,-9.580852201906964e-05,1.0004689693450928,0.0,0.0,0.0,10.97745132446289,2.093517303466797,5.7824578285217285,-1986.940673828125,0
574.862000000001,-0.01225669402629137,0.008201041258871555,-0.00042511968058533967,0.0,0.0,0.0,0.0,-0.001259382232092321,0.001741630956530571,-0.00291167083196342,0.9998719692230225,0.0,0.0,0.0,10.966595649719238,2.095289707183838,5.767165660858154,-1984.9755859375,0
584.7650000000012,-0.01224145945161581,0.008173549547791481,-0.00036549943615682423,0.0,0.0,0.0,0.0,-0.0004605608410201967,0.003421420231461525,0.002163047669455409,1.0023434162139893,0.0,0.0,0.0,10.979720115661621,2.087369918823242,5.781002521514893,-1987.3511962890625,0
594.6940000000013,-0.01209912821650505,0.008338660933077335,-0.0007404802599921823,0.0,0.0,0.0,0.0,-0.00142630934715271,-0.0008774636080488563,-0.0023925472050905228,1.000731110572815,0.0,0.0,0.0,10.999344825744629,2.1145286560058594,5.794127941131592,-1990.9033203125,0
604.5860000000011,-0.012050580233335495,0.008334949612617493,-0.0007232403149828315,0.0,0.0,0.0,0.0,-0.0025615033227950335,-0.0007011301931925118,0.0016581595409661531,0.9980176687240601,0.0,0.0,0.0,11.006499290466309,2.1133360862731934,5.79365873336792,-1992.1982421875,0
614.5150000000012,-0.012038985267281532,0.008383873850107193,-0.0007266699685715139,0.0,0.0,0.0,0.0,-0.002736547729000449,0.003236431162804365,-0.0016067286487668753,0.9983604550361633,0.0,0.0,0.0,11.021852493286133,2.1170167922973633,5.790738582611084,-1994.9771728515625,0
624.4120000000003,-0.012061862275004387,0.008339716121554375,-0.0007566671702079475,0.0,0.0,0.0,0.0,-0.0006297494983300567,0.0019556540064513683,-0.002701038960367441,0.9983000159263611,0.0,0.0,0.0,11.02729606628418,2.1137521266937256,5.777898788452148,-1995.962646484375,0
634.3260000000009,-0.012064706534147263,0.008352523669600487,-0.0007572610047645867,0.0,0.0,0.0,0.0,0.00047462392831221223,0.003621886484324932,0.00010342642781324685,0.9975871443748474,0.0,0.0,0.0,11.041402816772461,2.1139750480651855,5.771389484405518,-1998.515869140625,0
644.2360000000008,-0.01208755373954773,0.008366274647414684,-0.000767613179050386,0.0,0.0,0.0,0.0,-0.002198928501456976,-0.0023542779963463545,-0.0007750061922706664,1.000969648361206,0.0,0.0,0.0,11.052334785461426,2.109907627105713,5.752837657928467,-2000.4945068359375,0
654.1450000000004,-0.012099621817469597,0.00837032962590456,-0.0007629208848811686,0.0,0.0,0.0,0.0,-0.001984097296372056,0.001385575975291431,-0.0004594595229718834,1.0000437498092651,0.0,0.0,0.0,11.065226554870605,2.1114661693573,5.752209663391113,-2002.827880859375,0
664.0550000000003,-0.012032843194901943,0.008356750011444092,-0.0007551697781309485,0.0,0.0,0.0,0.0,-0.0017446224810555577,-0.00133009091950953,0.0038231927901506424,0.9995360970497131,0.0,0.0,0.0,11.068860054016113,2.1089560985565186,5.747814178466797,-2003.4857177734375,0
673.978000000001,-0.012046851217746735,0.008346389047801495,-0.0007551143644377589,0.0,0.0,0.0,0.0,-0.0015182176139205694,-0.003833960508927703,-0.0016764040337875485,0.998329222202301,0.0,0.0,0.0,11.058293342590332,2.111067295074463,5.73994255065918,-2001.5731201171875,0
683.8790000000008,-0.012095263227820396,0.008384354412555695,-0.0007499140920117497,0.0,0.0,0.0,0.0,-0.0009982127230614424,0.0018358452944085002,0.00030196469742804766,0.9982251524925232,0.0,0.0,0.0,11.065966606140137,2.1152048110961914,5.738895893096924,-2002.9617919921875,0
693.7929999999997,-0.012135696597397327,0.008379234932363033,-0.0007067941478453577,0.0,0.0,0.0,0.0,-0.0017397175543010235,0.0010978272184729576,-0.00013880582991987467,1.0013359785079956,0.0,0.0,0.0,11.080484390258789,2.1107826232910156,5.7242021560668945,-2005.5897216796875,0
703.7030000000013,-0.012050190940499306,0.008344504982233047,-0.0006926640635356307,0.0,0.0,0.0,0.0,0.0019514193991199136,7.432723941747099e-05,0.0031761990394443274,0.9999871850013733,0.0,0.0,0.0,11.085051536560059,2.1109814643859863,5.720056533813477,-2006.4163818359375,0
713.625,-0.012088757939636707,0.008316872641444206,-0.0006630916032008827,0.0,0.0,0.0,0.0,0.0010197224328294396,-0.0020123173017054796,-2.0117957319598645e-05,0.9978715181350708,0.0,0.0,0.0,11.097719192504883,2.10447096824646,5.718907833099365,-2008.709228515625,0
723.5290000000005,-0.012067848816514015,0.008313735015690327,-0.0006540045724250376,0.0,0.0,0.0,0.0,0.002072084229439497,-0.004499437753111124,-0.000187088837265037,0.9984621405601501,0.0,0.0,0.0,11.100852012634277,2.1089529991149902,5.719770908355713,-2009.2763671875,0
733.4359999999997,-0.01209732610732317,0.008322915993630886,-0.0006245140102691948,0.0,0.0,0.0,0.0,-0.00126692617777735,0.004400427453219891,-0.001714772661216557,0.9998033046722412,0.0,0.0,0.0,11.11361312866211,2.105114221572876,5.72305154800415,-2011.5859375,0
743.3580000000002,-0.012138298712670803,0.008325040340423584,-0.0006314467755146325,0.0,0.0,0.0,0.0,0.002961146179586649,-0.00018101435853168368,-0.002593965269625187,0.9988669157028198,0.0,0.0,0.0,11.121182441711426,2.1085846424102783,5.711326599121094,-2012.9560546875,0
753.264000000001,-0.012124092318117619,0.008352105505764484,-0.0006639817729592323,0.0,0.0,0.0,0.0,0.0013513251906260848,0.0075050522573292255,-0.0029254502151161432,1.0000782012939453,0.0,0.0,0.0,11.130048751831055,2.101796865463257,5.709327697753906,-2014.560791015625,0
763.1730000000007,-0.0121310381218791,0.008348437026143074,-0.0006655519246123731,0.0,0.0,0.0,0.0,0.0009472612873651087,-0.00021774419292341918,-0.000805326213594526,0.999890148639679,0.0,0.0,0.0,11.132237434387207,2.1022775173187256,5.6885905265808105,-2014.9571533203125,0
773.0799999999999,-0.01215844601392746,0.008330456912517548,-0.0006648224662058055,0.0,0.0,0.0,0.0,0.0006434203824028373,-0.0036500783171504736,0.0009446732583455741,1.0014110803604126,0.0,0.0,0.0,11.121230125427246,2.0961906909942627,5.680627346038818,-2012.9647216796875,0
782.9979999999996,-0.012157321907579899,0.008334931917488575,-0.000655456620734185,0.0,0.0,0.0,0.0,-0.0004174099303781986,0.005210730712860823,0.000900121929589659,0.9987092614173889,0.0,0.0,0.0,11.12254810333252,2.092041254043579,5.681870937347412,-2013.203369140625,0
792.9050000000007,-0.012146969325840473,0.008347345516085625,-0.0007091208244673908,0.0,0.0,0.0,0.0,0.0018569851526990533,0.00032064810511656106,0.0014228817308321595,0.9994977712631226,0.0,0.0,0.0,11.133862495422363,2.0925612449645996,5.673140048980713,-2015.2513427734375,0
802.8190000000013,-0.01217969786375761,0.008331799879670143,-0.000711251690518111,0.0,0.0,0.0,0.0,-0.0045718965120613575,0.001853901194408536,-0.001818028511479497,1.000058889389038,0.0,0.0,0.0,11.122344970703125,2.0881688594818115,5.664300441741943,-2013.16650390625,0
812.7260000000006,-0.012178570032119751,0.008383531123399734,-0.000748331833165139,0.0,0.0,0.0,0.0,-0.0024809548631310463,0.0003757785598281771,0.0003851369838230312,0.9981217384338379,0.0,0.0,0.0,11.131128311157227,2.105093240737915,5.668054103851318,-2014.75634765625,0
822.6380000000008,-0.012098957784473896,0.008328304626047611,-0.0007414462161250412,0.0,0.0,0.0,0.0,0.0013507948024198413,0.0014692957047373056,0.0005769407725892961,0.9988675713539124,0.0,0.0,0.0,11.128732681274414,2.0915486812591553,5.67030668258667,-2014.32275390625,0
832.5550000000003,-0.012107724323868752,0.008349541574716568,-0.0007620423566550016,0.0,0.0,0.0,0.0,-0.001726379618048668,-0.0011873350013047457,0.003812735667452216,0.9999911785125732,0.0,0.0,0.0,11.134003639221191,2.097874641418457,5.66871452331543,-2015.2767333984375,0
842.4610000000011,-0.012091750279068947,0.008308540098369122,-0.0007784329354763031,0.0,0.0,0.0,0.0,0.00022304317099042237,-0.003451576689258218,0.001186894136480987,1.0001953840255737,0.0,0.0,0.0,11.135554313659668,2.092378854751587,5.655742168426514,-2015.5574951171875,0
852.3720000000012,-0.012065082788467407,0.008364906534552574,-0.000836956431157887,0.0,0.0,0.0,0.0,0.0021663277875632048,-0.0005387890851125121,0.001217990880832076,0.9989510774612427,0.0,0.0,0.0,11.143091201782227,2.0967700481414795,5.666064739227295,-2016.9217529296875,0
862.2830000000013,-0.012101429514586926,0.008387402631342411,-0.0008473985362797976,0.0,0.0,0.0,0.0,0.0008325455128215253,0.002007477218285203,-0.0007476486498489976,0.9999258518218994,0.0,0.0,0.0,11.143928527832031,2.10172963142395,5.660216808319092,-2017.0732421875,0
872.2090000000007,-0.01213882677257061,0.008402736857533455,-0.0008404147811233997,0.0,0.0,0.0,0.0,-0.0009977485751733184,0.004213935229927301,-0.0009116372093558311,0.9988067150115967,0.0,0.0,0.0,11.148782730102539,2.0993592739105225,5.653204917907715,-2017.951904296875,0
882.112000000001,-0.012079010717570782,0.008347559720277786,-0.000846821058075875,0.0,0.0,0.0,0.0,6.86118146404624e-05,0.0024214615114033222,-0.00440105888992548,0.9992218613624573,0.0,0.0,0.0,11.145905494689941,2.092456340789795,5.642401218414307,-2017.4312744140625,0
892.0240000000013,-0.012120443396270275,0.008350967429578304,-0.000839222630020231,0.0,0.0,0.0,0.0,0.0006542663904838264,0.0025462608318775892,0.0002747332619037479,1.0000591278076172,0.0,0.0,0.0,11.15190315246582,2.0989344120025635,5.633928298950195,-2018.5166015625,0
901.9300000000003,-0.012037815526127815,0.008342425338923931,-0.0008169829961843789,0.0,0.0,0.0,0.0,0.0018784406129270792,0.0014434999320656061,0.0035264724865555763,1.000362753868103,0.0,0.0,0.0,11.150707244873047,2.0879437923431396,5.632030010223389,-2018.30029296875,0
911.8540000000012,-0.012121230363845825,0.008297077380120754,-0.0007655865047127008,0.0,0.0,0.0,0.0,-0.0026140136178582907,0.0032980716787278652,0.0015669465065002441,1.0005333423614502,0.0,0.0,0.0,11.157870292663574,2.07660174369812,5.610423564910889,-2019.5968017578125,0
921.7520000000004,-0.012094077654182911,0.008265864104032516,-0.0007606094586662948,0.0,0.0,0.0,0.0,0.00016917679749894887,-0.0029414272867143154,0.0022173379547894,0.999336302280426,0.0,0.0,0.0,11.157791137695312,2.079530954360962,5.602937698364258,-2019.58251953125,0
931.6720000000005,-0.012145603075623512,0.008283434435725212,-0.0007274862728081644,0.0,0.0,0.0,0.0,0.003160173539072275,0.004879257641732693,-0.0023672094102948904,0.9991805553436279,0.0,0.0,0.0,11.164763450622559,2.081956386566162,5.597309112548828,-2020.8443603515625,0
941.5780000000013,-0.012104854919016361,0.008268416859209538,-0.0007080751820467412,0.0,0.0,0.0,0.0,-0.0018478062702342868,0.001853887690231204,0.0048594363033771515,0.9990192651748657,0.0,0.0,0.0,11.162425994873047,2.0684494972229004,5.583404541015625,-2020.42138671875,0
951.4989999999998,-0.012183661572635174,0.0082283616065979,-0.0006633136072196066,0.0,0.0,0.0,0.0,0.0003702921967487782,-0.001116523751989007,0.0017211957601830363,1.0008631944656372,0.0,0.0,0.0,11.168379783630371,2.0663905143737793,5.571755886077881,-2021.4989013671875,0
961.3970000000008,-0.01222231611609459,0.008273791521787643,-0.0006415228126570582,0.0,0.0,0.0,0.0,-0.0006147274980321527,0.0024606247898191214,0.000999758020043373,1.0011579990386963,0.0,0.0,0.0,11.170312881469727,2.0730912685394287,5.556849956512451,-2021.848876953125,0
971.3240000000005,-0.012273560278117657,0.008249263279139996,-0.0006351841730065644,0.0,0.0,0.0,0.0,0.0013988824794068933,-0.0003273830225225538,0.003515527117997408,0.9996872544288635,0.0,0.0,0.0,11.157793045043945,2.073240280151367,5.53663444519043,-2019.5828857421875,0
981.219000000001,-0.012212252244353294,0.008273286744952202,-0.0005998646374791861,0.0,0.0,0.0,0.0,-0.0018882394069805741,-0.0034175387118011713,0.0019290127092972398,0.9999250769615173,0.0,0.0,0.0,11.155807495117188,2.0780751705169678,5.540708541870117,-2019.2232666015625,0
991.1400000000012,-0.012224210426211357,0.008289718069136143,-0.0006360732368193567,0.0,0.0,0.0,0.0,0.0008003672119230032,0.0017879664665088058,0.0027744246181100607,0.9975862503051758,0.0,0.0,0.0,11.16422176361084,2.085679769515991,5.545815944671631,-2020.7464599609375,0
1001.0510000000013,-0.012194997631013393,0.008291313424706459,-0.0006089720409363508,0.0,0.0,0.0,0.0,-0.003437127685174346,0.0007355949492193758,-0.002356640063226223,0.9982733726501465,0.0,0.0,0.0,11.164573669433594,2.083710193634033,5.552678108215332,-2020.81005859375,0
1010.9719999999998,-0.012178713455796242,0.00833138544112444,-0.0006772904889658093,0.0,0.0,0.0,0.0,-0.0004921907093375921,-0.0031349225901067257,-0.0006194495945237577,1.000580072402954,0.0,0.0,0.0,11.166399955749512,2.0951318740844727,5.552060604095459,-2021.140625,0
1020.8700000000008,-0.012161575257778168,0.008327176794409752,-0.000662473845295608,0.0,0.0,0.0,0.0,0.00421705050393939,0.00045615434646606445,-0.0007664424483664334,1.001647710800171,0.0,0.0,0.0,11.167984008789062,2.1010029315948486,5.568050861358643,-2021.4273681640625,0
1030.7880000000005,-0.012124375440180302,0.008402861654758453,-0.0007578523363918066,0.0,0.0,0.0,0.0,-0.0025257233064621687,0.005540088750422001,-0.0014191374648362398,1.0005342960357666,0.0,0.0,0.0,11.170791625976562,2.112511396408081,5.583393096923828,-2021.935546875,0
1040.7020000000011,-0.012161717750132084,0.008370820432901382,-0.000774284009821713,0.0,0.0,0.0,0.0,0.0004910561256110668,0.004955229349434376,-0.002128517022356391,0.9981448650360107,0.0,0.0,0.0,11.17207145690918,2.1130154132843018,5.564158916473389,-2022.167236328125,0
1050.616,-0.012148061767220497,0.008420403115451336,-0.0008546255994588137,0.0,0.0,0.0,0.0,0.00064412213396281,0.0036250255070626736,0.00030344483093358576,1.0016425848007202,0.0,0.0,0.0,11.178853988647461,2.115752696990967,5.564644813537598,-2023.394775390625,0
1060.5190000000002,-0.012131023220717907,0.008394535630941391,-0.0008593907114118338,0.0,0.0,0.0,0.0,0.0018909816863015294,0.0011082671117037535,0.00427544629201293,1.000015139579773,0.0,0.0,0.0,11.177994728088379,2.1049654483795166,5.558478355407715,-2023.2392578125,0
1070.442000000001,-0.012183649465441704,0.008377010934054852,-0.0008702627383172512,0.0,0.0,0.0,0.0,-0.0016971759032458067,-0.0015085230115801096,-0.0022418838925659657,0.9992051124572754,0.0,0.0,0.0,11.168872833251953,2.0979182720184326,5.556493282318115,-2021.588134765625,0
1080.3340000000007,-0.012237705290317535,0.008358359336853027,-0.0008811181178316474,0.0,0.0,0.0,0.0,0.0020533762872219086,0.004147993866354227,0.0046629272401332855,1.001386046409607,0.0,0.0,0.0,11.157480239868164,2.097919225692749,5.550171852111816,-2019.5260009765625,0
1090.2540000000008,-0.01229330524802208,0.008339221589267254,-0.0008915960788726807,0.0,0.0,0.0,0.0,0.000538649270310998,-0.0033949350472539663,0.00015588440874125808,1.000627040863037,0.0,0.0,0.0,11.147567749023438,2.0880911350250244,5.536242485046387,-2017.73193359375,0
1100.1630000000005,-0.012170160189270973,0.008317065425217152,-0.0008628935320302844,0.0,0.0,0.0,0.0,-0.0036526722833514214,-0.002295201411470771,3.671961894724518e-05,1.0004032850265503,0.0,0.0,0.0,11.14569091796875,2.074810028076172,5.570870399475098,-2017.392333984375,0
1110.0789999999997,-0.012241409160196781,0.008301893249154091,-0.0008111413335427642,0.0,0.0,0.0,0.0,-0.0011189414653927088,0.0027478178963065147,-2.7693098672898486e-05,1.0011024475097656,0.0,0.0,0.0,11.151347160339355,2.0897514820098877,5.565603256225586,-2018.416015625,0
1119.9830000000002,-0.012142733670771122,0.008271364495158195,-0.0007721097790636122,0.0,0.0,0.0,0.0,-4.629409886547364e-05,0.0006513908156193793,0.0006219545030035079,0.9985243082046509,0.0,0.0,0.0,11.149550437927246,2.0839574337005615,5.571533203125,-2018.0908203125,0
1129.9009999999998,-0.012229644693434238,0.00823034904897213,-0.0007099580252543092,0.0,0.0,0.0,0.0,0.003733875462785363,0.00012165895168436691,0.0014278754824772477,1.000748634338379,0.0,0.0,0.0,11.154153823852539,2.082462787628174,5.554630756378174,-2018.924072265625,0
1139.8029999999999,-0.012218690477311611,0.008262394927442074,-0.0006721741519868374,0.0,0.0,0.0,0.0,0.005336178932338953,0.009496469050645828,0.0008448796579614282,0.9994533061981201,0.0,0.0,0.0,11.157698631286621,2.081911325454712,5.55224609375,-2019.565673828125,0
1149.7260000000006,-0.01227516494691372,0.008244873955845833,-0.0006514466949738562,0.0,0.0,0.0,0.0,-0.0030386836733669043,-0.0024359244853258133,0.0004987886059097946,0.9995020627975464,0.0,0.0,0.0,11.161558151245117,2.072615385055542,5.518207550048828,-2020.2642822265625,0
1159.625,-0.012241028249263763,0.00824449211359024,-0.0006124292849563062,0.0,0.0,0.0,0.0,-0.001789552392438054,-0.0008209730149246752,0.004919187165796757,1.0005302429199219,0.0,0.0,0.0,11.159282684326172,2.080846071243286,5.522584438323975,-2019.8524169921875,0
1169.545,-0.012293181382119656,0.008219258859753609,-0.0006000333232805133,0.0,0.0,0.0,0.0,0.00029336867737583816,0.0014998525148257613,0.0005435926141217351,1.0010080337524414,0.0,0.0,0.0,11.149624824523926,2.08333683013916,5.525821685791016,-2018.104248046875,0
1179.4480000000003,-0.012281582690775394,0.008235364221036434,-0.0005670769023708999,0.0,0.0,0.0,0.0,-0.0012145451037213206,0.002970985369756818,-0.0021082707680761814,0.9986581802368164,0.0,0.0,0.0,11.152524948120117,2.0830864906311035,5.525518894195557,-2018.6292724609375,0
1189.3760000000002,-0.012333651073276997,0.008209425956010818,-0.0005522400024347007,0.0,0.0,0.0,0.0,0.0008751190616749227,-0.0029725339263677597,0.004565912764519453,0.9981727004051208,0.0,0.0,0.0,11.140288352966309,2.0788731575012207,5.5130228996276855,-2016.4144287109375,0
1199.2710000000006,-0.012241688556969166,0.008251453749835491,-0.0005007855943404138,0.0,0.0,0.0,0.0,0.00025581844965927303,-0.0015057431301102042,-0.00237188464961946,1.001542091369629,0.0,0.0,0.0,11.139870643615723,2.0825395584106445,5.537578105926514,-2016.3388671875,0
1209.196,-0.012215380556881428,0.008320750668644905,-0.0005941082490608096,0.0,0.0,0.0,0.0,-0.0010662713320925832,0.0009111505351029336,-0.0028167921118438244,1.0006722211837769,0.0,0.0,0.0,11.147133827209473,2.0999088287353516,5.546422481536865,-2017.6533203125,0
1219.094000000001,-0.012236719951033592,0.008309642784297466,-0.0005817218334414065,0.0,0.0,0.0,0.0,-0.0026349015533924103,-0.0023257513530552387,-0.00018711676239036024,0.9986074566841125,0.0,0.0,0.0,11.148738861083984,2.0990545749664307,5.532707691192627,-2017.9439697265625,0
1229.0210000000006,-0.012217558920383453,0.008371452800929546,-0.0006520706810988486,0.0,0.0,0.0,0.0,-0.0012548922095447779,-0.0037988380063325167,-0.00018032186198979616,0.9986045360565186,0.0,0.0,0.0,11.151622772216797,2.1111373901367188,5.545517921447754,-2018.4659423828125,0
1238.9269999999997,-0.012188476510345936,0.00832424871623516,-0.0006441318546421826,0.0,0.0,0.0,0.0,0.0044281017035245895,0.0019520513014867902,0.0017893462209030986,0.9991878867149353,0.0,0.0,0.0,11.150511741638184,2.105478286743164,5.548917293548584,-2018.2647705078125,0
1248.8400000000001,-0.012196713127195835,0.008365829475224018,-0.0006858037086203694,0.0,0.0,0.0,0.0,0.0002920562110375613,-0.0029965315479785204,-0.0017200252041220665,0.998986005783081,0.0,0.0,0.0,11.153493881225586,2.103634834289551,5.548133850097656,-2018.8045654296875,0
1258.7510000000002,-0.012193096801638603,0.0083360206335783,-0.0006828668410889804,0.0,0.0,0.0,0.0,-0.000935424817726016,0.0032377217430621386,0.001396660110913217,1.0022891759872437,0.0,0.0,0.0,11.152788162231445,2.1001193523406982,5.5518412590026855,-2018.677001953125,0
1268.6620000000003,-0.012250518426299095,0.008312772959470749,-0.0006831708014942706,0.0,0.0,0.0,0.0,0.002164197852835059,0.001482233521528542,0.0026026146952062845,1.0020473003387451,0.0,0.0,0.0,11.141911506652832,2.1010684967041016,5.541685104370117,-2016.708251953125,0
1278.5720000000001,-0.012193155474960804,0.008247370831668377,-0.0006794241489842534,0.0,0.0,0.0,0.0,0.001071734121069312,-0.00119187799282372,0.002295535057783127,1.0015417337417603,0.0,0.0,0.0,11.144597053527832,2.081019878387451,5.546138763427734,-2017.1943359375,0
1288.4840000000004,-0.01217434648424387,0.008329050615429878,-0.0007547680288553238,0.0,0.0,0.0,0.0,-0.002055306453257799,0.0026894998736679554,-0.0034763815347105265,1.0021662712097168,0.0,0.0,0.0,11.148127555847168,2.0916993618011475,5.560652732849121,-2017.8333740234375,0
1298.3999999999996,-0.012080421671271324,0.00829099677503109,-0.000725556630641222,0.0,0.0,0.0,0.0,0.0014422975946217775,-0.0020816263277083635,-0.0011361159849911928,0.9999996423721313,0.0,0.0,0.0,11.149075508117676,2.0869481563568115,5.570794582366943,-2018.0048828125,0
1308.308000000001,-0.012093673460185528,0.008337469771504402,-0.0007533103344030678,0.0,0.0,0.0,0.0,-0.0005764598026871681,-0.0016805465565994382,0.0004662501160055399,0.9997208118438721,0.0,0.0,0.0,11.157794952392578,2.0958938598632812,5.57859468460083,-2019.5830078125,0
1318.2150000000001,-0.012027163058519363,0.00826964434236288,-0.0007385639473795891,0.0,0.0,0.0,0.0,-0.0019876575097441673,0.0011229795636609197,0.0008922811830416322,1.002418875694275,0.0,0.0,0.0,11.154788970947266,2.0830769538879395,5.584689140319824,-2019.0389404296875,0
1328.1290000000008,-0.012057201005518436,0.008304934948682785,-0.0007423027418553829,0.0,0.0,0.0,0.0,-0.0029763178899884224,0.0014190388610586524,-0.0014845752157270908,0.9994480013847351,0.0,0.0,0.0,11.15874195098877,2.0930607318878174,5.576174259185791,-2019.7545166015625,0
1338.0390000000007,-0.01206914521753788,0.008263605646789074,-0.0007420635083690286,0.0,0.0,0.0,0.0,-0.000992391025647521,-0.001992705976590514,0.002681951504200697,0.9985421895980835,0.0,0.0,0.0,11.15649700164795,2.0959115028381348,5.569179058074951,-2019.34814453125,0
1347.9470000000001,-0.01216261088848114,0.008257965557277203,-0.0006898074643686414,0.0,0.0,0.0,0.0,0.0022577557247132063,0.002387442858889699,0.00032777429441921413,0.9995748400688171,0.0,0.0,0.0,11.163116455078125,2.098424196243286,5.567604064941406,-2020.5462646484375,0
1357.8639999999996,-0.012115899473428726,0.008209054358303547,-0.0006703364779241383,0.0,0.0,0.0,0.0,-0.0008528393227607012,-0.0007114210748113692,0.004711005371063948,1.000641107559204,0.0,0.0,0.0,11.164037704467773,2.0889110565185547,5.562570571899414,-2020.7130126953125,0
1367.7720000000008,-0.012178488075733185,0.008176317438483238,-0.0006631528958678246,0.0,0.0,0.0,0.0,0.0018633404979482293,0.0008540799026377499,0.002043316140770912,0.9998839497566223,0.0,0.0,0.0,11.15470027923584,2.085350513458252,5.556276798248291,-2019.0230712890625,0
1377.6820000000007,-0.012243100441992283,0.008141770958900452,-0.0006555391009896994,0.0,0.0,0.0,0.0,-0.0035417387261986732,-2.720691372815054e-05,-0.00028048810781911016,0.9985287189483643,0.0,0.0,0.0,11.143460273742676,2.0727431774139404,5.547392845153809,-2016.988525390625,0
1387.594000000001,-0.012266319245100021,0.008182748220860958,-0.0006809267797507346,0.0,0.0,0.0,0.0,-0.0004806356446351856,0.0010770627995952964,-0.00364163750782609,1.0011272430419922,0.0,0.0,0.0,11.153219223022461,2.090524196624756,5.555444717407227,-2018.7548828125,0
1397.5069999999996,-0.012298311106860638,0.008213094435632229,-0.0006520648021250963,0.0,0.0,0.0,0.0,-9.566905646352097e-05,0.0026106529403477907,-0.0032379666808992624,1.0001411437988281,0.0,0.0,0.0,11.153735160827637,2.101065158843994,5.547919273376465,-2018.84814453125,0
1407.4220000000005,-0.012287069112062454,0.008283833973109722,-0.0007214249926619232,0.0,0.0,0.0,0.0,0.002545610535889864,-0.0025875363498926163,-0.0018146189395338297,0.9983848333358765,0.0,0.0,0.0,11.159174919128418,2.108440399169922,5.55458927154541,-2019.8330078125,0
1417.3340000000007,-0.012240191921591759,0.008306627161800861,-0.0006737933144904673,0.0,0.0,0.0,0.0,-0.0009836590616032481,-0.0027141436003148556,2.572293124103453e-05,0.9990890026092529,0.0,0.0,0.0,11.157676696777344,2.104339361190796,5.570014953613281,-2019.5616455078125,0
1427.2520000000004,-0.012253917753696442,0.008351579308509827,-0.0007142453105188906,0.0,0.0,0.0,0.0,-0.0013183767441660166,0.003796888515353203,-0.0020596631802618504,0.998694896697998,0.0,0.0,0.0,11.157516479492188,2.112752914428711,5.5782294273376465,-2019.5325927734375,0
1437.157000000001,-0.01226250734180212,0.008357402868568897,-0.0006992353009991348,0.0,0.0,0.0,0.0,0.001344395219348371,0.0011939487885683775,6.150413537397981e-05,0.9996724724769592,0.0,0.0,0.0,11.15737533569336,2.1145901679992676,5.562506675720215,-2019.5072021484375,0
1447.0690000000013,-0.012284573167562485,0.008382200263440609,-0.0007425248622894287,0.0,0.0,0.0,0.0,-0.0007776229176670313,-0.00038980465615168214,0.004801700823009014,0.9977072477340698,0.0,0.0,0.0,11.158567428588867,2.1137049198150635,5.559565544128418,-2019.7230224609375,0
1456.969000000001,-0.012217984534800053,0.00834814552217722,-0.0007219832623377442,0.0,0.0,0.0,0.0,0.0003738312516361475,-0.002129871631041169,-0.0007183694979175925,1.0001366138458252,0.0,0.0,0.0,11.163150787353516,2.1072869300842285,5.564659118652344,-2020.552490234375,0
1466.9080000000013,-0.012281580828130245,0.008336183615028858,-0.0007214355282485485,0.0,0.0,0.0,0.0,-2.120097997249104e-05,0.0038611297495663166,0.0029857580084353685,1.0009971857070923,0.0,0.0,0.0,11.168536186218262,2.1044998168945312,5.559986114501953,-2021.52734375,0
1476.799000000001,-0.012234516441822052,0.008319812826812267,-0.0006972338887862861,0.0,0.0,0.0,0.0,-0.0012026762124150991,-0.00257241353392601,0.003898368449881673,0.9993308782577515,0.0,0.0,0.0,11.17024040222168,2.095876932144165,5.557400226593018,-2021.8358154296875,0
1486.7119999999995,-0.01225443184375763,0.008345628157258034,-0.0007392034167423844,0.0,0.0,0.0,0.0,0.0002752411237452179,0.0029708126094192266,-0.003529082518070936,1.0002243518829346,0.0,0.0,0.0,11.17445182800293,2.099954843521118,5.5655012130737305,-2022.5980224609375,0
1496.6180000000004,-0.012224642559885979,0.008353321813046932,-0.0007118408102542162,0.0,0.0,0.0,0.0,0.0009126195218414068,0.0011706518707796931,0.0011413490865379572,1.0010733604431152,0.0,0.0,0.0,11.170246124267578,2.10159969329834,5.561926364898682,-2021.836669921875,0
1506.532000000001,-0.01224718987941742,0.00835144892334938,-0.0007615724462084472,0.0,0.0,0.0,0.0,0.00015688843268435448,0.0007354466360993683,0.0027856389060616493,0.9994890689849854,0.0,0.0,0.0,11.173800468444824,2.1010379791259766,5.555693626403809,-2022.4801025390625,0
1516.437,-0.012176455929875374,0.008316295221447945,-0.0007388796075247228,0.0,0.0,0.0,0.0,0.0031954424921423197,0.0026003930252045393,-0.00010421664774185047,0.9990054965019226,0.0,0.0,0.0,11.169524192810059,2.0948286056518555,5.558538913726807,-2021.7060546875,0
1526.3600000000006,-0.012212887406349182,0.008328499272465706,-0.0007593079353682697,0.0,0.0,0.0,0.0,-0.003790352027863264,-0.0015651616267859936,-0.0001621943956706673,1.0000289678573608,0.0,0.0,0.0,11.169424057006836,2.0897927284240723,5.546468734741211,-2021.6881103515625,0
1536.264000000001,-0.012185387313365936,0.008295507170259953,-0.0007484190864488482,0.0,0.0,0.0,0.0,0.0004761749878525734,0.0027796493377536535,0.0019585415720939636,0.9981653690338135,0.0,0.0,0.0,11.158467292785645,2.0929713249206543,5.539376735687256,-2019.704833984375,0
1546.1850000000013,-0.012219707481563091,0.008325859904289246,-0.000768975296523422,0.0,0.0,0.0,0.0,-0.002867794595658779,0.00149578507989645,-0.0006294235936366022,1.0010148286819458,0.0,0.0,0.0,11.161847114562988,2.097153902053833,5.534825325012207,-2020.3165283203125,0
1556.0860000000011,-0.012123744003474712,0.008294322527945042,-0.0007342011667788029,0.0,0.0,0.0,0.0,0.001527133397758007,0.003331144107505679,0.0011757054599002004,0.9997277855873108,0.0,0.0,0.0,11.157833099365234,2.091398000717163,5.5447678565979,-2019.590087890625,0
1566.0020000000004,-0.012160122394561768,0.00832881685346365,-0.0007452779682353139,0.0,0.0,0.0,0.0,0.0010117306374013424,-0.0024911207146942616,-0.0026306777726858854,0.9996379613876343,0.0,0.0,0.0,11.158822059631348,2.089359998703003,5.530279159545898,-2019.7689208984375,0
1575.9089999999997,-0.012182952836155891,0.008331959135830402,-0.0007372230174951255,0.0,0.0,0.0,0.0,0.0011382282245904207,0.0033389332238584757,-0.0006879285210743546,0.9989083409309387,0.0,0.0,0.0,11.160013198852539,2.0923192501068115,5.523326396942139,-2019.984619140625,0
1585.83,-0.012222574092447758,0.008344138972461224,-0.0007572239264845848,0.0,0.0,0.0,0.0,0.0010805134661495686,0.0032849491108208895,-0.003058631671592593,1.0000299215316772,0.0,0.0,0.0,11.162900924682617,2.0910887718200684,5.510837078094482,-2020.50732421875,0
1595.737000000001,-0.01212509348988533,0.008307719603180885,-0.0007223457214422524,0.0,0.0,0.0,0.0,0.0010596871143206954,0.00043873401591554284,-0.0003184980887454003,0.9983056783676147,0.0,0.0,0.0,11.157703399658203,2.0793144702911377,5.514902114868164,-2019.5665283203125,0
1605.6509999999998,-0.012196526862680912,0.008297082968056202,-0.0007027765968814492,0.0,0.0,0.0,0.0,-0.0004800714086741209,0.0012133446289226413,-0.000525440089404583,0.9983218312263489,0.0,0.0,0.0,11.162466049194336,2.076397657394409,5.509483814239502,-2020.4285888671875,0
1615.550000000001,-0.012121500447392464,0.00826721079647541,-0.0006711569149047136,0.0,0.0,0.0,0.0,0.0002693918067961931,-0.0009924665791913867,-0.0009629983687773347,1.0003137588500977,0.0,0.0,0.0,11.163208961486816,2.0703811645507812,5.515556812286377,-2020.56298828125,0
1625.4709999999995,-0.012141005136072636,0.008300220593810081,-0.0007048363331705332,0.0,0.0,0.0,0.0,0.0006282172398641706,-0.0048096091486513615,-0.002405527513474226,0.999250054359436,0.0,0.0,0.0,11.167813301086426,2.074117660522461,5.518858432769775,-2021.3963623046875,0
1635.3729999999996,-0.012160818092525005,0.008270581252872944,-0.0007036968600004911,0.0,0.0,0.0,0.0,0.0018778517842292786,-0.0045286426320672035,-0.0007325982442125678,0.9989160299301147,0.0,0.0,0.0,11.156102180480957,2.0718047618865967,5.523110866546631,-2019.2767333984375,0
1645.2900000000009,-0.012187015265226364,0.008302225731313229,-0.0007368126534856856,0.0,0.0,0.0,0.0,-0.0008397934725508094,-0.0025682360865175724,0.0022807649802416563,0.9986050128936768,0.0,0.0,0.0,11.162013053894043,2.072751045227051,5.531332492828369,-2020.3465576171875,0
1655.2070000000003,-0.01219690777361393,0.008315186016261578,-0.0007183726411312819,0.0,0.0,0.0,0.0,-0.001306723803281784,-0.0018307860009372234,0.0018385205185040832,0.9988725781440735,0.0,0.0,0.0,11.157801628112793,2.0806102752685547,5.531172752380371,-2019.584228515625,0
1665.1200000000008,-0.012226439081132412,0.00834464281797409,-0.0007562683895230293,0.0,0.0,0.0,0.0,-0.0019373081158846617,4.63831820525229e-05,0.0009228521957993507,0.997921884059906,0.0,0.0,0.0,11.15891170501709,2.0873818397521973,5.537664890289307,-2019.7852783203125,0
1675.0259999999998,-0.012165832333266735,0.008289981633424759,-0.0007472415454685688,0.0,0.0,0.0,0.0,0.004478766582906246,0.005822096485644579,-0.003424382070079446,0.9991366863250732,0.0,0.0,0.0,11.154023170471191,2.085083246231079,5.544532775878906,-2018.900390625,0
1684.951000000001,-0.012211334891617298,0.008313979022204876,-0.0007665184093639255,0.0,0.0,0.0,0.0,-0.0005495995283126831,-7.192193152150139e-05,0.0036057252436876297,1.0011769533157349,0.0,0.0,0.0,11.156457901000977,2.084134340286255,5.52921724319458,-2019.341064453125,0
1694.848,-0.012202992103993893,0.008304315619170666,-0.0007562435930594802,0.0,0.0,0.0,0.0,0.0014370611170306802,0.005321389064192772,-0.0015645296080037951,1.0014840364456177,0.0,0.0,0.0,11.155234336853027,2.086623191833496,5.527760982513428,-2019.1195068359375,0
1704.768,-0.012247364968061447,0.00833665020763874,-0.0007741551380604506,0.0,0.0,0.0,0.0,0.001991462195292115,0.0022385402116924524,-0.0003508437657728791,0.9990314245223999,0.0,0.0,0.0,11.157612800598145,2.087275505065918,5.510550022125244,-2019.5501708984375,0
1714.6820000000007,-0.012211074121296406,0.008337299339473248,-0.0007471608696505427,0.0,0.0,0.0,0.0,0.0027793089393526316,0.0006966126384213567,0.0016780139412730932,0.9975951313972473,0.0,0.0,0.0,11.15753173828125,2.0802536010742188,5.507595062255859,-2019.5355224609375,0
1724.5910000000003,-0.012254206463694572,0.00835629366338253,-0.0007731248624622822,0.0,0.0,0.0,0.0,0.003064244519919157,0.0018405214650556445,0.002746115205809474,0.9991967082023621,0.0,0.0,0.0,11.161396980285645,2.0791449546813965,5.501168251037598,-2020.235107421875,0
1734.5040000000008,-0.012194553390145302,0.00833036657422781,-0.0007518994389101863,0.0,0.0,0.0,0.0,0.0006192784057930112,-0.0027975982520729303,0.0033536700066179037,0.9991620182991028,0.0,0.0,0.0,11.16240406036377,2.0718512535095215,5.504504680633545,-2020.4173583984375,0
1744.4170000000013,-0.012261640280485153,0.008305045776069164,-0.0007579625817015767,0.0,0.0,0.0,0.0,-0.002830004319548607,-4.214439104543999e-05,-0.001974124927073717,0.998254120349884,0.0,0.0,0.0,11.151957511901855,2.0688838958740234,5.503198623657227,-2018.5264892578125,0
1754.326000000001,-0.01223522238433361,0.008311362937092781,-0.0007440012414008379,0.0,0.0,0.0,0.0,-0.0003634209278970957,0.00466539803892374,-0.0006139629404060543,0.9984477758407593,0.0,0.0,0.0,11.148621559143066,2.074571371078491,5.505589008331299,-2017.9227294921875,0
1764.2330000000002,-0.012311430647969246,0.008280065841972828,-0.0007343605393543839,0.0,0.0,0.0,0.0,-0.0020912622567266226,0.0010862334165722132,-0.0008011572645045817,1.0016484260559082,0.0,0.0,0.0,11.155552864074707,2.0684421062469482,5.487795829772949,-2019.1773681640625,0
1774.1540000000005,-0.012233548797667027,0.008269320242106915,-0.0006989972316659987,0.0,0.0,0.0,0.0,0.0023457540664821863,0.008315342478454113,-0.0011372040025889874,1.0022549629211426,0.0,0.0,0.0,11.156044006347656,2.06593656539917,5.49431848526001,-2019.2662353515625,0
1784.063,-0.012300563044846058,0.008239892311394215,-0.0006992396665737033,0.0,0.0,0.0,0.0,-0.0026494439225643873,0.002396469237282872,0.0020499054808169603,1.0007950067520142,0.0,0.0,0.0,11.144633293151855,2.0603156089782715,5.476226329803467,-2017.2008056640625,0
1793.9770000000008,-0.012266909703612328,0.008263016119599342,-0.0006687198183499277,0.0,0.0,0.0,0.0,0.000936554919462651,0.0015477992128580809,0.0014727896777912974,0.9987234473228455,0.0,0.0,0.0,11.142603874206543,2.0709524154663086,5.482374668121338,-2016.83349609375,0
1803.8880000000008,-0.012306985445320606,0.008277947083115578,-0.0006924856570549309,0.0,0.0,0.0,0.0,0.0004008851828984916,0.0016642108093947172,-0.0010553124593570828,0.9986480474472046,0.0,0.0,0.0,11.150629043579102,2.0743861198425293,5.477778434753418,-2018.2861328125,0
1813.7920000000013,-0.012221560813486576,0.008218064904212952,-0.0006653533782809973,0.0,0.0,0.0,0.0,0.002834073267877102,0.0015749194426462054,0.0005542782018892467,0.9984443783760071,0.0,0.0,0.0,11.14867115020752,2.063384532928467,5.4802937507629395,-2017.9317626953125,0
1823.7070000000003,-0.012228426523506641,0.00824947189539671,-0.0007263240404427052,0.0,0.0,0.0,0.0,0.0006503391196019948,0.00093781144823879,-0.0015806227456778288,1.002272129058838,0.0,0.0,0.0,11.157855033874512,2.063908100128174,5.484614849090576,-2019.593994140625,0
1833.6280000000006,-0.012183564715087414,0.008219907060265541,-0.0007040242780931294,0.0,0.0,0.0,0.0,0.0038470777217298746,0.002037628786638379,0.0008215135312639177,1.0022573471069336,0.0,0.0,0.0,11.154468536376953,2.059365749359131,5.481827259063721,-2018.98095703125,0
1843.5240000000013,-0.012203752063214779,0.00825776532292366,-0.0007350951782427728,0.0,0.0,0.0,0.0,-0.0008870561141520739,0.003917204216122627,0.0028832873795181513,1.001206636428833,0.0,0.0,0.0,11.154703140258789,2.0615193843841553,5.480443954467773,-2019.0234375,0
1853.4430000000011,-0.012189731001853943,0.008220084942877293,-0.0007243839791044593,0.0,0.0,0.0,0.0,0.0019790534861385822,0.00431851064786315,0.0025749553460627794,0.997792661190033,0.0,0.0,0.0,11.154407501220703,2.056607484817505,5.481029987335205,-2018.969970703125,0
1863.3490000000002,-0.012212792411446571,0.008267305791378021,-0.0007483133813366294,0.0,0.0,0.0,0.0,-0.0029667187482118607,-0.00019254056678619236,0.0025332774966955185,0.9983274936676025,0.0,0.0,0.0,11.15899658203125,2.060380220413208,5.479848861694336,-2019.8006591796875,0
1873.2669999999998,-0.012278025969862938,0.00823803897947073,-0.0007496772450394928,0.0,0.0,0.0,0.0,-0.0007856248994357884,0.0003464463516138494,-0.0002520711568649858,0.9989351034164429,0.0,0.0,0.0,11.148727416992188,2.0606939792633057,5.4803385734558105,-2017.9417724609375,0
1883.1710000000003,-0.012331941165030003,0.008261250331997871,-0.0007514595636166632,0.0,0.0,0.0,0.0,-0.0004958397476002574,0.0003860685683321208,0.0013505087699741125,1.00068998336792,0.0,0.0,0.0,11.152523040771484,2.0695552825927734,5.485550880432129,-2018.62890625,0
1893.0910000000003,-0.012209994718432426,0.008220628835260868,-0.0006885445327498019,0.0,0.0,0.0,0.0,-0.001096662599593401,0.0008890068856999278,0.0016948108095675707,1.000646948814392,0.0,0.0,0.0,11.147439956665039,2.0596513748168945,5.515575885772705,-2017.7088623046875,0
1903.0060000000012,-0.012252074666321278,0.008258072659373283,-0.0006807386525906622,0.0,0.0,0.0,0.0,0.0005410551675595343,-4.345722481957637e-05,-0.0006887387135066092,0.9992371797561646,0.0,0.0,0.0,11.153977394104004,2.0667471885681152,5.519959926605225,-2018.89208984375,0
1912.9060000000009,-0.012313799001276493,0.008227632381021976,-0.0006774534122087061,0.0,0.0,0.0,0.0,0.0022387620992958546,-0.004611100535839796,0.004760223440825939,1.0005477666854858,0.0,0.0,0.0,11.142573356628418,2.0599310398101807,5.5130438804626465,-2016.828125,0
1922.812,-0.012377046048641205,0.008195728063583374,-0.0006741061224602163,0.0,0.0,0.0,0.0,-0.001450589275918901,-0.0011173910461366177,0.0012829456245526671,1.0004205703735352,0.0,0.0,0.0,11.132837295532227,2.055419445037842,5.516108512878418,-2015.065673828125,0
1932.7240000000002,-0.012308883480727673,0.008212927728891373,-0.0006063510663807392,0.0,0.0,0.0,0.0,0.0006639586063101888,-0.0018544633639976382,-0.000605520443059504,0.9991399049758911,0.0,0.0,0.0,11.135499000549316,2.063345432281494,5.53896427154541,-2015.54736328125,0
1942.643,-0.012371526099741459,0.008180257864296436,-0.0005979445995762944,0.0,0.0,0.0,0.0,0.002143668010830879,-0.0007243945146910846,0.004137624986469746,0.999099850654602,0.0,0.0,0.0,11.124031066894531,2.06058669090271,5.536646366119385,-2013.4716796875,0
1952.549000000001,-0.012298482470214367,0.008199885487556458,-0.0005507998284883797,0.0,0.0,0.0,0.0,0.0005364647367969155,-0.0014835689216852188,-0.0027873078361153603,0.9991228580474854,0.0,0.0,0.0,11.127471923828125,2.0618011951446533,5.558958053588867,-2014.094482421875,0
1962.460000000001,-0.012284062802791595,0.008264639414846897,-0.0006351716001518071,0.0,0.0,0.0,0.0,0.0008873979095369577,0.008084969595074654,-0.0004987119464203715,0.9978917837142944,0.0,0.0,0.0,11.136970520019531,2.0821914672851562,5.58201265335083,-2015.813720703125,0
1972.3729999999996,-0.012232135981321335,0.00821918249130249,-0.0006156227900646627,0.0,0.0,0.0,0.0,-0.0009454659302718937,-0.00326341250911355,0.002219095826148987,0.9983790516853333,0.0,0.0,0.0,11.13519287109375,2.076340913772583,5.569240570068359,-2015.4920654296875,0
1982.2900000000009,-0.012252869084477425,0.008269624784588814,-0.0006370128830894828,0.0,0.0,0.0,0.0,0.0005653576808981597,0.004210560582578182,-0.0024135212879627943,0.9987640976905823,0.0,0.0,0.0,11.137201309204102,2.0888588428497314,5.578405857086182,-2015.8555908203125,0
1992.196,-0.012224745936691761,0.008237242698669434,-0.0006233513122424483,0.0,0.0,0.0,0.0,0.0021445774473249912,0.001906737918034196,0.00011930424079764634,0.9995837807655334,0.0,0.0,0.0,11.135665893554688,2.083536386489868,5.565621852874756,-2015.5775146484375,0
2002.1080000000002,-0.012222341261804104,0.008281285874545574,-0.0006841343129053712,0.0,0.0,0.0,0.0,-0.002609196351841092,0.004275567829608917,-0.000975435134023428,0.9998668432235718,0.0,0.0,0.0,11.14415168762207,2.089770793914795,5.563185214996338,-2017.1136474609375,0
2012.0169999999998,-0.012205366045236588,0.008275785483419895,-0.000666773586999625,0.0,0.0,0.0,0.0,-0.0020866149570792913,-0.0015541220782324672,-4.5556702389148995e-05,0.999136745929718,0.0,0.0,0.0,11.144161224365234,2.094695568084717,5.5497331619262695,-2017.115478515625,0
2021.9279999999999,-0.012210510671138763,0.008327528834342957,-0.0007192667108029127,0.0,0.0,0.0,0.0,0.0014848170103505254,0.006682963110506535,-0.004295671824365854,1.001067876815796,0.0,0.0,0.0,11.152997016906738,2.1085352897644043,5.554917812347412,-2018.714599609375,0
2031.8420000000006,-0.012208203785121441,0.008333032950758934,-0.000704405247233808,0.0,0.0,0.0,0.0,-0.00041677922126837075,0.004690809641033411,0.0005544783780351281,0.9997633099555969,0.0,0.0,0.0,11.152429580688477,2.105830669403076,5.538686275482178,-2018.6119384765625,0
2041.75,-0.012231607921421528,0.008363429456949234,-0.0007440925110131502,0.0,0.0,0.0,0.0,-0.0021767932921648026,0.00012251120642758906,0.0013593127951025963,0.9978022575378418,0.0,0.0,0.0,11.157669067382812,2.1100728511810303,5.525118350982666,-2019.5604248046875,0
2051.666000000001,-0.01212250255048275,0.008300225250422955,-0.0007210132316686213,0.0,0.0,0.0,0.0,-0.0002790023572742939,-0.0029364628717303276,-0.0006493923137895763,0.9997271299362183,0.0,0.0,0.0,11.154960632324219,2.1026062965393066,5.533851146697998,-2019.070068359375,0
2061.5830000000005,-0.0121433325111866,0.008336739614605904,-0.0007578391814604402,0.0,0.0,0.0,0.0,0.0003913705004379153,0.0014590313658118248,0.002626225585117936,1.000010371208191,0.0,0.0,0.0,11.161233901977539,2.1097872257232666,5.54791784286499,-2020.20556640625,0
2071.4850000000006,-0.012090095318853855,0.008306200616061687,-0.0007439868059009314,0.0,0.0,0.0,0.0,-0.000938796263653785,0.0046801031567156315,-0.001957401167601347,1.00045645236969,0.0,0.0,0.0,11.161700248718262,2.1046054363250732,5.548214912414551,-2020.2900390625,0
2081.397000000001,-0.012130003422498703,0.008321660570800304,-0.0007573761977255344,0.0,0.0,0.0,0.0,0.0023759829346090555,0.001262772362679243,0.0014388372655957937,0.9998629689216614,0.0,0.0,0.0,11.164495468139648,2.108096122741699,5.532951831817627,-2020.7958984375,0
2091.312,-0.01213690172880888,0.008263497613370419,-0.0007715874817222357,0.0,0.0,0.0,0.0,0.0015809618635103106,0.004772335756570101,-0.00038588762981817126,1.0002527236938477,0.0,0.0,0.0,11.16598892211914,2.0983498096466064,5.5243353843688965,-2021.0662841796875,0
2101.2170000000006,-0.012160277925431728,0.008305061608552933,-0.0008007318247109652,0.0,0.0,0.0,0.0,0.002062501385807991,0.0007891592686064541,0.0020824929233640432,1.0001652240753174,0.0,0.0,0.0,11.170083999633789,2.0980727672576904,5.51456356048584,-2021.807373046875,0
2111.130000000001,-0.012108948081731796,0.008287046104669571,-0.0007794236298650503,0.0,0.0,0.0,0.0,-0.004230162128806114,0.0015429201303049922,-0.0012589312391355634,1.0003480911254883,0.0,0.0,0.0,11.15976619720459,2.0920896530151367,5.49598503112793,-2019.93994140625,0
2121.0429999999997,-0.012168144807219505,0.008257194422185421,-0.0007856361335143447,0.0,0.0,0.0,0.0,0.0015453603118658066,0.0009474110556766391,-0.000533257145434618,1.000791072845459,0.0,0.0,0.0,11.148049354553223,2.098151922225952,5.4958977699279785,-2017.8192138671875,0
2130.9539999999997,-0.01211645919829607,0.00827057659626007,-0.0007638025563210249,0.0,0.0,0.0,0.0,0.002516561420634389,-0.0015355319483205676,0.0008583726594224572,0.9998452663421631,0.0,0.0,0.0,11.136271476745605,2.1027841567993164,5.486258506774902,-2015.6871337890625,0
2140.863000000001,-0.012236563488841057,0.008199857547879219,-0.0006791378255002201,0.0,0.0,0.0,0.0,0.003439465770497918,0.0003667560813482851,0.0008001821115612984,0.999142050743103,0.0,0.0,0.0,11.138486862182617,2.09199857711792,5.470203399658203,-2016.0882568359375,0
2150.7690000000002,-0.012206030078232288,0.008188940584659576,-0.0006499784649349749,0.0,0.0,0.0,0.0,-0.00044075597543269396,0.0017024418339133263,-0.0012662381632253528,0.9997957348823547,0.0,0.0,0.0,11.13611125946045,2.0895087718963623,5.477572441101074,-2015.658203125,0
