timestamp,stateEstimate.x,stateEstimate.y,stateEstimate.z,controller.cmd_thrust,controller.cmd_roll,controller.cmd_pitch,controller.cmd_yaw,controller.r_roll,controller.r_pitch,controller.r_yaw,controller.accelz,controller.actuatorThrust,controller.roll,controller.pitch,controller.yaw,controller.rollRate,controller.pitchRate,controller.yawRate,controller.ctr_yaw
0.0,-0.00038879335625097156,-0.0005155918188393116,0.0005271533154882491,0.0,0.0,0.0,0.0,-0.0021103101316839457,0.0029566918965429068,0.0008413594914600253,0.9992139339447021,0.0,0.0,0.0,0.1831379532814026,2.4668240547180176,3.4174880981445312,-33.14833068847656,0
9.903999999998632,-0.00042569119250401855,-0.0004995129420422018,0.0005879724049009383,0.0,0.0,0.0,0.0,0.00016973764286376536,-0.002909438917413354,0.000734110304620117,1.0018091201782227,0.0,0.0,0.0,0.1830744445323944,2.4654781818389893,3.4086382389068604,-33.136837005615234,0
19.8229999999985,-0.00046671793097630143,-0.0005382656818255782,0.0006092047551646829,0.0,0.0,0.0,0.0,0.00041937458445318043,0.004129819106310606,-0.0017806903924793005,1.0017826557159424,0.0,0.0,0.0,0.18366925418376923,2.4592783451080322,3.410961151123047,-33.24449920654297,0
29.726999999998952,-0.0004657056415453553,-0.0005129063501954079,0.0007188757881522179,0.0,0.0,0.0,0.0,-0.0007917387410998344,-0.0013102642260491848,0.0013761541340500116,0.9995207190513611,0.0,0.0,0.0,0.17785291373729706,2.486999273300171,3.4304704666137695,-32.19173049926758,0
39.646999999999025,-0.00047849459224380553,-0.0005146709736436605,0.0007988705183379352,0.0,0.0,0.0,0.0,-0.0016195017378777266,-0.0023538130335509777,0.00140237039886415,0.9994449615478516,0.0,0.0,0.0,0.17849624156951904,2.4838855266571045,3.4267144203186035,-32.30817413330078,0
49.5630000000001,-0.00019968846754636616,-0.0001911347353598103,-3.783159263548441e-05,0.0,0.0,0.0,0.0,0.002352585317566991,-0.002291340148076415,-0.0008030851022340357,1.0007688999176025,0.0,0.0,0.0,0.1795969158411026,2.548480749130249,3.4823970794677734,-32.50740051269531,0
59.47199999999975,-0.0001618450041860342,-0.0001931119622895494,-6.75172486808151e-07,0.0,0.0,0.0,0.0,0.0007505225948989391,-0.0015924886101856828,0.0003237663768231869,0.9996957182884216,0.0,0.0,0.0,0.17910538613796234,2.54512095451355,3.48028826713562,-32.41843032836914,0
69.37199999999939,-0.00010623089474393055,-0.00010853725689230487,-0.0001136317296186462,0.0,0.0,0.0,0.0,-0.0006856975960545242,0.0012167240492999554,-0.0017645669868215919,0.9995344281196594,0.0,0.0,0.0,0.18565882742404938,2.5534255504608154,3.485205888748169,-33.6046142578125,0
79.29999999999927,-5.502958447323181e-05,-0.00010190481407335028,-7.599088712595403e-05,0.0,0.0,0.0,0.0,-0.0003376951499376446,0.0006495416164398193,0.0019262820715084672,0.9994469881057739,0.0,0.0,0.0,0.18606485426425934,2.552415132522583,3.47701358795166,-33.6781120300293,0
89.19499999999971,-4.618355160346255e-05,-7.171280594775453e-05,-0.00010721039870986715,0.0,0.0,0.0,0.0,0.0008728507091291249,8.766176324570552e-05,0.0035583057906478643,0.9992748498916626,0.0,0.0,0.0,0.1940595507621765,2.5588879585266113,3.478461503982544,-35.12516403198242,0
99.12799999999879,-4.076145705766976e-05,-7.931296568131074e-05,-9.395841334480792e-05,0.0,0.0,0.0,0.0,0.000791436992585659,-0.001168578746728599,-0.0019282615976408124,1.0011112689971924,0.0,0.0,0.0,0.19500179588794708,2.5504143238067627,3.4774539470672607,-35.295711517333984,0
109.02399999999943,-3.212193769286387e-05,-4.649796392186545e-05,-0.000122630299301818,0.0,0.0,0.0,0.0,0.000894306693226099,-0.003686519106850028,0.0011640767334029078,1.0023304224014282,0.0,0.0,0.0,0.19428418576717377,2.539015054702759,3.464399576187134,-35.16582489013672,0
118.9439999999995,-2.263803435198497e-05,-9.192496509058401e-05,-0.00012331648031249642,0.0,0.0,0.0,0.0,-0.006256870459765196,0.0006810115883126855,0.0030223410576581955,1.0008597373962402,0.0,0.0,0.0,0.19420233368873596,2.5280685424804688,3.4661755561828613,-35.1510124206543,0
128.85199999999895,-8.460194658255205e-05,-0.00013963213132228702,-8.569758938392624e-05,0.0,0.0,0.0,0.0,0.002306921174749732,-0.00017292349366471171,7.645305595360696e-05,1.0002741813659668,0.0,0.0,0.0,0.1941087543964386,2.536874294281006,3.459242582321167,-35.13407516479492,0
138.76000000000022,-4.559898661682382e-05,-0.00014080105756875128,-4.762563548865728e-05,0.0,0.0,0.0,0.0,-0.0003863723250105977,0.00029550111503340304,0.0021531463135033846,0.9987814426422119,0.0,0.0,0.0,0.19416435062885284,2.531416177749634,3.4567084312438965,-35.144134521484375,0
148.66699999999946,-2.619048609631136e-05,-9.366505400976166e-05,-8.569619240006432e-05,0.0,0.0,0.0,0.0,0.0020871011074632406,0.0012808556202799082,0.0001784657360985875,0.99895840883255,0.0,0.0,0.0,0.20155861973762512,2.536444664001465,3.4634017944335938,-36.48250961303711,0
158.57799999999952,-2.2257707314565778e-05,-0.00010721373109845445,-6.537512672366574e-05,0.0,0.0,0.0,0.0,0.0006374313961714506,0.001599339535459876,0.0025604604743421078,0.9990276098251343,0.0,0.0,0.0,0.20173487067222595,2.527177095413208,3.4602396488189697,-36.51441192626953,0
168.48999999999978,-5.911610060138628e-05,-0.0001349988451693207,-6.144919461803511e-05,0.0,0.0,0.0,0.0,-0.0018663447117432952,0.002009091665968299,0.002561179455369711,0.9999872446060181,0.0,0.0,0.0,0.20103546977043152,2.525355577468872,3.449434518814087,-36.3878173828125,0
178.39699999999903,-1.2490481822169386e-05,-0.0001836536976043135,-4.9782134738052264e-05,0.0,0.0,0.0,0.0,0.0001592062908457592,0.0026537415105849504,-0.0008456158684566617,1.0018435716629028,0.0,0.0,0.0,0.20091933012008667,2.5259032249450684,3.4477391242980957,-36.366798400878906,0
188.3089999999993,8.2806354839704e-06,-0.00013053308066446334,-0.00010902839130721986,0.0,0.0,0.0,0.0,-0.0009820172563195229,-0.00013278664846438915,0.004389351233839989,1.0031908750534058,0.0,0.0,0.0,0.20019814372062683,2.5184574127197266,3.440716028213501,-36.23625946044922,0
198.22899999999936,-8.52880475576967e-07,-0.00017321294581051916,-0.00010390628449385986,0.0,0.0,0.0,0.0,-0.005201093852519989,-0.0017828595591709018,-0.003356069326400757,0.9993770718574524,0.0,0.0,0.0,0.20148254930973053,2.5193090438842773,3.435894250869751,-36.468746185302734,0
208.13400000000001,-3.9233123970916495e-05,-0.00020067662990186363,-9.9926684924867e-05,0.0,0.0,0.0,0.0,0.0001574965863255784,-0.0023631732910871506,-0.002151526277884841,1.0013917684555054,0.0,0.0,0.0,0.20019209384918213,2.5289580821990967,3.4385204315185547,-36.235164642333984,0
218.04799999999886,-2.694484282983467e-05,-0.00021932432719040662,-8.355898171430454e-05,0.0,0.0,0.0,0.0,-0.0030346752610057592,-0.0049454690888524055,-0.0033768094144761562,0.9991775751113892,0.0,0.0,0.0,0.20007437467575073,2.5279810428619385,3.4379935264587402,-36.213863372802734,0
227.95699999999852,-6.70424269628711e-05,-0.00025056078447960317,-7.77572495280765e-05,0.0,0.0,0.0,0.0,-0.0007030189735814929,0.0035552300978451967,0.0017935074865818024,0.9990026950836182,0.0,0.0,0.0,0.19872957468032837,2.530848264694214,3.442631244659424,-35.97045135498047,0
237.87099999999919,-0.0001079150169971399,-0.0002836507046595216,-7.249323971336707e-05,0.0,0.0,0.0,0.0,0.00014112408098299056,0.0030474707018584013,0.0008077279780991375,1.001185655593872,0.0,0.0,0.0,0.19885390996932983,2.525024175643921,3.4313504695892334,-35.992950439453125,0
247.77899999999863,-6.236992339836434e-05,-0.00017780136840883642,-0.00017159876006189734,0.0,0.0,0.0,0.0,0.0020511681213974953,0.0039038152899593115,-0.0003083176270592958,1.0005367994308472,0.0,0.0,0.0,0.20595571398735046,2.557138681411743,3.4380104541778564,-37.27839279174805,0
257.6899999999987,-5.6008640967775136e-05,-0.00015164590149652213,-0.00012555081048049033,0.0,0.0,0.0,0.0,0.003654461121186614,-0.0028417285066097975,-9.213752491632476e-05,0.999858021736145,0.0,0.0,0.0,0.20556668937206268,2.5503106117248535,3.4218435287475586,-37.207977294921875,0
267.60999999999876,-5.573551607085392e-05,-0.00011403392272768542,-0.00015914280083961785,0.0,0.0,0.0,0.0,-0.00031819811556488276,-0.0005532472277991474,0.000722115917596966,1.0005714893341064,0.0,0.0,0.0,0.20573148131370544,2.5408215522766113,3.42478609085083,-37.23780822753906,0
277.5139999999992,-9.704462718218565e-05,-0.00014166896289680153,-0.00015788289601914585,0.0,0.0,0.0,0.0,0.00035483541432768106,-0.0019380546873435378,-0.004397438373416662,0.9995984435081482,0.0,0.0,0.0,0.20606549084186554,2.538264274597168,3.420769691467285,-37.29826354980469,0
287.4339999999993,-0.00011278233432676643,-0.00010349552030675113,-0.00017512807971797884,0.0,0.0,0.0,0.0,-0.0014730554539710283,0.002355228876695037,-0.0026733491104096174,1.0007991790771484,0.0,0.0,0.0,0.204008087515831,2.5345988273620605,3.4179329872131348,-36.92586898803711,0
297.3349999999991,-8.020731183933094e-05,-0.00011988852929789573,-0.00013500082422979176,0.0,0.0,0.0,0.0,9.427053009858355e-05,0.0008293031132780015,-0.0014928739983588457,1.0005449056625366,0.0,0.0,0.0,0.20296740531921387,2.5371315479278564,3.411142587661743,-36.73750305175781,0
307.2579999999998,-8.300971967400983e-05,-7.920265488792211e-05,-0.00015903687744867057,0.0,0.0,0.0,0.0,-0.00219853688031435,0.0011924629798159003,-0.0015836538514122367,0.9992614388465881,0.0,0.0,0.0,0.21206161379814148,2.553231954574585,3.411656141281128,-38.38357162475586,0
317.15599999999904,-4.219526090309955e-05,-0.00010750476212706417,-0.00012841772695537657,0.0,0.0,0.0,0.0,0.0028585579711943865,0.0018113807309418917,-0.0006740258540958166,0.9988037347793579,0.0,0.0,0.0,0.21183060109615326,2.5537986755371094,3.4034204483032227,-38.34176254272461,0
327.0739999999987,-5.5727301514707506e-05,-8.737322787055746e-05,-0.00014935299986973405,0.0,0.0,0.0,0.0,-0.0002453626075293869,-0.0008006818825379014,-0.00038819474866613746,1.0008505582809448,0.0,0.0,0.0,0.2120225876569748,2.5477566719055176,3.4016029834747314,-38.37651062011719,0
336.98099999999977,-7.208020542748272e-05,-0.00011244464985793456,-0.00014058088709134609,0.0,0.0,0.0,0.0,0.0014665425987914205,-0.0002187545906053856,-0.0002335852332180366,1.0013213157653809,0.0,0.0,0.0,0.21194934844970703,2.546532154083252,3.397399663925171,-38.36325454711914,0
346.90599999999904,-8.238478767452762e-05,-8.187118510250002e-05,-0.0001661558635532856,0.0,0.0,0.0,0.0,-0.001359019079245627,0.0002739731571637094,-0.0014946174342185259,0.9975442886352539,0.0,0.0,0.0,0.21949638426303864,2.5511934757232666,3.395968437194824,-39.72928237915039,0
356.8089999999993,-5.0297305278945714e-05,-0.00011959737457800657,-0.0001426858943887055,0.0,0.0,0.0,0.0,0.0025748719926923513,-0.0021698137279599905,0.0014891291502863169,0.9981259107589722,0.0,0.0,0.0,0.21886253356933594,2.552913188934326,3.3877906799316406,-39.61455535888672,0
366.71999999999935,-6.871300865896046e-05,-0.00010241956624668092,-0.00016351559315808117,0.0,0.0,0.0,0.0,0.001033053849823773,-0.002245286712422967,-0.0029230231884866953,1.0026668310165405,0.0,0.0,0.0,0.2191449999809265,2.5466907024383545,3.3874359130859375,-39.665679931640625,0
376.6229999999996,-8.404430991504341e-05,-0.00012261616939213127,-0.00015066040214151144,0.0,0.0,0.0,0.0,-0.0016228265594691038,0.003742700209841132,0.002409831853583455,1.0000087022781372,0.0,0.0,0.0,0.21847786009311676,2.542745590209961,3.3870303630828857,-39.54492950439453,0
386.5589999999993,-0.00013634056085720658,-0.00015806140436325222,-0.00014917284715920687,0.0,0.0,0.0,0.0,-0.00030916169635020196,-0.0026085872668772936,0.0014572973595932126,0.9977801442146301,0.0,0.0,0.0,0.21875397861003876,2.5421416759490967,3.375166654586792,-39.594905853271484,0
396.4470000000001,-5.764547677244991e-05,-0.00013697208487428725,-0.00010792791726998985,0.0,0.0,0.0,0.0,-0.0021843190770596266,-0.004100046586245298,-0.0020510598551481962,1.000083088874817,0.0,0.0,0.0,0.21861542761325836,2.5380661487579346,3.37331223487854,-39.569828033447266,0
406.3670000000002,-0.00011124885350000113,-0.00017195958935189992,-0.00010530799045227468,0.0,0.0,0.0,0.0,-0.0012011799262836576,0.004852286074310541,-0.0008084159344434738,1.0020864009857178,0.0,0.0,0.0,0.21739408373832703,2.5397391319274902,3.373227119445801,-39.348758697509766,0
416.2709999999988,-9.959930321201682e-05,-0.00015908903151284903,-7.925587124191225e-05,0.0,0.0,0.0,0.0,0.0005559070850722492,-0.0032846571411937475,-0.002340629929676652,1.000018835067749,0.0,0.0,0.0,0.2169070690870285,2.5396485328674316,3.3634884357452393,-39.26061248779297,0
426.1979999999985,-0.00011549032205948606,-0.00011230706877540797,-0.0001115419581765309,0.0,0.0,0.0,0.0,0.0009266727138310671,-0.002792758634313941,-0.0038110106252133846,1.0000303983688354,0.0,0.0,0.0,0.215668722987175,2.5393903255462646,3.365955114364624,-39.036468505859375,0
436.09199999999873,-3.861794539261609e-05,-0.00013574982585851103,-6.21293656877242e-05,0.0,0.0,0.0,0.0,0.0010999548248946667,0.0027929923962801695,0.0018901786534115672,1.0020239353179932,0.0,0.0,0.0,0.21419811248779297,2.5378575325012207,3.3700075149536133,-38.770286560058594,0
446.01800000000003,-4.062231528223492e-05,-8.645377965876833e-05,-0.00010008413664763793,0.0,0.0,0.0,0.0,0.0010963239474222064,-0.0027106699999421835,-0.0007370333187282085,1.0028544664382935,0.0,0.0,0.0,0.21436165273189545,2.537050485610962,3.3645591735839844,-38.79988479614258,0
455.91599999999926,-7.424295472446829e-05,-0.00010446269152453169,-8.093658107100055e-05,0.0,0.0,0.0,0.0,0.0003461544110905379,-0.0010973666794598103,0.001206663902848959,1.0009329319000244,0.0,0.0,0.0,0.21353593468666077,2.5351202487945557,3.3670830726623535,-38.650428771972656,0
465.83799999999974,-7.818522863090038e-05,-7.307490886887535e-05,-0.00012391908967401832,0.0,0.0,0.0,0.0,0.0010155407944694161,0.002738432725891471,0.0017408357234671712,1.0008443593978882,0.0,0.0,0.0,0.2132640779018402,2.5333478450775146,3.3630595207214355,-38.60122299194336,0
475.73699999999917,-8.443397382507101e-05,-0.00010150314483325928,-0.0001031289211823605,0.0,0.0,0.0,0.0,0.0015254989266395569,0.00012246190453879535,0.0017371396534144878,0.9992265105247498,0.0,0.0,0.0,0.21318881213665009,2.530748128890991,3.354404926300049,-38.58760070800781,0
485.65899999999965,-0.00010578170622466132,-0.00011121392890345305,-0.0001427911629434675,0.0,0.0,0.0,0.0,-0.0011486905859783292,-0.002385862870141864,0.0027561618480831385,1.0013490915298462,0.0,0.0,0.0,0.21357080340385437,2.5275285243988037,3.357266664505005,-38.656742095947266,0
495.5699999999997,-8.22198562673293e-05,-0.0001295135443797335,-0.00010456695599714294,0.0,0.0,0.0,0.0,-0.0012987751979380846,0.0011872637551277876,0.00022828669170849025,1.0010844469070435,0.0,0.0,0.0,0.21416158974170685,2.526247024536133,3.3549957275390625,-38.763671875,0
505.47999999999956,-4.1823015635600314e-05,-5.392625098465942e-05,-0.0001962358655873686,0.0,0.0,0.0,0.0,0.0013770872028544545,-0.0032375757582485676,0.002073784125968814,0.9996159076690674,0.0,0.0,0.0,0.21392922103405,2.527082920074463,3.3489930629730225,-38.721614837646484,0
515.384,-4.231995626469143e-05,-9.643458179198205e-05,-0.00018456844554748386,0.0,0.0,0.0,0.0,-0.0018339735688641667,0.003466080641373992,-0.00269412063062191,1.000200629234314,0.0,0.0,0.0,0.21381470561027527,2.52681040763855,3.3534352779388428,-38.70088577270508,0
525.3079999999991,-5.875825809198432e-05,-4.896129757980816e-05,-0.00020585698075592518,0.0,0.0,0.0,0.0,-0.004999339580535889,0.0029889175202697515,-0.0012689762515947223,0.9996309280395508,0.0,0.0,0.0,0.2126120924949646,2.5254933834075928,3.3389830589294434,-38.48320770263672,0
535.2089999999989,-4.5285058149602264e-05,-5.8864097809419036e-05,-0.00017430812295060605,0.0,0.0,0.0,0.0,0.0014443604741245508,-0.0023284528870135546,-0.006897654850035906,1.0004414319992065,0.0,0.0,0.0,0.21271543204784393,2.52616810798645,3.3326220512390137,-38.501914978027344,0
545.128999999999,-5.688153760274872e-05,-4.610826727002859e-05,-0.00022064358927309513,0.0,0.0,0.0,0.0,-0.0029465516563504934,0.0006597012397833169,-0.003171365475282073,1.001220703125,0.0,0.0,0.0,0.21043513715267181,2.520399332046509,3.340717315673828,-38.089176177978516,0
555.0339999999997,-5.122158472659066e-05,-6.65550323901698e-05,-0.0001964059192687273,0.0,0.0,0.0,0.0,0.0023810642305761576,-0.004545752424746752,0.002992231398820877,0.9995666742324829,0.0,0.0,0.0,0.2098444253206253,2.525811195373535,3.339446783065796,-37.982261657714844,0
564.9589999999989,-5.3035524615552276e-05,-2.1255502360872924e-05,-0.0002473652421031147,0.0,0.0,0.0,0.0,0.001750249182805419,-0.001593796070665121,-0.0013454229338094592,1.0005407333374023,0.0,0.0,0.0,0.21727608144283295,2.5347909927368164,3.3611488342285156,-39.3274040222168,0
574.8639999999996,-2.3981705453479663e-05,-5.9801448514917865e-05,-0.00022415730927605182,0.0,0.0,0.0,0.0,-0.0014636249979957938,0.0009585844236426055,-0.0008561313734389842,1.0007036924362183,0.0,0.0,0.0,0.2168712615966797,2.529466390609741,3.3631820678710938,-39.25413131713867,0
584.7739999999994,-9.948082151822746e-05,-6.065127672627568e-05,-0.0001847621751949191,0.0,0.0,0.0,0.0,0.0005960350390523672,0.0033641732297837734,-0.0021560601890087128,0.9992502927780151,0.0,0.0,0.0,0.216352641582489,2.5266852378845215,3.359070301055908,-39.160255432128906,0
594.6729999999989,-6.113943527452648e-05,-9.348440653411672e-05,-0.00014710784307681024,0.0,0.0,0.0,0.0,-0.0006577454041689634,-0.0020782577339559793,-0.002503304975107312,1.0012457370758057,0.0,0.0,0.0,0.2162351906299591,2.523916482925415,3.3469271659851074,-39.138999938964844,0
604.5990000000002,-0.00012465174950193614,-0.00012504863843787462,-0.0001392521953675896,0.0,0.0,0.0,0.0,0.0013240521075204015,0.004154691006988287,0.0002466388395987451,1.0012282133102417,0.0,0.0,0.0,0.21552079916000366,2.5252797603607178,3.3470656871795654,-39.00969314575195,0
614.4979999999996,-9.202251385431737e-05,-0.00013037369353696704,-0.00010321902664145455,0.0,0.0,0.0,0.0,-0.002240463625639677,0.001112428493797779,-0.0006570539553649724,1.000935673713684,0.0,0.0,0.0,0.21553269028663635,2.517153263092041,3.334409713745117,-39.01184844970703,0
624.4219999999987,-0.00012770880130119622,-0.00011868858564412221,-0.00011995436216238886,0.0,0.0,0.0,0.0,0.0024548701476305723,-0.002208825433626771,-0.0027659302577376366,1.0005496740341187,0.0,0.0,0.0,0.21547353267669678,2.5151774883270264,3.3271121978759766,-39.00114059448242,0
634.3289999999997,-8.76124540809542e-05,-0.000144852718221955,-7.256100070662796e-05,0.0,0.0,0.0,0.0,0.0011713783023878932,0.003773217089474201,-0.0026780853513628244,1.0011372566223145,0.0,0.0,0.0,0.2142789661884308,2.5061309337615967,3.322857618331909,-38.78491973876953,0
644.2489999999998,-0.00013287118053995073,-0.0001490503054810688,-7.52695050323382e-05,0.0,0.0,0.0,0.0,-0.0010551903396844864,-0.0027427864260971546,0.001101963222026825,1.0009965896606445,0.0,0.0,0.0,0.21332323551177979,2.4981281757354736,3.3171679973602295,-38.61193084716797,0
654.1419999999998,-0.00010867482342291623,-0.00016324198804795742,-2.3097454686649144e-05,0.0,0.0,0.0,0.0,0.0007128923898562789,0.002716589253395796,-0.0053297183476388454,0.9987518787384033,0.0,0.0,0.0,0.21280606091022491,2.494582414627075,3.3241186141967773,-38.5183219909668,0
664.0630000000001,-0.0001745308836689219,-0.0001955522020580247,-8.434206392848864e-06,0.0,0.0,0.0,0.0,0.0007572487811557949,-0.0034788933116942644,0.0023670559749007225,1.0014652013778687,0.0,0.0,0.0,0.21048517525196075,2.492427110671997,3.3157436847686768,-38.098236083984375,0
673.9639999999999,-0.00024292741727549583,-0.00023431688896380365,9.228500857716426e-06,0.0,0.0,0.0,0.0,-0.004513840656727552,-0.0021574394777417183,0.0026528339367359877,1.0012457370758057,0.0,0.0,0.0,0.21139509975910187,2.489058494567871,3.321894407272339,-38.262935638427734,0
683.8889999999992,-0.0002311275020474568,-0.00016452124691568315,-5.659604357788339e-05,0.0,0.0,0.0,0.0,0.002888360060751438,8.530927880201489e-05,0.0010064415400847793,1.001516342163086,0.0,0.0,0.0,0.21221035718917847,2.4956350326538086,3.3268401622772217,-38.41049575805664,0
693.7869999999984,-0.0002978804986923933,-0.0002004353009397164,-4.2109146306756884e-05,0.0,0.0,0.0,0.0,0.0018588628154248,0.001627301680855453,0.0019077116157859564,0.9992996454238892,0.0,0.0,0.0,0.21215415000915527,2.4860079288482666,3.3315088748931885,-38.400325775146484,0
703.7199999999993,-0.000339421269018203,-0.0001963894028449431,-5.176964623387903e-05,0.0,0.0,0.0,0.0,0.00014541535347234458,0.0004196083755232394,0.0029391602147370577,1.0006755590438843,0.0,0.0,0.0,0.21248532831668854,2.4840705394744873,3.3283708095550537,-38.46026611328125,0
713.610999999999,-0.00040609901770949364,-0.0002340121427550912,-3.859766002278775e-05,0.0,0.0,0.0,0.0,-0.0016894858563318849,0.001706781447865069,-0.0022311503998935223,1.001064658164978,0.0,0.0,0.0,0.21269504725933075,2.48221755027771,3.326512098312378,-38.498226165771484,0
723.5280000000002,-0.000387335370760411,-0.0001804974308470264,-0.0001192316849483177,0.0,0.0,0.0,0.0,0.00017838578787632287,0.0013255076482892036,-0.00073654530569911,0.9988100528717041,0.0,0.0,0.0,0.21241822838783264,2.511229991912842,3.3576455116271973,-38.4481201171875,0
733.4329999999991,-0.0004493732121773064,-0.00021605854271911085,-0.00011378845374565572,0.0,0.0,0.0,0.0,-0.00037150317803025246,0.0035162963904440403,0.0015294674085453153,1.0002914667129517,0.0,0.0,0.0,0.21172451972961426,2.5035390853881836,3.3472445011138916,-38.32255935668945,0
743.3539999999994,-0.00039994739927351475,-0.00014855679182801396,-0.00022022309713065624,0.0,0.0,0.0,0.0,0.0021212429273873568,0.002928655594587326,0.0005927091697230935,1.0020034313201904,0.0,0.0,0.0,0.21441206336021423,2.541024923324585,3.382957696914673,-38.80900573730469,0
753.259,-0.00012652647274080664,-0.00019281274580862373,-1.6028470781748183e-05,0.0,0.0,0.0,0.0,-0.0019490738632157445,0.005326365120708942,-0.0017919414676725864,1.0020673274993896,0.0,0.0,0.0,0.2103310525417328,2.53414249420166,3.4566571712493896,-38.070335388183594,0
763.1669999999995,-7.98385008238256e-05,-0.00010738015407696366,-7.198034290922806e-05,0.0,0.0,0.0,0.0,-0.0018460276769474149,-0.005364586133509874,-0.0034035234712064266,1.0000622272491455,0.0,0.0,0.0,0.21065053343772888,2.530895709991455,3.4414730072021484,-38.12816619873047,0
773.0810000000001,-5.51636258023791e-05,-0.00010060617205454037,-3.0933082598494366e-05,0.0,0.0,0.0,0.0,-0.0007129579316824675,0.00460367975756526,0.0038281904999166727,0.999366044998169,0.0,0.0,0.0,0.20857281982898712,2.5305230617523193,3.4448795318603516,-37.75209426879883,0
783.0019999999986,-1.5863897715462372e-06,-3.1140145438257605e-05,-0.00010352485696785152,0.0,0.0,0.0,0.0,-0.0007070552092045546,-0.0028646355494856834,-0.0034273138735443354,1.0000677108764648,0.0,0.0,0.0,0.20897048711776733,2.5299718379974365,3.428678274154663,-37.824073791503906,0
792.9009999999998,-1.2862079529440962e-05,-6.399032281478867e-05,-9.878334822133183e-05,0.0,0.0,0.0,0.0,0.0004584946727845818,0.0003783352440223098,8.617171260993928e-05,1.001101016998291,0.0,0.0,0.0,0.20750977098941803,2.527407169342041,3.4296514987945557,-37.55968475341797,0
802.8249999999989,2.0103840142837726e-05,-2.74530266324291e-05,-0.00015925579646136612,0.0,0.0,0.0,0.0,0.0018910005455836654,0.0002617035061120987,0.0007838839665055275,1.0010340213775635,0.0,0.0,0.0,0.2070377618074417,2.5288302898406982,3.4245359897613525,-37.474246978759766,0
812.723,-1.0443825885886326e-05,-4.000010812887922e-05,-0.0001559043739689514,0.0,0.0,0.0,0.0,-0.001127727096900344,0.0003355179214850068,0.004865952301770449,1.001291275024414,0.0,0.0,0.0,0.2061893492937088,2.5248963832855225,3.41827130317688,-37.320682525634766,0
822.6419999999998,-2.723569377849344e-05,-2.9472768801497295e-05,-0.0001606325968168676,0.0,0.0,0.0,0.0,0.0007318066782318056,-0.002815087791532278,-0.0023232162930071354,1.000508427619934,0.0,0.0,0.0,0.20647937059402466,2.5233876705169678,3.4156975746154785,-37.37317657470703,0
832.5469999999987,1.822317426558584e-05,-4.4076750782551244e-05,-0.00012916138803120703,0.0,0.0,0.0,0.0,-0.003003522753715515,-0.004389328416436911,0.001543944119475782,0.9993709325790405,0.0,0.0,0.0,0.20558518171310425,2.520284652709961,3.414337396621704,-37.21133041381836,0
842.476999999999,-4.463316508918069e-05,-7.45081779314205e-05,-8.384465763811022e-05,0.0,0.0,0.0,0.0,0.001108467229641974,-0.003985847812145948,0.001648325240239501,1.0033479928970337,0.0,0.0,0.0,0.2053178995847702,2.5211544036865234,3.4165306091308594,-37.16294860839844,0
852.3679999999986,-4.133066613576375e-05,-9.828410111367702e-05,-5.953551590209827e-05,0.0,0.0,0.0,0.0,-0.0008231682586483657,-0.0011636050185188651,0.0017475534696131945,1.0016270875930786,0.0,0.0,0.0,0.205915167927742,2.516979217529297,3.42417573928833,-37.27105712890625,0
862.289999999999,-0.00014029123121872544,-0.00017084872524719685,2.263546411995776e-05,0.0,0.0,0.0,0.0,-0.0007500063511542976,0.00100289739202708,0.0013477903557941318,0.9998549222946167,0.0,0.0,0.0,0.20584043860435486,2.515362024307251,3.4194202423095703,-37.25752639770508,0
872.1999999999989,-4.971336602466181e-05,-0.00020935770589858294,8.201892342185602e-05,0.0,0.0,0.0,0.0,0.0021029170602560043,0.0025414179544895887,-0.0001263711747014895,0.9988194704055786,0.0,0.0,0.0,0.20468826591968536,2.514030694961548,3.409365653991699,-37.04898452758789,0
882.1139999999996,-7.117631321307272e-05,-0.00022047174570616335,8.250005339505151e-05,0.0,0.0,0.0,0.0,0.0010292158694937825,0.0036835570354014635,-0.00021041519357822835,0.9983252882957458,0.0,0.0,0.0,0.20301419496536255,2.507995128631592,3.399979591369629,-36.7459716796875,0
892.0149999999994,-0.00010900516645051539,-0.00025934496079571545,9.72864218056202e-05,0.0,0.0,0.0,0.0,0.0027373209595680237,0.006669720634818077,0.0006871594814583659,0.9984710812568665,0.0,0.0,0.0,0.20196877419948578,2.501420736312866,3.3858959674835205,-36.55674743652344,0
901.9429999999993,-0.00015342424740083516,-0.00029966593137942255,0.00011316541349515319,0.0,0.0,0.0,0.0,-0.00016912216960918158,0.0002427734580123797,0.00231975712813437,1.00130033493042,0.0,0.0,0.0,0.20216184854507446,2.4939706325531006,3.37083101272583,-36.59169387817383,0
911.8359999999993,-0.00011610317596932873,-0.00028111072606407106,0.00016168691217899323,0.0,0.0,0.0,0.0,0.001885075238533318,0.001414229511283338,-0.0015233746962621808,1.0031746625900269,0.0,0.0,0.0,0.20163173973560333,2.4894626140594482,3.3715052604675293,-36.49574661254883,0
921.7609999999986,-8.941421401686966e-05,-0.0002253774437122047,9.251407027477399e-05,0.0,0.0,0.0,0.0,0.0003123233618680388,-0.0018761648098006845,-0.0007590685854665935,1.0019197463989258,0.0,0.0,0.0,0.2006000131368637,2.4856045246124268,3.363408327102661,-36.30900192260742,0
931.6700000000001,-0.00012256813351996243,-0.0002379500074312091,0.00012314961350057274,0.0,0.0,0.0,0.0,-0.0025831020902842283,-0.003087651450186968,0.003635300323367119,0.9993387460708618,0.0,0.0,0.0,0.20008906722068787,2.480454683303833,3.3668134212493896,-36.21651840209961,0
941.5829999999987,-0.00011035506759071723,-0.00019820337183773518,7.581579120596871e-05,0.0,0.0,0.0,0.0,-0.00078990199835971,0.0037338545080274343,-0.0012661117361858487,0.9997739791870117,0.0,0.0,0.0,0.20064976811408997,2.4828760623931885,3.36966872215271,-36.31800842285156,0
951.4809999999998,-0.00016402355686295778,-0.00023907097056508064,8.951042400440201e-05,0.0,0.0,0.0,0.0,0.0015260034706443548,-0.001818031189031899,0.0017899656668305397,0.9986998438835144,0.0,0.0,0.0,0.19934993982315063,2.4820144176483154,3.356174945831299,-36.08273696899414,0
961.4079999999994,-0.00016773738025221974,-0.0001923487870953977,4.860326953348704e-05,0.0,0.0,0.0,0.0,0.0010563171235844493,0.0006315656937658787,-0.0030839815735816956,0.9987954497337341,0.0,0.0,0.0,0.19899818301200867,2.475775957107544,3.355381488800049,-36.019065856933594,0
971.3109999999997,-0.00022995247854851186,-0.00018604611977934837,7.535349141107872e-05,0.0,0.0,0.0,0.0,-0.0010876641608774662,0.007164916954934597,0.0007819085149094462,0.9995607137680054,0.0,0.0,0.0,0.19780245423316956,2.467928171157837,3.349727153778076,-35.80263900756836,0
981.2259999999987,-0.00019292545039206743,-0.00014240418386179954,-2.2975415049586445e-05,0.0,0.0,0.0,0.0,-0.004453775938600302,-0.0038124488200992346,0.0005431980243884027,0.9984099864959717,0.0,0.0,0.0,0.19732119143009186,2.4640705585479736,3.3303744792938232,-35.71552658081055,0
991.1269999999986,-0.0002506877644918859,-0.00018337465007789433,-2.298286563018337e-05,0.0,0.0,0.0,0.0,-0.00082160416059196,-0.0009519032901152968,0.0030755698680877686,1.001287817955017,0.0,0.0,0.0,0.19607006013393402,2.470240831375122,3.3351504802703857,-35.48907470703125,0
1001.0529999999999,-0.0002174474357161671,-0.00013985867553856224,-0.00013787747593596578,0.0,0.0,0.0,0.0,-0.000791973143350333,0.0001891633146442473,-0.0029583622235804796,0.999840497970581,0.0,0.0,0.0,0.19648166000843048,2.4704067707061768,3.334543228149414,-35.56357192993164,0
1010.9609999999993,-0.00018994708079844713,-0.00014653251855634153,-9.124889766098931e-05,0.0,0.0,0.0,0.0,0.0016381830209866166,0.00019484218501020223,-0.000871624331921339,1.0012362003326416,0.0,0.0,0.0,0.19521701335906982,2.4707603454589844,3.3388938903808594,-35.33466720581055,0
1020.878999999999,-0.00017623619351070374,-0.0001049264392349869,-0.0001536287018097937,0.0,0.0,0.0,0.0,0.0027525608893483877,-0.0018558608135208488,0.002749386942014098,1.0010403394699097,0.0,0.0,0.0,0.19460654258728027,2.466033697128296,3.3324286937713623,-35.22417449951172,0
1030.7709999999988,-8.857324428390712e-05,-0.00015915576659608632,-0.00012128911475883797,0.0,0.0,0.0,0.0,-0.002716833958402276,-0.0038665549363940954,0.0026187929324805737,1.0000709295272827,0.0,0.0,0.0,0.19533488154411316,2.4633703231811523,3.3291616439819336,-35.35599899291992,0
1040.6949999999997,-6.160514749353752e-05,-0.0001101299058063887,-0.00019528238044586033,0.0,0.0,0.0,0.0,0.0005121685680933297,0.001396253821440041,-0.0027565439231693745,0.9983402490615845,0.0,0.0,0.0,0.1951228529214859,2.473796844482422,3.326763153076172,-35.317626953125,0
1050.598,-9.721427340991795e-05,-0.00014487322187051177,-0.00019896870071534067,0.0,0.0,0.0,0.0,-0.001457855338230729,0.0005223327898420393,-0.0016149181174114347,0.9992510080337524,0.0,0.0,0.0,0.1936461627483368,2.4728798866271973,3.3224778175354004,-35.05034255981445,0
1060.5280000000002,-9.421994036529213e-05,-0.00012940313899889588,-0.00026169742341153324,0.0,0.0,0.0,0.0,0.001627425430342555,-0.0013772820821031928,0.0007587482687085867,1.0000416040420532,0.0,0.0,0.0,0.19296471774578094,2.471592426300049,3.3244900703430176,-34.92699432373047,0
1070.4249999999993,-9.641361248213798e-05,-0.00015042800805531442,-0.0002504318254068494,0.0,0.0,0.0,0.0,0.0029312679544091225,0.0012446014443412423,-0.0029654300305992365,1.0010583400726318,0.0,0.0,0.0,0.19305568933486938,2.467406749725342,3.328465461730957,-34.94346237182617,0
1080.3359999999993,-0.00012400677951518446,-0.00012706685811281204,-0.00027177896117791533,0.0,0.0,0.0,0.0,-0.003416091203689575,-0.002253919141367078,0.0018975365674123168,0.9997977018356323,0.0,0.0,0.0,0.198161780834198,2.4715592861175537,3.326524496078491,-35.867679595947266,0
1090.244999999999,-7.055717287585139e-05,-0.00011252531840000302,-0.00022315382375381887,0.0,0.0,0.0,0.0,0.002204055432230234,-0.001400444656610489,-0.001120144734159112,0.9996036887168884,0.0,0.0,0.0,0.19802895188331604,2.4774279594421387,3.325744390487671,-35.84363555908203,0
1100.1589999999997,-0.00010690594353945926,-0.00011933226778637618,-0.0002430465683573857,0.0,0.0,0.0,0.0,0.00010435034346301109,-0.0018505415646359324,0.0034695721697062254,1.001948595046997,0.0,0.0,0.0,0.19744180142879486,2.4718785285949707,3.3251163959503174,-35.73735809326172,0
1110.0779999999995,-0.00011481477849883959,-0.00014726902008987963,-0.00023074027558322996,0.0,0.0,0.0,0.0,-0.00031354554812423885,0.002008595038205385,-0.00063028943259269,1.0037016868591309,0.0,0.0,0.0,0.19759048521518707,2.4682223796844482,3.328040838241577,-35.7642707824707,0
1119.9830000000002,-0.00016997673083096743,-0.00019162333046551794,-0.00023508838785346597,0.0,0.0,0.0,0.0,-0.0008910420583561063,0.0007030089618638158,-0.0009373787906952202,1.0018889904022217,0.0,0.0,0.0,0.19668620824813843,2.468337297439575,3.322774648666382,-35.6005973815918,0
1129.893,-0.00015049611101858318,-0.00020223413594067097,-0.00021352160547394305,0.0,0.0,0.0,0.0,-0.00048121140571311116,-0.0011066076112911105,0.001891561085358262,0.9984018206596375,0.0,0.0,0.0,0.1959887146949768,2.4730234146118164,3.3216190338134766,-35.47434997558594,0
1139.804,-0.0002294388395966962,-0.00024439001572318375,-0.00017792987637221813,0.0,0.0,0.0,0.0,-8.572160004405305e-05,-0.00042255589505657554,-0.002771170809864998,1.0005806684494019,0.0,0.0,0.0,0.19683203101158142,2.4707021713256836,3.316776752471924,-35.62698745727539,0
1149.7150000000001,-0.0001439024053979665,-0.00021261123765725642,-9.846541797742248e-05,0.0,0.0,0.0,0.0,-0.0003790967457462102,0.001927160774357617,0.0007950476719997823,0.9998564720153809,0.0,0.0,0.0,0.19605109095573425,2.472100019454956,3.316802501678467,-35.48564147949219,0
1159.634,-0.0001767987123457715,-0.00018160136824008077,-9.967925871023908e-05,0.0,0.0,0.0,0.0,0.0012941926252096891,-0.0009010171052068472,-0.0016033777501434088,1.0013540983200073,0.0,0.0,0.0,0.19675512611865997,2.470515489578247,3.30690598487854,-35.613067626953125,0
1169.5479999999989,-0.0001193525968119502,-0.00021089812798891217,-4.793544940184802e-05,0.0,0.0,0.0,0.0,-0.004514392465353012,-0.0005977637483738363,0.006950708571821451,1.0009593963623047,0.0,0.0,0.0,0.19552676379680634,2.463012933731079,3.3071510791778564,-35.3907356262207,0
1179.4619999999995,-0.0001591131294844672,-0.00020280556054785848,-4.264990639057942e-05,0.0,0.0,0.0,0.0,0.0011363576631993055,0.000847481656819582,-0.0005633806576952338,1.0026154518127441,0.0,0.0,0.0,0.19678740203380585,2.4679911136627197,3.304882526397705,-35.61891174316406,0
1189.3599999999988,-0.00012720286031253636,-0.00021198393369559199,1.8746324712992646e-05,0.0,0.0,0.0,0.0,-0.0031665144488215446,-0.0024128404911607504,-0.00012734121992252767,1.0021027326583862,0.0,0.0,0.0,0.1961774379014969,2.464661121368408,3.2977075576782227,-35.508506774902344,0
1199.2729999999992,-0.00014917633961886168,-0.00019193085609003901,1.2109316230635159e-05,0.0,0.0,0.0,0.0,0.0028297503013163805,0.0028340157587081194,0.0011168058263137937,1.0006511211395264,0.0,0.0,0.0,0.19585341215133667,2.4688355922698975,3.295431613922119,-35.449859619140625,0
1209.1859999999997,-9.001123544294387e-05,-0.000208606623345986,8.39405256556347e-05,0.0,0.0,0.0,0.0,-0.0013600171077996492,-0.0010594531195238233,0.0010810981038957834,0.9990006685256958,0.0,0.0,0.0,0.19593214988708496,2.461266040802002,3.287274122238159,-35.464111328125,0
1219.098,-6.871016375953332e-05,-0.0001692867517704144,2.5138997443718836e-05,0.0,0.0,0.0,0.0,0.000959312601480633,0.0065028611570596695,-0.0010862224735319614,1.000305414199829,0.0,0.0,0.0,0.19532658159732819,2.461613178253174,3.287735939025879,-35.354496002197266,0
1229.0169999999998,-7.943615491967648e-05,-0.00020850455621257424,5.9150166634935886e-05,0.0,0.0,0.0,0.0,0.0026687257923185825,0.0021600062027573586,-0.0028653722256422043,0.9997445940971375,0.0,0.0,0.0,0.1946936845779419,2.456702470779419,3.2811193466186523,-35.23994445800781,0
1238.923999999999,-7.915902824606746e-05,-0.00021340149396564811,1.0498106348677538e-05,0.0,0.0,0.0,0.0,-0.0007658819667994976,0.004932438023388386,0.0037310728803277016,0.9991289973258972,0.0,0.0,0.0,0.1937403529882431,2.4497742652893066,3.266659736633301,-35.06739044189453,0
1248.83,-0.00010992482566507533,-0.00023242682800628245,4.295951657695696e-05,0.0,0.0,0.0,0.0,0.000186562305316329,-0.006454019341617823,-0.004212206229567528,1.001089096069336,0.0,0.0,0.0,0.19419434666633606,2.44368577003479,3.255341053009033,-35.14956283569336,0
1258.7389999999996,-7.017685857135803e-05,-0.00014417857164517045,-2.5808221835177392e-05,0.0,0.0,0.0,0.0,-0.0021741981618106365,-0.002232880564406514,0.004085680469870567,1.0015408992767334,0.0,0.0,0.0,0.192894846200943,2.44439959526062,3.2713472843170166,-34.91434860229492,0
1268.6659999999993,-7.819084567017853e-05,-0.00016980170039460063,9.642438271839637e-06,0.0,0.0,0.0,0.0,0.002573760226368904,0.003836248070001602,-0.0035410269629210234,1.0014151334762573,0.0,0.0,0.0,0.19263368844985962,2.4384820461273193,3.2713239192962646,-34.86708450317383,0
1278.562,-6.720301462337375e-05,-0.00013255857629701495,-4.23251221945975e-05,0.0,0.0,0.0,0.0,0.000786826538387686,-0.0027576854918152094,0.003994404338300228,1.0011906623840332,0.0,0.0,0.0,0.1917039155960083,2.4307961463928223,3.261852264404297,-34.69879150390625,0
1288.4749999999985,-0.00010817169822985306,-0.0001521438971394673,-1.7897176803671755e-05,0.0,0.0,0.0,0.0,-0.0007277291733771563,0.005521849729120731,-0.0025251400656998158,0.9991747140884399,0.0,0.0,0.0,0.19208712875843048,2.4317619800567627,3.2609782218933105,-34.76815414428711,0
1298.3829999999998,-9.356463851872832e-05,-0.00010016834130510688,-7.040198397589847e-05,0.0,0.0,0.0,0.0,0.004685186315327883,0.0030500274151563644,0.0006859020213596523,1.0002062320709229,0.0,0.0,0.0,0.1976711004972458,2.4415478706359863,3.261308431625366,-35.778865814208984,0
1308.3049999999985,-7.580745295854285e-05,-0.00014103642024565488,-3.758549064514227e-05,0.0,0.0,0.0,0.0,-0.00410834513604641,-0.004085605964064598,0.002987401792779565,1.0013810396194458,0.0,0.0,0.0,0.19697390496730804,2.4339091777801514,3.2504982948303223,-35.65266799926758,0
1318.2019999999993,-0.0001335738052148372,-0.00018613858264870942,-2.70124182861764e-05,0.0,0.0,0.0,0.0,0.0015501221641898155,-0.002143603516742587,0.0009936761343851686,0.9986511468887329,0.0,0.0,0.0,0.19760622084140778,2.438764810562134,3.259340524673462,-35.76712417602539,0
1328.125,-0.00011309671390336007,-0.00020542912534438074,4.258357876096852e-06,0.0,0.0,0.0,0.0,-0.001491827773861587,0.0014658670406788588,-0.003087464487180114,0.9995130896568298,0.0,0.0,0.0,0.19792324304580688,2.4359042644500732,3.2639048099517822,-35.824501037597656,0
1338.0239999999994,-0.00016012329433578998,-0.00022034301946405321,5.710461664421018e-06,0.0,0.0,0.0,0.0,-0.0008606361225247383,-0.0008576238760724664,0.0010031497804448009,1.0004010200500488,0.0,0.0,0.0,0.19683614373207092,2.4380924701690674,3.2512495517730713,-35.62773513793945,0
1347.9470000000001,-9.708572179079056e-05,-0.00024740470689721406,6.151625711936504e-05,0.0,0.0,0.0,0.0,0.0039369817823171616,0.0013999188086017966,0.0007185082649812102,1.000303030014038,0.0,0.0,0.0,0.19748330116271973,2.4430675506591797,3.2471446990966797,-35.744869232177734,0
1357.8469999999998,-0.00010266505705658346,-0.0001879620976978913,3.9096739783417434e-05,0.0,0.0,0.0,0.0,-1.0379983905295376e-05,0.0004243187140673399,-0.002518980298191309,1.001517653465271,0.0,0.0,0.0,0.1969582885503769,2.429171323776245,3.2404494285583496,-35.64984130859375,0
1367.7699999999986,-0.00016354917897842824,-0.00023300752218347043,5.215318378759548e-05,0.0,0.0,0.0,0.0,0.0019371936796233058,-0.000488654593937099,0.0015010425122454762,0.9999268054962158,0.0,0.0,0.0,0.19597691297531128,2.4255120754241943,3.2328977584838867,-35.47220993041992,0
1377.6729999999989,-0.0001818896271288395,-0.000210457801586017,2.021020554821007e-05,0.0,0.0,0.0,0.0,0.004119503311812878,-6.305736314971e-05,-0.0006539298919960856,0.998613715171814,0.0,0.0,0.0,0.19580556452274323,2.4190781116485596,3.227215528488159,-35.441200256347656,0
1387.5900000000001,-0.0002023803099291399,-0.0002498742251191288,5.184029578231275e-05,0.0,0.0,0.0,0.0,-0.0003647583944257349,0.003989479970186949,0.0016081223729997873,1.0022730827331543,0.0,0.0,0.0,0.19478601217269897,2.411036252975464,3.2139875888824463,-35.25665283203125,0
1397.5010000000002,-0.0001672002108534798,-0.00018445603200234473,-3.543732236721553e-05,0.0,0.0,0.0,0.0,-0.0006518789450637996,-0.0004425326769705862,0.0008537434041500092,1.001133680343628,0.0,0.0,0.0,0.19502916932106018,2.4096014499664307,3.1960153579711914,-35.30066680908203,0
1407.4279999999999,-0.00023285426141228527,-0.00022782043379265815,-2.939949990832247e-05,0.0,0.0,0.0,0.0,-0.0012614817824214697,0.002761164912953973,-0.0014283034252002835,1.000687599182129,0.0,0.0,0.0,0.19464579224586487,2.411216974258423,3.190922975540161,-35.23127365112305,0
1417.33,-0.00022893666755408049,-0.0001815892173908651,-9.831481293076649e-05,0.0,0.0,0.0,0.0,0.0031528931576758623,0.0004410729743540287,-0.001661880873143673,1.0016660690307617,0.0,0.0,0.0,0.19524118304252625,2.410231113433838,3.1797454357147217,-35.33904266357422,0
1427.232,-0.0002938606485258788,-0.00022438904852606356,-9.527718793833628e-05,0.0,0.0,0.0,0.0,0.0005014643538743258,-0.0010676354868337512,0.0014572126092389226,1.000380039215088,0.0,0.0,0.0,0.1940966248512268,2.4051523208618164,3.177438497543335,-35.13187789916992,0
1437.1369999999988,-0.0002887962036766112,-0.00013872262206859887,-0.00015597428136970848,0.0,0.0,0.0,0.0,0.0005098182009533048,-0.001224524574354291,-0.00045301002683117986,0.9997920393943787,0.0,0.0,0.0,0.1942005157470703,2.440459728240967,3.2042574882507324,-35.15068054199219,0
1447.0720000000001,-0.0001629983016755432,-0.0001464507367927581,-3.302553159301169e-05,0.0,0.0,0.0,0.0,-0.0009091395186260343,-0.0013970249565318227,-0.0008862142567522824,1.0004364252090454,0.0,0.0,0.0,0.19241276383399963,2.44462513923645,3.25069260597229,-34.827091217041016,0
1456.9599999999991,-0.0001876263995654881,-0.0001313041866524145,-3.784777800319716e-05,0.0,0.0,0.0,0.0,0.003278744872659445,-0.0018852631328627467,-0.00479410495609045,1.0004911422729492,0.0,0.0,0.0,0.1912820041179657,2.4396119117736816,3.2492282390594482,-34.6224250793457,0
1466.8809999999994,-0.00010612272308208048,-0.00019089996931143105,5.7444217418378685e-06,0.0,0.0,0.0,0.0,-0.002377524506300688,-0.0009509225492365658,-0.0013204138958826661,0.9999160170555115,0.0,0.0,0.0,0.19036202132701874,2.4375412464141846,3.2451844215393066,-34.45590591430664,0
1476.780999999999,-7.032801659079269e-05,-0.00011233439727220684,-5.65456721233204e-05,0.0,0.0,0.0,0.0,-0.0017337307799607515,0.0006467956700362265,0.0025958202313631773,0.9988922476768494,0.0,0.0,0.0,0.19035153090953827,2.4365618228912354,3.2416560649871826,-34.45400619506836,0
1486.7169999999987,-6.846852193120867e-05,-0.00016298888658639044,-4.2914172809105366e-05,0.0,0.0,0.0,0.0,-0.0019507951801642776,0.0020839469507336617,-0.0033882467541843653,1.0001718997955322,0.0,0.0,0.0,0.19104310870170593,2.4390504360198975,3.2414393424987793,-34.579185485839844,0
1496.607,-5.439001688500866e-05,-0.00010399443272035569,-9.077025606529787e-05,0.0,0.0,0.0,0.0,-0.0030873261857777834,-0.0006920090527273715,-0.0022575734183192253,1.001605749130249,0.0,0.0,0.0,0.19024620950222015,2.4382152557373047,3.235412120819092,-34.434940338134766,0
1506.521999999999,-5.071617852081545e-05,-0.00013760679576080292,-7.244596781674773e-05,0.0,0.0,0.0,0.0,0.0025869563687592745,0.0007574813789688051,-0.0004821292532142252,1.0017383098602295,0.0,0.0,0.0,0.18972845375537872,2.4383838176727295,3.230884313583374,-34.341224670410156,0
1516.4279999999999,-1.8157717931899242e-05,-0.00010379268496762961,-9.343327110400423e-05,0.0,0.0,0.0,0.0,0.0034074480645358562,0.0001460068888263777,-0.0001355939166387543,1.001240611076355,0.0,0.0,0.0,0.1889278143644333,2.4281516075134277,3.227327346801758,-34.196311950683594,0
1526.3529999999992,-6.946819485165179e-05,-0.00014095955702941865,-8.909226016839966e-05,0.0,0.0,0.0,0.0,-0.00011719384929165244,0.0011670298408716917,-0.0006964663625694811,1.0008965730667114,0.0,0.0,0.0,0.18803730607032776,2.4210376739501953,3.2265868186950684,-34.035125732421875,0
1536.2519999999986,-0.00012379491818137467,-0.00017913788906298578,-8.333994628628716e-05,0.0,0.0,0.0,0.0,-0.0007085965480655432,0.0040847850032150745,0.0005461781402118504,1.000651240348816,0.0,0.0,0.0,0.18809612095355988,2.4188144207000732,3.2144110202789307,-34.0457763671875,0
1546.1659999999993,-0.00018371082842350006,-0.0001664783339947462,-6.114571442594752e-05,0.0,0.0,0.0,0.0,-0.00015110935783013701,0.001776793273165822,0.001047707162797451,1.0016623735427856,0.0,0.0,0.0,0.1891867071390152,2.413045644760132,3.2028110027313232,-34.243167877197266,0
1556.08,-8.80909719853662e-05,-2.191442035837099e-05,-0.00019581917149480432,0.0,0.0,0.0,0.0,0.0006378067191690207,0.002217602450400591,-0.0011363396188244224,1.0022276639938354,0.0,0.0,0.0,0.1885014921426773,2.406005382537842,3.191290855407715,-34.119144439697266,0
1565.9989999999998,-0.00014808672131039202,-5.61725755687803e-05,-0.00019493808213155717,0.0,0.0,0.0,0.0,0.0020750996191054583,0.001866626087576151,9.369685722049326e-05,1.0017305612564087,0.0,0.0,0.0,0.1885301023721695,2.40427303314209,3.1854116916656494,-34.12432098388672,0
1575.9179999999997,-0.00011789778363890946,-5.21765359735582e-05,-0.00016582774696871638,0.0,0.0,0.0,0.0,-0.0007240312988869846,0.003049019258469343,0.00192710617557168,0.9999673962593079,0.0,0.0,0.0,0.1888561248779297,2.3996975421905518,3.187302350997925,-34.18333435058594,0
1585.8220000000001,-0.00017889062291942537,-8.734292350709438e-05,-0.00015898054698482156,0.0,0.0,0.0,0.0,-0.0009122168412432075,0.0067050219513475895,-0.0019150121370330453,0.9993882775306702,0.0,0.0,0.0,0.18782871961593628,2.400897979736328,3.1814041137695312,-33.99736785888672,0
1595.732,-0.0002402633399469778,-0.0001234318915521726,-0.00015224283561110497,0.0,0.0,0.0,0.0,0.0011488607851788402,0.0036125320475548506,-0.001315185334533453,1.001246690750122,0.0,0.0,0.0,0.18654215335845947,2.397089958190918,3.1710476875305176,-33.76449966430664,0
1605.6369999999988,-0.00010465756349731237,-0.00015671370783820748,-0.00011850861483253539,0.0,0.0,0.0,0.0,-0.0029209787026047707,-0.00022673838248010725,0.005519549362361431,0.9998201131820679,0.0,0.0,0.0,0.18639929592609406,2.3899102210998535,3.1901040077209473,-33.7386474609375,0
1615.5469999999987,-0.0001098598149837926,-0.00011953501962125301,-0.00018363624985795468,0.0,0.0,0.0,0.0,0.003926832694560289,-0.0006826989119872451,-0.0007645912701264024,0.9978447556495667,0.0,0.0,0.0,0.18717250227928162,2.3867852687835693,3.1834051609039307,-33.878597259521484,0
1625.4689999999991,-0.00016722167492844164,-0.00015840405831113458,-0.00017852876044344157,0.0,0.0,0.0,0.0,0.00021957025455776602,0.00018231877766083926,0.0013355209957808256,0.9992258548736572,0.0,0.0,0.0,0.18765363097190857,2.3856585025787354,3.192955732345581,-33.96567916870117,0
1635.3779999999988,-4.133435504627414e-05,-0.00011338192416587844,-0.00011669412924675271,0.0,0.0,0.0,0.0,0.0009043305180966854,-0.0016622949624434114,-0.0011101176496595144,0.9980089664459229,0.0,0.0,0.0,0.1887773871421814,2.3793768882751465,3.1843454837799072,-34.16908264160156,0
1645.2849999999999,-9.493315155850723e-05,-0.00015202620124910027,-0.00010926718096015975,0.0,0.0,0.0,0.0,0.003558445954695344,0.0009239981882274151,-0.0006799090770073235,0.9985461831092834,0.0,0.0,0.0,0.18917319178581238,2.373347282409668,3.186664342880249,-34.240726470947266,0
1655.1970000000001,-1.998510470002657e-06,-0.0001447464746888727,-4.275523315300234e-05,0.0,0.0,0.0,0.0,-0.003130710916593671,0.0028061377815902233,-0.0045732068829238415,0.9987330436706543,0.0,0.0,0.0,0.18753685057163239,2.3675057888031006,3.1830379962921143,-33.944541931152344,0
1665.107,-5.630597297567874e-05,-0.0001835307339206338,-3.342990021337755e-05,0.0,0.0,0.0,0.0,0.0016752665396779776,-0.005241896957159042,0.0021039736457169056,0.9992661476135254,0.0,0.0,0.0,0.1868896484375,2.3643276691436768,3.1837563514709473,-33.827396392822266,0
1675.0239999999994,-5.5219275964191183e-05,-0.00015754008200019598,-5.558087650570087e-06,0.0,0.0,0.0,0.0,-0.0017755830194801092,-0.00024886071332730353,0.0024512268137186766,0.9978736639022827,0.0,0.0,0.0,0.18729765713214874,2.359196901321411,3.1969211101531982,-33.901248931884766,0
1684.9279999999999,-0.00011449302110122517,-0.00019673442875500768,2.713686626520939e-06,0.0,0.0,0.0,0.0,0.0006896199192851782,0.005289784166961908,0.0006239411886781454,0.9997456669807434,0.0,0.0,0.0,0.18740984797477722,2.356673002243042,3.199955940246582,-33.92155456542969,0
1694.8419999999987,-6.35312098893337e-05,-0.00017243380716536194,4.768406870425679e-05,0.0,0.0,0.0,0.0,-0.0016577697824686766,-0.004555410239845514,0.001906971912831068,1.0002341270446777,0.0,0.0,0.0,0.1872277408838272,2.3565402030944824,3.1879940032958984,-33.88859558105469,0
1704.7459999999992,-0.00012537057045847178,-0.00021378717792686075,5.7114350056508556e-05,0.0,0.0,0.0,0.0,0.0017652042442932725,0.0009512827382422984,-0.0013002688065171242,0.9990769028663635,0.0,0.0,0.0,0.18812528252601624,2.360504627227783,3.189819097518921,-34.05105209350586,0
1714.6679999999997,-0.00011209146759938449,-0.00019074001465924084,0.00010834729619091377,0.0,0.0,0.0,0.0,0.0005428369040600955,-0.0027787359431385994,0.0009509343653917313,0.9995889663696289,0.0,0.0,0.0,0.18609930574893951,2.3571853637695312,3.1818671226501465,-33.684349060058594,0
1724.5729999999985,-0.0001766308705555275,-0.00023414604947902262,0.0001200400511152111,0.0,0.0,0.0,0.0,0.002324131317436695,-0.0014338456094264984,0.0010450052795931697,1.00043785572052,0.0,0.0,0.0,0.18570345640182495,2.356308937072754,3.1755452156066895,-33.612693786621094,0
1734.4889999999996,-0.00018176207959186286,-0.00017572676006238908,0.0001021894277073443,0.0,0.0,0.0,0.0,-0.0035396337043493986,0.0008683180785737932,-0.0031652057077735662,1.000868558883667,0.0,0.0,0.0,0.1855761557817459,2.3495681285858154,3.183791160583496,-33.58964920043945,0
1744.3889999999992,-0.00025145127438008785,-0.00022022612392902374,0.00011266482761129737,0.0,0.0,0.0,0.0,-0.0017903323750942945,-0.003935055807232857,0.001268576830625534,1.00065016746521,0.0,0.0,0.0,0.18491746485233307,2.3450379371643066,3.1733272075653076,-33.470428466796875,0
1754.3009999999995,-7.08522493368946e-05,-0.0001535939663881436,3.455897967796773e-05,0.0,0.0,0.0,0.0,-0.0034789417404681444,0.002099379198625684,-0.0013593394542112947,0.9992697238922119,0.0,0.0,0.0,0.19181610643863678,2.362977981567383,3.1933207511901855,-34.71910095214844,0
1764.2219999999998,-9.96571034193039e-05,-0.00013837238657288253,1.0937476872641128e-05,0.0,0.0,0.0,0.0,-0.0006784760043956339,-0.003628166625276208,-0.0014188896166160703,1.0020809173583984,0.0,0.0,0.0,0.19113337993621826,2.3717267513275146,3.193819522857666,-34.595523834228516,0
1774.1359999999986,-9.872622467810288e-05,-0.00015562149928882718,4.714878014056012e-05,0.0,0.0,0.0,0.0,-0.0016559845535084605,-0.0019125816179439425,-0.0013444788055494428,1.0018105506896973,0.0,0.0,0.0,0.19177210330963135,2.367746353149414,3.1953341960906982,-34.71113204956055,0
1784.0469999999987,-7.20496173016727e-05,-9.418441914021969e-05,-3.347590609337203e-05,0.0,0.0,0.0,0.0,0.0005881616962142289,-0.00049167888937518,-0.0006905921618454158,0.9989364147186279,0.0,0.0,0.0,0.19120092689990997,2.36647367477417,3.1978180408477783,-34.60774612426758,0
1793.946,-7.3753108154051e-05,-0.00012158462050138041,-3.5530079003365245e-06,0.0,0.0,0.0,0.0,-0.0016903051873669028,0.001991863362491131,-0.0001231064525200054,1.0005700588226318,0.0,0.0,0.0,0.19185467064380646,2.3637216091156006,3.1954736709594727,-34.726078033447266,0
1803.8589999999986,-6.418559496523812e-05,-6.323303387034684e-05,-6.389067857526243e-05,0.0,0.0,0.0,0.0,-2.698722164495848e-05,-0.000280468026176095,-0.00022424659982789308,1.0006626844406128,0.0,0.0,0.0,0.19938431680202484,2.3808255195617676,3.20607852935791,-36.088958740234375,0
1813.7690000000002,-5.4095700761536136e-05,-0.0001193023708765395,-4.471289867069572e-05,0.0,0.0,0.0,0.0,0.0004319878644309938,0.00365246320143342,0.00012327361037023365,1.0007604360580444,0.0,0.0,0.0,0.2003413587808609,2.3827264308929443,3.210503339767456,-36.26218795776367,0
1823.682999999999,-5.686863369191997e-05,-7.106284465407953e-05,-9.736148058436811e-05,0.0,0.0,0.0,0.0,0.0006462432793341577,0.0005265128565952182,-0.0004578334919642657,1.0006341934204102,0.0,0.0,0.0,0.19990210235118866,2.3753018379211426,3.1970467567443848,-36.182682037353516,0
1833.5919999999987,1.4430381270358339e-05,-0.0001545891136629507,-6.655874312855303e-05,0.0,0.0,0.0,0.0,-0.0015030249487608671,-0.0004742421442642808,-0.0003818525583483279,0.999098002910614,0.0,0.0,0.0,0.19923220574855804,2.3729050159454346,3.1862504482269287,-36.061424255371094,0
1843.5029999999988,-5.7061373809119686e-05,-0.00020361627684906125,-6.399620906449854e-05,0.0,0.0,0.0,0.0,-0.00040595585596747696,-0.005885605700314045,0.000901759194675833,1.0000309944152832,0.0,0.0,0.0,0.19838231801986694,2.3700058460235596,3.17503023147583,-35.9075927734375,0
1853.414999999999,-5.9260361013002694e-05,-0.00019870440883096308,-3.482970714685507e-05,0.0,0.0,0.0,0.0,0.0005766497924923897,0.0011335439048707485,-0.0018098577857017517,1.0012112855911255,0.0,0.0,0.0,0.19775007665157318,2.3672738075256348,3.1778664588928223,-35.793155670166016,0
1863.3239999999987,-8.91488598426804e-05,-0.0001714290992822498,-7.240546256070957e-05,0.0,0.0,0.0,0.0,-0.00023464336118195206,0.0015266997506842017,-0.002532736398279667,1.0013662576675415,0.0,0.0,0.0,0.19662123918533325,2.3602278232574463,3.1783506870269775,-35.58883285522461,0
1873.2469999999994,-4.166118742432445e-05,-0.0002231872931588441,-3.441853914409876e-05,0.0,0.0,0.0,0.0,-0.0005397775676101446,-0.0036953636445105076,0.0035943849943578243,0.9994733929634094,0.0,0.0,0.0,0.19563619792461395,2.3616151809692383,3.163583755493164,-35.41054153442383,0
1883.1599999999999,-3.8932470488362014e-05,-0.00016534973110537976,-9.488259820500389e-05,0.0,0.0,0.0,0.0,0.0004810703103430569,0.0017555368831381202,0.0005623730830848217,0.999801754951477,0.0,0.0,0.0,0.20349013805389404,2.3729465007781982,3.183035135269165,-36.83211898803711,0
1893.0639999999985,-2.786055574688362e-06,-0.00023541275004390627,-6.731048051733524e-05,0.0,0.0,0.0,0.0,-0.0006652550073340535,-0.005465381313115358,0.00042848187149502337,0.9996239542961121,0.0,0.0,0.0,0.20458385348320007,2.368593215942383,3.19551944732666,-37.030086517333984,0
1902.9740000000002,-3.1635026971343905e-05,-0.00016137743659783155,-7.91969578131102e-05,0.0,0.0,0.0,0.0,-0.0009808854665607214,0.002510243561118841,-0.0011808814015239477,1.0002381801605225,0.0,0.0,0.0,0.20428690314292908,2.3655216693878174,3.1979713439941406,-36.97633743286133,0
1912.8909999999996,-1.9410133972996846e-05,-0.00021017398103140295,-4.930448267259635e-05,0.0,0.0,0.0,0.0,0.0030471000354737043,-0.0008353434968739748,-0.0022109784185886383,1.0017439126968384,0.0,0.0,0.0,0.20257754623889923,2.3657238483428955,3.1798906326293945,-36.66693878173828,0
1922.7979999999989,-5.3380674216896296e-05,-0.00016443869390059263,-6.20776045252569e-05,0.0,0.0,0.0,0.0,-0.0028548266272991896,0.001737661543302238,-0.0034686666913330555,0.9999692440032959,0.0,0.0,0.0,0.20352211594581604,2.3546464443206787,3.186352252960205,-36.83790969848633,0
1932.705,-7.120965892681852e-05,-0.0001619912072783336,-1.9190138118574396e-05,0.0,0.0,0.0,0.0,0.0004369830130599439,0.0012063980102539062,-0.003447648137807846,0.9998393058776855,0.0,0.0,0.0,0.2026464343070984,2.352112293243408,3.1884701251983643,-36.679405212402344,0
1942.6179999999986,-7.0578207669314e-05,-0.00011001602979376912,-7.607386214658618e-05,0.0,0.0,0.0,0.0,-0.0014955067308619618,0.0024610464461147785,-0.0026677020359784365,1.002956748008728,0.0,0.0,0.0,0.20918913185596466,2.3626976013183594,3.189155340194702,-37.8636474609375,0
1952.527,-6.437423144234344e-05,-0.0001290791988139972,-3.483846376184374e-05,0.0,0.0,0.0,0.0,-0.0003496826393529773,-0.0004754005931317806,0.0018070614896714687,1.0015650987625122,0.0,0.0,0.0,0.2077455222606659,2.3637030124664307,3.187823534011841,-37.602352142333984,0
1962.441999999999,-3.9653226849623024e-05,-7.927374099381268e-05,-0.00012523918121587485,0.0,0.0,0.0,0.0,-0.001871170592494309,-0.001307683065533638,-0.0008258924935944378,0.9989299774169922,0.0,0.0,0.0,0.20670652389526367,2.3583555221557617,3.187587261199951,-37.41428756713867,0
1972.3499999999985,-0.00010518201452214271,-8.527356112608686e-05,-0.00010435279546072707,0.0,0.0,0.0,0.0,0.0023284098133444786,0.003879694966599345,-0.002981118392199278,0.9983422756195068,0.0,0.0,0.0,0.20674054324626923,2.353689432144165,3.180995225906372,-37.420448303222656,0
1982.2709999999988,-9.103782213060185e-05,-3.3893629733938724e-05,-0.00018451792129781097,0.0,0.0,0.0,0.0,-0.0025684735737740993,-0.0008171023800969124,0.0007626696606166661,0.997166633605957,0.0,0.0,0.0,0.20566245913505554,2.3448374271392822,3.178771495819092,-37.22531509399414,0
1992.1849999999995,-1.3860566468792967e-05,-8.428210276179016e-05,-0.00014113819634076208,0.0,0.0,0.0,0.0,0.002837820677086711,0.0006898085703141987,0.0008361259824596345,0.9991762042045593,0.0,0.0,0.0,0.20483727753162384,2.3411855697631836,3.1640970706939697,-37.075950622558594,0
2002.0939999999991,-4.8571309889666736e-05,-5.746928582084365e-05,-0.00016635424981359392,0.0,0.0,0.0,0.0,-0.0007489876006729901,-0.001954827457666397,-0.0011399684008210897,1.0000540018081665,0.0,0.0,0.0,0.2037539929151535,2.343776226043701,3.1711292266845703,-36.879878997802734,0
2012.0010000000002,-6.512246909551322e-05,-3.5273307730676606e-05,-0.000129044201457873,0.0,0.0,0.0,0.0,-0.0018252622103318572,-8.590867219027132e-05,0.0005987415206618607,1.0015348196029663,0.0,0.0,0.0,0.20311665534973145,2.3394980430603027,3.1694467067718506,-36.7645149230957,0
2021.9159999999993,-0.0001415162842022255,-8.340259228134528e-05,-0.00013065585517324507,0.0,0.0,0.0,0.0,-0.00017956472584046423,0.002133108675479889,-0.0030144648626446724,1.0009512901306152,0.0,0.0,0.0,0.2025212198495865,2.337531328201294,3.169273614883423,-36.656742095947266,0
2031.8289999999997,-6.047392525942996e-05,-0.00010280489368597046,-9.94847432593815e-05,0.0,0.0,0.0,0.0,0.000981296063400805,0.0029248036444187164,0.0010284296004101634,1.0011870861053467,0.0,0.0,0.0,0.2015463262796402,2.3365354537963867,3.149611711502075,-36.48028564453125,0
2041.7369999999992,-0.00013741731527261436,-0.00015214910672511905,-9.569169924361631e-05,0.0,0.0,0.0,0.0,0.00132429925724864,-0.0033213768620043993,-0.0008802461670711637,1.000199317932129,0.0,0.0,0.0,0.20005249977111816,2.331355571746826,3.1457736492156982,-36.20989990234375,0
2051.6530000000002,-0.00015466479817405343,-0.00014521359116770327,-6.935538112884387e-05,0.0,0.0,0.0,0.0,-0.0005914560169912875,0.0009478206047788262,0.0019224658608436584,0.9997377991676331,0.0,0.0,0.0,0.19957149028778076,2.326509475708008,3.141404390335083,-36.122840881347656,0
2061.557999999999,-0.00023226524353958666,-0.00019547469855751842,-6.173931615194306e-05,0.0,0.0,0.0,0.0,0.001995870377868414,-0.0023100629914551973,0.00118998100515455,1.0013846158981323,0.0,0.0,0.0,0.1989797055721283,2.3288354873657227,3.1343257427215576,-36.01572036743164,0
2071.4719999999998,-0.00019322949810884893,-0.00020546637824736536,-3.0777759093325585e-05,0.0,0.0,0.0,0.0,-0.0024607914965599775,0.004132644273340702,-0.000550837954506278,0.9999703764915466,0.0,0.0,0.0,0.19931921362876892,2.325894355773926,3.130125045776367,-36.07717514038086,0
2081.374,-0.0001635338121559471,-0.0001218195611727424,-0.00019257007807027549,0.0,0.0,0.0,0.0,-0.0006364518776535988,0.0012894024839624763,0.0016950565623119473,0.9994589686393738,0.0,0.0,0.0,0.19905275106430054,2.3278298377990723,3.1330060958862305,-36.0289421081543,0
2091.2959999999985,-0.0002398122160229832,-0.00016912449791561812,-0.00019306041940581053,0.0,0.0,0.0,0.0,-0.0012803617864847183,0.0014601323055103421,-0.0014614748070016503,0.9981721043586731,0.0,0.0,0.0,0.19859696924686432,2.334198474884033,3.1286134719848633,-35.94644546508789,0
2101.2029999999995,-0.00027146312640979886,-0.00016569705621805042,-0.0002639896119944751,0.0,0.0,0.0,0.0,0.0026752648409456015,-0.004343642853200436,-0.0026733363047242165,0.9967629313468933,0.0,0.0,0.0,0.19781066477298737,2.3340439796447754,3.1249427795410156,-35.80412292480469,0
